{"data": {"bikes": [{"rental_uris": {"android": "https://dc.lft.to/lastmile_qr_scan", "ios": "https://dc.lft.to/lastmile_qr_scan"}, "lon": -77.04628566666666, "name": "bc6abc64090d1d1418737da10944f61a", "lat": 38.918118, "is_reserved": 0, "fusion_lat": 0.0, "bike_id": "bc6abc64090d1d1418737da10944f61a", "type": "electric_scooter", "is_disabled": 0, "fusion_lon": 0.0}, {"rental_uris": {"android": "https://dc.lft.to/lastmile_qr_scan", "ios": "https://dc.lft.to/lastmile_qr_scan"}, "lon": -77.02351316666666, "name": "3d98254810f593776fbef56bf9eccd1b", "lat": 38.93002666666667, "is_reserved": 0, "fusion_lat": 0.0, "bike_id": "3d98254810f593776fbef56bf9eccd1b", "type": "electric_scooter", "is_disabled": 0, "fusion_lon": 0.0}, {"rental_uris": {"android": "https://dc.lft.to/lastmile_qr_scan", "ios": "https://dc.lft.to/lastmile_qr_scan"}, "lon": -77.04695016666666, "name": "e18951f9cbc55673d8284a595bf86002", "lat": 38.892235666666664, "is_reserved": 0, "fusion_lat": 0.0, "bike_id": "e18951f9cbc55673d8284a595bf86002", "type": "electric_scooter", "is_disabled": 0, "fusion_lon": 0.0}, {"rental_uris": {"android": "https://dc.lft.to/lastmile_qr_scan", "ios": "https://dc.lft.to/lastmile_qr_scan"}, "lon": -77.0344575, "name": "845a5fe03594a75db7e6e444eec555e3", "lat": 38.90973666666667, "is_reserved": 0, "fusion_lat": 0.0, "bike_id": "845a5fe03594a75db7e6e444eec555e3", "type": "electric_scooter", "is_disabled": 0, "fusion_lon": 0.0}, {"rental_uris": {"android": "https://dc.lft.to/lastmile_qr_scan", "ios": "https://dc.lft.to/lastmile_qr_scan"}, "lon": -77.01145916666667, "name": "6f3275dbb7c4985409dc707015386cd1", "lat": 38.900067166666666, "is_reserved": 0, "fusion_lat": 0.0, "bike_id": "6f3275dbb7c4985409dc707015386cd1", "type": "electric_scooter", "is_disabled": 0, "fusion_lon": 0.0}, {"rental_uris": {"android": "https://dc.lft.to/lastmile_qr_scan", "ios": "https://dc.lft.to/lastmile_qr_scan"}, "lon": -76.942567, "name": "bc55489415436381a1ec684e411fe825", "lat": 38.89845433333333, "is_reserved": 0, "fusion_lat": 0.0, "bike_id": "bc55489415436381a1ec684e411fe825", "type": "electric_scooter", "is_disabled": 0, "fusion_lon": 0.0}, {"rental_uris": {"android": "https://dc.lft.to/lastmile_qr_scan", "ios": "https://dc.lft.to/lastmile_qr_scan"}, "lon": -77.000723, "name": "a4c9a7872ce9d134e3a55e85c27152db", "lat": 38.886804, "is_reserved": 0, "fusion_lat": 0.0, "bike_id": "a4c9a7872ce9d134e3a55e85c27152db", "type": "electric_scooter", "is_disabled": 0, "fusion_lon": 0.0}, {"rental_uris": {"android": "https://dc.lft.to/lastmile_qr_scan", "ios": "https://dc.lft.to/lastmile_qr_scan"}, "lon": -77.00243133333333, "name": "3832a9de0d1874c326292e405ea898fb", "lat": 38.87648266666667, "is_reserved": 0, "fusion_lat": 0.0, "bike_id": "3832a9de0d1874c326292e405ea898fb", "type": "electric_scooter", "is_disabled": 0, "fusion_lon": 0.0}, {"rental_uris": {"android": "https://dc.lft.to/lastmile_qr_scan", "ios": "https://dc.lft.to/lastmile_qr_scan"}, "lon": -77.0343095, "name": "4900db03b6ab9c28177050eff3b8bbd5", "lat": 38.91916633333334, "is_reserved": 0, "fusion_lat": 0.0, "bike_id": "4900db03b6ab9c28177050eff3b8bbd5", "type": "electric_scooter", "is_disabled": 0, "fusion_lon": 0.0}, {"rental_uris": {"android": "https://dc.lft.to/lastmile_qr_scan", "ios": "https://dc.lft.to/lastmile_qr_scan"}, "lon": -77.014799, "name": "0b901a5874520a5d8904337c002b9cfb", "lat": 38.91925666666667, "is_reserved": 0, "fusion_lat": 0.0, "bike_id": "0b901a5874520a5d8904337c002b9cfb", "type": "electric_scooter", "is_disabled": 0, "fusion_lon": 0.0}, {"rental_uris": {"android": "https://dc.lft.to/lastmile_qr_scan", "ios": "https://dc.lft.to/lastmile_qr_scan"}, "lon": -77.0004345, "name": "4a922fc0dd5906b7227cb406e3e09c8a", "lat": 38.91904483333333, "is_reserved": 0, "fusion_lat": 0.0, "bike_id": "4a922fc0dd5906b7227cb406e3e09c8a", "type": "electric_scooter", "is_disabled": 0, "fusion_lon": 0.0}, {"rental_uris": {"android": "https://dc.lft.to/lastmile_qr_scan", "ios": "https://dc.lft.to/lastmile_qr_scan"}, "lon": -77.00891633333333, "name": "29f4f054d3700edd9c87dd3ec730039f", "lat": 38.876758333333335, "is_reserved": 0, "fusion_lat": 0.0, "bike_id": "29f4f054d3700edd9c87dd3ec730039f", "type": "electric_scooter", "is_disabled": 0, "fusion_lon": 0.0}, {"rental_uris": {"android": "https://dc.lft.to/lastmile_qr_scan", "ios": "https://dc.lft.to/lastmile_qr_scan"}, "lon": -76.99601416666667, "name": "85b201739ec69d01bf87a3d557ec04b5", "lat": 38.856938666666665, "is_reserved": 0, "fusion_lat": 0.0, "bike_id": "85b201739ec69d01bf87a3d557ec04b5", "type": "electric_scooter", "is_disabled": 0, "fusion_lon": 0.0}, {"rental_uris": {"android": "https://dc.lft.to/lastmile_qr_scan", "ios": "https://dc.lft.to/lastmile_qr_scan"}, "lon": -76.99503366666667, "name": "a0b58775aed437d92377b6a449c4efc3", "lat": 38.9098475, "is_reserved": 0, "fusion_lat": 0.0, "bike_id": "a0b58775aed437d92377b6a449c4efc3", "type": "electric_scooter", "is_disabled": 0, "fusion_lon": 0.0}, {"rental_uris": {"android": "https://dc.lft.to/lastmile_qr_scan", "ios": "https://dc.lft.to/lastmile_qr_scan"}, "lon": -77.08528716666666, "name": "2ce54c94ff6e8160c12939296d5527c1", "lat": 38.856508833333336, "is_reserved": 0, "fusion_lat": 0.0, "bike_id": "2ce54c94ff6e8160c12939296d5527c1", "type": "electric_bike", "is_disabled": 0, "fusion_lon": 0.0}, {"rental_uris": {"android": "https://dc.lft.to/lastmile_qr_scan", "ios": "https://dc.lft.to/lastmile_qr_scan"}, "lon": -77.05149233333333, "name": "d333c3569306529f1de67b0f2d426587", "lat": 38.90517333333333, "is_reserved": 0, "fusion_lat": 0.0, "bike_id": "d333c3569306529f1de67b0f2d426587", "type": "electric_scooter", "is_disabled": 0, "fusion_lon": 0.0}, {"rental_uris": {"android": "https://dc.lft.to/lastmile_qr_scan", "ios": "https://dc.lft.to/lastmile_qr_scan"}, "lon": -76.98088, "name": "c6de739d90da183fd95b8faff6cd293b", "lat": 38.9224385, "is_reserved": 0, "fusion_lat": 0.0, "bike_id": "c6de739d90da183fd95b8faff6cd293b", "type": "electric_scooter", "is_disabled": 0, "fusion_lon": 0.0}, {"rental_uris": {"android": "https://dc.lft.to/lastmile_qr_scan", "ios": "https://dc.lft.to/lastmile_qr_scan"}, "lon": -77.04148116666667, "name": "bd25cf7c03e6473bb77e6828f0a2920d", "lat": 38.916343833333336, "is_reserved": 0, "fusion_lat": 0.0, "bike_id": "bd25cf7c03e6473bb77e6828f0a2920d", "type": "electric_scooter", "is_disabled": 0, "fusion_lon": 0.0}, {"rental_uris": {"android": "https://dc.lft.to/lastmile_qr_scan", "ios": "https://dc.lft.to/lastmile_qr_scan"}, "lon": -77.00776883333333, "name": "4a7b8cf1dab42caed8f4252f0edcba90", "lat": 38.90747666666667, "is_reserved": 0, "fusion_lat": 0.0, "bike_id": "4a7b8cf1dab42caed8f4252f0edcba90", "type": "electric_scooter", "is_disabled": 0, "fusion_lon": 0.0}, {"rental_uris": {"android": "https://dc.lft.to/lastmile_qr_scan", "ios": "https://dc.lft.to/lastmile_qr_scan"}, "lon": -77.0327195, "name": "d5d96bf59003cc7d0a181b596f3195f4", "lat": 38.91927366666667, "is_reserved": 0, "fusion_lat": 0.0, "bike_id": "d5d96bf59003cc7d0a181b596f3195f4", "type": "electric_scooter", "is_disabled": 0, "fusion_lon": 0.0}, {"rental_uris": {"android": "https://dc.lft.to/lastmile_qr_scan", "ios": "https://dc.lft.to/lastmile_qr_scan"}, "lon": -77.00203983333333, "name": "450fc0ffc63e5de31fd1a02951505dbb", "lat": 38.900369, "is_reserved": 0, "fusion_lat": 0.0, "bike_id": "450fc0ffc63e5de31fd1a02951505dbb", "type": "electric_scooter", "is_disabled": 0, "fusion_lon": 0.0}, {"rental_uris": {"android": "https://dc.lft.to/lastmile_qr_scan", "ios": "https://dc.lft.to/lastmile_qr_scan"}, "lon": -77.0209195, "name": "cd527a91d6cecd4bc438818fedb01756", "lat": 38.91012416666667, "is_reserved": 0, "fusion_lat": 0.0, "bike_id": "cd527a91d6cecd4bc438818fedb01756", "type": "electric_scooter", "is_disabled": 0, "fusion_lon": 0.0}, {"rental_uris": {"android": "https://dc.lft.to/lastmile_qr_scan", "ios": "https://dc.lft.to/lastmile_qr_scan"}, "lon": -76.99949366666667, "name": "a56dc3e1eae4cfda85266acea612b813", "lat": 38.87415416666666, "is_reserved": 0, "fusion_lat": 0.0, "bike_id": "a56dc3e1eae4cfda85266acea612b813", "type": "electric_scooter", "is_disabled": 0, "fusion_lon": 0.0}, {"rental_uris": {"android": "https://dc.lft.to/lastmile_qr_scan", "ios": "https://dc.lft.to/lastmile_qr_scan"}, "lon": -77.00130783333333, "name": "3cd8560f8bbb56b7dfe841fff1de9723", "lat": 38.878829833333334, "is_reserved": 0, "fusion_lat": 0.0, "bike_id": "3cd8560f8bbb56b7dfe841fff1de9723", "type": "electric_scooter", "is_disabled": 0, "fusion_lon": 0.0}, {"rental_uris": {"android": "https://dc.lft.to/lastmile_qr_scan", "ios": "https://dc.lft.to/lastmile_qr_scan"}, "lon": -77.00785216666667, "name": "9d7f135d3d6f575bb751a9379ad5e52d", "lat": 38.90740783333333, "is_reserved": 0, "fusion_lat": 0.0, "bike_id": "9d7f135d3d6f575bb751a9379ad5e52d", "type": "electric_scooter", "is_disabled": 0, "fusion_lon": 0.0}, {"rental_uris": {"android": "https://dc.lft.to/lastmile_qr_scan", "ios": "https://dc.lft.to/lastmile_qr_scan"}, "lon": -77.03225583333334, "name": "5d03fab8a58629944c01d9f32c524570", "lat": 38.9227455, "is_reserved": 0, "fusion_lat": 0.0, "bike_id": "5d03fab8a58629944c01d9f32c524570", "type": "electric_scooter", "is_disabled": 0, "fusion_lon": 0.0}, {"rental_uris": {"android": "https://dc.lft.to/lastmile_qr_scan", "ios": "https://dc.lft.to/lastmile_qr_scan"}, "lon": -77.045084, "name": "9ee3fccf038f5cd2dbc57426d3bdad59", "lat": 38.90780433333333, "is_reserved": 0, "fusion_lat": 0.0, "bike_id": "9ee3fccf038f5cd2dbc57426d3bdad59", "type": "electric_scooter", "is_disabled": 0, "fusion_lon": 0.0}, {"rental_uris": {"android": "https://dc.lft.to/lastmile_qr_scan", "ios": "https://dc.lft.to/lastmile_qr_scan"}, "lon": -76.9860125, "name": "a81ae01624d2add38bdd8eb2e4c2171b", "lat": 38.86012733333333, "is_reserved": 0, "fusion_lat": 0.0, "bike_id": "a81ae01624d2add38bdd8eb2e4c2171b", "type": "electric_scooter", "is_disabled": 0, "fusion_lon": 0.0}, {"rental_uris": {"android": "https://dc.lft.to/lastmile_qr_scan", "ios": "https://dc.lft.to/lastmile_qr_scan"}, "lon": -76.93339233333333, "name": "c6f0d594be5f837c248c20e8be207d07", "lat": 38.908695, "is_reserved": 0, "fusion_lat": 0.0, "bike_id": "c6f0d594be5f837c248c20e8be207d07", "type": "electric_scooter", "is_disabled": 0, "fusion_lon": 0.0}, {"rental_uris": {"android": "https://dc.lft.to/lastmile_qr_scan", "ios": "https://dc.lft.to/lastmile_qr_scan"}, "lon": -77.08593133333333, "name": "6b38a4515b68e33d606410e65feaa704", "lat": 38.90870283333334, "is_reserved": 0, "fusion_lat": 0.0, "bike_id": "6b38a4515b68e33d606410e65feaa704", "type": "electric_scooter", "is_disabled": 0, "fusion_lon": 0.0}, {"rental_uris": {"android": "https://dc.lft.to/lastmile_qr_scan", "ios": "https://dc.lft.to/lastmile_qr_scan"}, "lon": -77.071916, "name": "222275eb1fc5c31141f5a1b91154c113", "lat": 38.90695133333333, "is_reserved": 0, "fusion_lat": 0.0, "bike_id": "222275eb1fc5c31141f5a1b91154c113", "type": "electric_scooter", "is_disabled": 0, "fusion_lon": 0.0}, {"rental_uris": {"android": "https://dc.lft.to/lastmile_qr_scan", "ios": "https://dc.lft.to/lastmile_qr_scan"}, "lon": -77.02381483333333, "name": "95b03c7102d210269c036f671af08a71", "lat": 38.89227116666667, "is_reserved": 0, "fusion_lat": 0.0, "bike_id": "95b03c7102d210269c036f671af08a71", "type": "electric_scooter", "is_disabled": 0, "fusion_lon": 0.0}, {"rental_uris": {"android": "https://dc.lft.to/lastmile_qr_scan", "ios": "https://dc.lft.to/lastmile_qr_scan"}, "lon": -76.99892966666667, "name": "112e3ce9bd7ce2ee02f0465423db95fa", "lat": 38.942770833333334, "is_reserved": 0, "fusion_lat": 0.0, "bike_id": "112e3ce9bd7ce2ee02f0465423db95fa", "type": "electric_bike", "is_disabled": 0, "fusion_lon": 0.0}, {"rental_uris": {"android": "https://dc.lft.to/lastmile_qr_scan", "ios": "https://dc.lft.to/lastmile_qr_scan"}, "lon": -77.031764, "name": "05e8cc50c332196c3afa3e344bff37d0", "lat": 38.9307155, "is_reserved": 0, "fusion_lat": 0.0, "bike_id": "05e8cc50c332196c3afa3e344bff37d0", "type": "electric_scooter", "is_disabled": 0, "fusion_lon": 0.0}, {"rental_uris": {"android": "https://dc.lft.to/lastmile_qr_scan", "ios": "https://dc.lft.to/lastmile_qr_scan"}, "lon": -77.05393133333334, "name": "e64babea9aaf977c280f565095cede70", "lat": 38.901338833333334, "is_reserved": 0, "fusion_lat": 0.0, "bike_id": "e64babea9aaf977c280f565095cede70", "type": "electric_scooter", "is_disabled": 0, "fusion_lon": 0.0}, {"rental_uris": {"android": "https://dc.lft.to/lastmile_qr_scan", "ios": "https://dc.lft.to/lastmile_qr_scan"}, "lon": -77.05107816666667, "name": "e8db63620b9e24ca28114cbaef1fe73b", "lat": 38.924954166666666, "is_reserved": 0, "fusion_lat": 0.0, "bike_id": "e8db63620b9e24ca28114cbaef1fe73b", "type": "electric_scooter", "is_disabled": 0, "fusion_lon": 0.0}, {"rental_uris": {"android": "https://dc.lft.to/lastmile_qr_scan", "ios": "https://dc.lft.to/lastmile_qr_scan"}, "lon": -77.03264383333334, "name": "57ad04c03c5b88a2265fcf9a8c17d565", "lat": 38.932597333333334, "is_reserved": 0, "fusion_lat": 0.0, "bike_id": "57ad04c03c5b88a2265fcf9a8c17d565", "type": "electric_scooter", "is_disabled": 0, "fusion_lon": 0.0}, {"rental_uris": {"android": "https://dc.lft.to/lastmile_qr_scan", "ios": "https://dc.lft.to/lastmile_qr_scan"}, "lon": -76.98835766666667, "name": "1f3f6846e5724843b496a408319feaf2", "lat": 38.892635166666665, "is_reserved": 0, "fusion_lat": 0.0, "bike_id": "1f3f6846e5724843b496a408319feaf2", "type": "electric_scooter", "is_disabled": 0, "fusion_lon": 0.0}, {"rental_uris": {"android": "https://dc.lft.to/lastmile_qr_scan", "ios": "https://dc.lft.to/lastmile_qr_scan"}, "lon": -77.01169733333333, "name": "950e6af567ca2ba2dc1a255b6ff60259", "lat": 38.91577433333333, "is_reserved": 0, "fusion_lat": 0.0, "bike_id": "950e6af567ca2ba2dc1a255b6ff60259", "type": "electric_scooter", "is_disabled": 0, "fusion_lon": 0.0}, {"rental_uris": {"android": "https://dc.lft.to/lastmile_qr_scan", "ios": "https://dc.lft.to/lastmile_qr_scan"}, "lon": -76.983738, "name": "9a9ee48e71a75ef5edee89cd6ff05d4d", "lat": 38.8603425, "is_reserved": 0, "fusion_lat": 0.0, "bike_id": "9a9ee48e71a75ef5edee89cd6ff05d4d", "type": "electric_scooter", "is_disabled": 0, "fusion_lon": 0.0}, {"rental_uris": {"android": "https://dc.lft.to/lastmile_qr_scan", "ios": "https://dc.lft.to/lastmile_qr_scan"}, "lon": -77.11756166666666, "name": "7e556b48ed1195a5fe7f9c1bc4a5266f", "lat": 39.05106333333333, "is_reserved": 0, "fusion_lat": 0.0, "bike_id": "7e556b48ed1195a5fe7f9c1bc4a5266f", "type": "electric_bike", "is_disabled": 0, "fusion_lon": 0.0}, {"rental_uris": {"android": "https://dc.lft.to/lastmile_qr_scan", "ios": "https://dc.lft.to/lastmile_qr_scan"}, "lon": -77.03658216666666, "name": "186226fd153f3c6139e87d90f785ace1", "lat": 38.922479333333335, "is_reserved": 0, "fusion_lat": 0.0, "bike_id": "186226fd153f3c6139e87d90f785ace1", "type": "electric_scooter", "is_disabled": 0, "fusion_lon": 0.0}, {"rental_uris": {"android": "https://dc.lft.to/lastmile_qr_scan", "ios": "https://dc.lft.to/lastmile_qr_scan"}, "lon": -77.040002, "name": "fd4fb18c4765d0108111cf7301e9dc00", "lat": 38.933568666666666, "is_reserved": 0, "fusion_lat": 0.0, "bike_id": "fd4fb18c4765d0108111cf7301e9dc00", "type": "electric_bike", "is_disabled": 0, "fusion_lon": 0.0}, {"rental_uris": {"android": "https://dc.lft.to/lastmile_qr_scan", "ios": "https://dc.lft.to/lastmile_qr_scan"}, "lon": -76.96049783333333, "name": "435940353312308453516be93ff6137b", "lat": 38.884040666666664, "is_reserved": 0, "fusion_lat": 0.0, "bike_id": "435940353312308453516be93ff6137b", "type": "electric_bike", "is_disabled": 0, "fusion_lon": 0.0}, {"rental_uris": {"android": "https://dc.lft.to/lastmile_qr_scan", "ios": "https://dc.lft.to/lastmile_qr_scan"}, "lon": -77.007598, "name": "0697a8840703220169abc63285bbc49a", "lat": 38.8983365, "is_reserved": 0, "fusion_lat": 0.0, "bike_id": "0697a8840703220169abc63285bbc49a", "type": "electric_scooter", "is_disabled": 0, "fusion_lon": 0.0}, {"rental_uris": {"android": "https://dc.lft.to/lastmile_qr_scan", "ios": "https://dc.lft.to/lastmile_qr_scan"}, "lon": -76.99234333333334, "name": "c60660e9e71a6f96f9ddca1c13b9b00a", "lat": 38.907883166666664, "is_reserved": 0, "fusion_lat": 0.0, "bike_id": "c60660e9e71a6f96f9ddca1c13b9b00a", "type": "electric_scooter", "is_disabled": 0, "fusion_lon": 0.0}, {"rental_uris": {"android": "https://dc.lft.to/lastmile_qr_scan", "ios": "https://dc.lft.to/lastmile_qr_scan"}, "lon": -77.04484316666667, "name": "b11fa05aed9d0ef1817bec7122d454c7", "lat": 38.89753833333333, "is_reserved": 0, "fusion_lat": 0.0, "bike_id": "b11fa05aed9d0ef1817bec7122d454c7", "type": "electric_scooter", "is_disabled": 0, "fusion_lon": 0.0}, {"rental_uris": {"android": "https://dc.lft.to/lastmile_qr_scan", "ios": "https://dc.lft.to/lastmile_qr_scan"}, "lon": -76.9903805, "name": "7d384213ac50423491d420132a17b391", "lat": 38.8639235, "is_reserved": 0, "fusion_lat": 0.0, "bike_id": "7d384213ac50423491d420132a17b391", "type": "electric_scooter", "is_disabled": 0, "fusion_lon": 0.0}, {"rental_uris": {"android": "https://dc.lft.to/lastmile_qr_scan", "ios": "https://dc.lft.to/lastmile_qr_scan"}, "lon": -77.02177183333333, "name": "3668ae4ab90e7351478bea293005165d", "lat": 38.89907783333334, "is_reserved": 0, "fusion_lat": 0.0, "bike_id": "3668ae4ab90e7351478bea293005165d", "type": "electric_scooter", "is_disabled": 0, "fusion_lon": 0.0}, {"rental_uris": {"android": "https://dc.lft.to/lastmile_qr_scan", "ios": "https://dc.lft.to/lastmile_qr_scan"}, "lon": -77.01192283333333, "name": "ec1535cd93d60ff0a84adbc3ebb7529e", "lat": 38.915693833333336, "is_reserved": 0, "fusion_lat": 0.0, "bike_id": "ec1535cd93d60ff0a84adbc3ebb7529e", "type": "electric_scooter", "is_disabled": 0, "fusion_lon": 0.0}, {"rental_uris": {"android": "https://dc.lft.to/lastmile_qr_scan", "ios": "https://dc.lft.to/lastmile_qr_scan"}, "lon": -77.03851166666666, "name": "e274a1ef6aad5d76235a2be5ba3c7518", "lat": 38.90275666666667, "is_reserved": 0, "fusion_lat": 0.0, "bike_id": "e274a1ef6aad5d76235a2be5ba3c7518", "type": "electric_scooter", "is_disabled": 0, "fusion_lon": 0.0}, {"rental_uris": {"android": "https://dc.lft.to/lastmile_qr_scan", "ios": "https://dc.lft.to/lastmile_qr_scan"}, "lon": -76.9470335, "name": "de0edb2326a2dfad6dbe300145ea7de0", "lat": 38.89730083333333, "is_reserved": 0, "fusion_lat": 0.0, "bike_id": "de0edb2326a2dfad6dbe300145ea7de0", "type": "electric_scooter", "is_disabled": 0, "fusion_lon": 0.0}, {"rental_uris": {"android": "https://dc.lft.to/lastmile_qr_scan", "ios": "https://dc.lft.to/lastmile_qr_scan"}, "lon": -77.02940566666666, "name": "8cb190a1e1732e80ea91bc532dad5605", "lat": 38.8981465, "is_reserved": 0, "fusion_lat": 0.0, "bike_id": "8cb190a1e1732e80ea91bc532dad5605", "type": "electric_scooter", "is_disabled": 0, "fusion_lon": 0.0}, {"rental_uris": {"android": "https://dc.lft.to/lastmile_qr_scan", "ios": "https://dc.lft.to/lastmile_qr_scan"}, "lon": -77.03498683333333, "name": "3bab4d8cd00f90feb0a58ea7a426b719", "lat": 38.928821, "is_reserved": 0, "fusion_lat": 0.0, "bike_id": "3bab4d8cd00f90feb0a58ea7a426b719", "type": "electric_scooter", "is_disabled": 0, "fusion_lon": 0.0}, {"rental_uris": {"android": "https://dc.lft.to/lastmile_qr_scan", "ios": "https://dc.lft.to/lastmile_qr_scan"}, "lon": -77.02152183333334, "name": "1597eb37b82617da6b1c1c11c22682c9", "lat": 38.87926316666667, "is_reserved": 0, "fusion_lat": 0.0, "bike_id": "1597eb37b82617da6b1c1c11c22682c9", "type": "electric_scooter", "is_disabled": 0, "fusion_lon": 0.0}, {"rental_uris": {"android": "https://dc.lft.to/lastmile_qr_scan", "ios": "https://dc.lft.to/lastmile_qr_scan"}, "lon": -77.03374966666667, "name": "cff7a94493b7a47cabab8457957e6a57", "lat": 38.92165383333333, "is_reserved": 0, "fusion_lat": 0.0, "bike_id": "cff7a94493b7a47cabab8457957e6a57", "type": "electric_scooter", "is_disabled": 0, "fusion_lon": 0.0}, {"rental_uris": {"android": "https://dc.lft.to/lastmile_qr_scan", "ios": "https://dc.lft.to/lastmile_qr_scan"}, "lon": -77.02422433333334, "name": "e83cd433da10a2bbff0a81b1b6ee73b0", "lat": 38.920872333333335, "is_reserved": 0, "fusion_lat": 0.0, "bike_id": "e83cd433da10a2bbff0a81b1b6ee73b0", "type": "electric_scooter", "is_disabled": 0, "fusion_lon": 0.0}, {"rental_uris": {"android": "https://dc.lft.to/lastmile_qr_scan", "ios": "https://dc.lft.to/lastmile_qr_scan"}, "lon": -76.93876133333333, "name": "f8010cb6fd3670ce7cafbd257e577b61", "lat": 38.956364666666666, "is_reserved": 0, "fusion_lat": 0.0, "bike_id": "f8010cb6fd3670ce7cafbd257e577b61", "type": "electric_bike", "is_disabled": 0, "fusion_lon": 0.0}, {"rental_uris": {"android": "https://dc.lft.to/lastmile_qr_scan", "ios": "https://dc.lft.to/lastmile_qr_scan"}, "lon": -77.01205816666666, "name": "b0e587b67be305c833126adf8e6c9b46", "lat": 38.870931666666664, "is_reserved": 0, "fusion_lat": 0.0, "bike_id": "b0e587b67be305c833126adf8e6c9b46", "type": "electric_bike", "is_disabled": 0, "fusion_lon": 0.0}, {"rental_uris": {"android": "https://dc.lft.to/lastmile_qr_scan", "ios": "https://dc.lft.to/lastmile_qr_scan"}, "lon": -77.00402766666667, "name": "55630c80359f7e0d710dde2f6dfd797c", "lat": 38.929177833333334, "is_reserved": 0, "fusion_lat": 0.0, "bike_id": "55630c80359f7e0d710dde2f6dfd797c", "type": "electric_scooter", "is_disabled": 0, "fusion_lon": 0.0}, {"rental_uris": {"android": "https://dc.lft.to/lastmile_qr_scan", "ios": "https://dc.lft.to/lastmile_qr_scan"}, "lon": -76.99616566666667, "name": "d529e6c1c724d90d1685b93a246b50ed", "lat": 38.92784133333333, "is_reserved": 0, "fusion_lat": 0.0, "bike_id": "d529e6c1c724d90d1685b93a246b50ed", "type": "electric_scooter", "is_disabled": 0, "fusion_lon": 0.0}, {"rental_uris": {"android": "https://dc.lft.to/lastmile_qr_scan", "ios": "https://dc.lft.to/lastmile_qr_scan"}, "lon": -77.09453216666667, "name": "71fb66788f71e7def2cac3663fb16ae4", "lat": 38.807593, "is_reserved": 0, "fusion_lat": 0.0, "bike_id": "71fb66788f71e7def2cac3663fb16ae4", "type": "electric_bike", "is_disabled": 0, "fusion_lon": 0.0}, {"rental_uris": {"android": "https://dc.lft.to/lastmile_qr_scan", "ios": "https://dc.lft.to/lastmile_qr_scan"}, "lon": -76.98712033333334, "name": "5938514c463eeb1fcd9eb9716cdb2450", "lat": 38.867053, "is_reserved": 0, "fusion_lat": 0.0, "bike_id": "5938514c463eeb1fcd9eb9716cdb2450", "type": "electric_scooter", "is_disabled": 0, "fusion_lon": 0.0}, {"rental_uris": {"android": "https://dc.lft.to/lastmile_qr_scan", "ios": "https://dc.lft.to/lastmile_qr_scan"}, "lon": -77.03158766666667, "name": "265fc4add66b76fb3db4ef57fcfda388", "lat": 38.908871, "is_reserved": 0, "fusion_lat": 0.0, "bike_id": "265fc4add66b76fb3db4ef57fcfda388", "type": "electric_scooter", "is_disabled": 0, "fusion_lon": 0.0}, {"rental_uris": {"android": "https://dc.lft.to/lastmile_qr_scan", "ios": "https://dc.lft.to/lastmile_qr_scan"}, "lon": -77.03887833333333, "name": "b03c03267aa705b315f56b6233143d30", "lat": 38.922499, "is_reserved": 0, "fusion_lat": 0.0, "bike_id": "b03c03267aa705b315f56b6233143d30", "type": "electric_scooter", "is_disabled": 0, "fusion_lon": 0.0}, {"rental_uris": {"android": "https://dc.lft.to/lastmile_qr_scan", "ios": "https://dc.lft.to/lastmile_qr_scan"}, "lon": -77.02361766666667, "name": "c1ee1870d9580e5e3debc9ecd3012965", "lat": 38.9207135, "is_reserved": 0, "fusion_lat": 0.0, "bike_id": "c1ee1870d9580e5e3debc9ecd3012965", "type": "electric_scooter", "is_disabled": 0, "fusion_lon": 0.0}, {"rental_uris": {"android": "https://dc.lft.to/lastmile_qr_scan", "ios": "https://dc.lft.to/lastmile_qr_scan"}, "lon": -77.02334116666667, "name": "fc638b1c2237cbfcc397bf9b7f968472", "lat": 38.91417933333334, "is_reserved": 0, "fusion_lat": 0.0, "bike_id": "fc638b1c2237cbfcc397bf9b7f968472", "type": "electric_scooter", "is_disabled": 0, "fusion_lon": 0.0}, {"rental_uris": {"android": "https://dc.lft.to/lastmile_qr_scan", "ios": "https://dc.lft.to/lastmile_qr_scan"}, "lon": -77.01000466666666, "name": "96d9db2cce7ff109a8b52d3fbd0094c5", "lat": 38.89743, "is_reserved": 0, "fusion_lat": 0.0, "bike_id": "96d9db2cce7ff109a8b52d3fbd0094c5", "type": "electric_scooter", "is_disabled": 0, "fusion_lon": 0.0}, {"rental_uris": {"android": "https://dc.lft.to/lastmile_qr_scan", "ios": "https://dc.lft.to/lastmile_qr_scan"}, "lon": -77.02344283333333, "name": "9e2f0c4062cfd43356fac70f9d5f0217", "lat": 38.930256166666666, "is_reserved": 0, "fusion_lat": 0.0, "bike_id": "9e2f0c4062cfd43356fac70f9d5f0217", "type": "electric_scooter", "is_disabled": 0, "fusion_lon": 0.0}, {"rental_uris": {"android": "https://dc.lft.to/lastmile_qr_scan", "ios": "https://dc.lft.to/lastmile_qr_scan"}, "lon": -77.03909766666666, "name": "dcf20a166796715c4e96d281bded4d3d", "lat": 38.92181633333333, "is_reserved": 0, "fusion_lat": 0.0, "bike_id": "dcf20a166796715c4e96d281bded4d3d", "type": "electric_scooter", "is_disabled": 0, "fusion_lon": 0.0}, {"rental_uris": {"android": "https://dc.lft.to/lastmile_qr_scan", "ios": "https://dc.lft.to/lastmile_qr_scan"}, "lon": -77.04368833333334, "name": "31ebd02a68fb84e72718ecc0d3dd8022", "lat": 38.9011915, "is_reserved": 0, "fusion_lat": 0.0, "bike_id": "31ebd02a68fb84e72718ecc0d3dd8022", "type": "electric_scooter", "is_disabled": 0, "fusion_lon": 0.0}, {"rental_uris": {"android": "https://dc.lft.to/lastmile_qr_scan", "ios": "https://dc.lft.to/lastmile_qr_scan"}, "lon": -77.0488215, "name": "59268aac414810ab4bc4b3e75f7b13d3", "lat": 38.898729, "is_reserved": 0, "fusion_lat": 0.0, "bike_id": "59268aac414810ab4bc4b3e75f7b13d3", "type": "electric_scooter", "is_disabled": 0, "fusion_lon": 0.0}, {"rental_uris": {"android": "https://dc.lft.to/lastmile_qr_scan", "ios": "https://dc.lft.to/lastmile_qr_scan"}, "lon": -77.02689466666666, "name": "c4be7a82a098890aa4c3495da41dca20", "lat": 38.90688566666667, "is_reserved": 0, "fusion_lat": 0.0, "bike_id": "c4be7a82a098890aa4c3495da41dca20", "type": "electric_scooter", "is_disabled": 0, "fusion_lon": 0.0}, {"rental_uris": {"android": "https://dc.lft.to/lastmile_qr_scan", "ios": "https://dc.lft.to/lastmile_qr_scan"}, "lon": -77.0120015, "name": "29e49d503ab387f360d748e655ffaf55", "lat": 38.9002375, "is_reserved": 0, "fusion_lat": 0.0, "bike_id": "29e49d503ab387f360d748e655ffaf55", "type": "electric_scooter", "is_disabled": 0, "fusion_lon": 0.0}, {"rental_uris": {"android": "https://dc.lft.to/lastmile_qr_scan", "ios": "https://dc.lft.to/lastmile_qr_scan"}, "lon": -77.04328083333333, "name": "25f2d813c25b181bc9c23024fe439546", "lat": 38.892289833333336, "is_reserved": 0, "fusion_lat": 0.0, "bike_id": "25f2d813c25b181bc9c23024fe439546", "type": "electric_scooter", "is_disabled": 0, "fusion_lon": 0.0}, {"rental_uris": {"android": "https://dc.lft.to/lastmile_qr_scan", "ios": "https://dc.lft.to/lastmile_qr_scan"}, "lon": -77.01060316666667, "name": "e91ff91772d187a424e63e956fb53f56", "lat": 38.90789183333333, "is_reserved": 0, "fusion_lat": 0.0, "bike_id": "e91ff91772d187a424e63e956fb53f56", "type": "electric_scooter", "is_disabled": 0, "fusion_lon": 0.0}, {"rental_uris": {"android": "https://dc.lft.to/lastmile_qr_scan", "ios": "https://dc.lft.to/lastmile_qr_scan"}, "lon": -77.07906566666666, "name": "d89a6e96e6679c636d9813480469b771", "lat": 38.848269, "is_reserved": 0, "fusion_lat": 0.0, "bike_id": "d89a6e96e6679c636d9813480469b771", "type": "electric_bike", "is_disabled": 0, "fusion_lon": 0.0}, {"rental_uris": {"android": "https://dc.lft.to/lastmile_qr_scan", "ios": "https://dc.lft.to/lastmile_qr_scan"}, "lon": -77.028092, "name": "9b5627f8a17227054d3c2e5e0c5e2b89", "lat": 38.965709, "is_reserved": 0, "fusion_lat": 0.0, "bike_id": "9b5627f8a17227054d3c2e5e0c5e2b89", "type": "electric_bike", "is_disabled": 0, "fusion_lon": 0.0}, {"rental_uris": {"android": "https://dc.lft.to/lastmile_qr_scan", "ios": "https://dc.lft.to/lastmile_qr_scan"}, "lon": -77.02828666666667, "name": "9f7abbae2f33c82baeda6b08cfbc06b9", "lat": 38.88654533333333, "is_reserved": 0, "fusion_lat": 0.0, "bike_id": "9f7abbae2f33c82baeda6b08cfbc06b9", "type": "electric_bike", "is_disabled": 0, "fusion_lon": 0.0}, {"rental_uris": {"android": "https://dc.lft.to/lastmile_qr_scan", "ios": "https://dc.lft.to/lastmile_qr_scan"}, "lon": -76.9307055, "name": "ab2b5cd4dcacf7b12326bc61c1473e7e", "lat": 38.90167816666667, "is_reserved": 0, "fusion_lat": 0.0, "bike_id": "ab2b5cd4dcacf7b12326bc61c1473e7e", "type": "electric_scooter", "is_disabled": 0, "fusion_lon": 0.0}, {"rental_uris": {"android": "https://dc.lft.to/lastmile_qr_scan", "ios": "https://dc.lft.to/lastmile_qr_scan"}, "lon": -76.95424516666667, "name": "0f13fb0666d8cdd3980c07ce1ea4cc85", "lat": 38.885518833333336, "is_reserved": 0, "fusion_lat": 0.0, "bike_id": "0f13fb0666d8cdd3980c07ce1ea4cc85", "type": "electric_bike", "is_disabled": 0, "fusion_lon": 0.0}, {"rental_uris": {"android": "https://dc.lft.to/lastmile_qr_scan", "ios": "https://dc.lft.to/lastmile_qr_scan"}, "lon": -77.02841916666667, "name": "cca1869aab10e56acf654245ee45ccd1", "lat": 38.917093666666666, "is_reserved": 0, "fusion_lat": 0.0, "bike_id": "cca1869aab10e56acf654245ee45ccd1", "type": "electric_scooter", "is_disabled": 0, "fusion_lon": 0.0}, {"rental_uris": {"android": "https://dc.lft.to/lastmile_qr_scan", "ios": "https://dc.lft.to/lastmile_qr_scan"}, "lon": -77.02688433333333, "name": "19ab304488c018df9785d505a9a179a9", "lat": 38.94986766666667, "is_reserved": 0, "fusion_lat": 0.0, "bike_id": "19ab304488c018df9785d505a9a179a9", "type": "electric_scooter", "is_disabled": 0, "fusion_lon": 0.0}, {"rental_uris": {"android": "https://dc.lft.to/lastmile_qr_scan", "ios": "https://dc.lft.to/lastmile_qr_scan"}, "lon": -77.02224416666667, "name": "a8494a5bf2bfc5bb76ef8f2339d22923", "lat": 38.935536666666664, "is_reserved": 0, "fusion_lat": 0.0, "bike_id": "a8494a5bf2bfc5bb76ef8f2339d22923", "type": "electric_scooter", "is_disabled": 0, "fusion_lon": 0.0}, {"rental_uris": {"android": "https://dc.lft.to/lastmile_qr_scan", "ios": "https://dc.lft.to/lastmile_qr_scan"}, "lon": -77.00919716666667, "name": "b211def7e51ac577ca143ed3a9de8e7a", "lat": 38.92342083333333, "is_reserved": 0, "fusion_lat": 0.0, "bike_id": "b211def7e51ac577ca143ed3a9de8e7a", "type": "electric_scooter", "is_disabled": 0, "fusion_lon": 0.0}, {"rental_uris": {"android": "https://dc.lft.to/lastmile_qr_scan", "ios": "https://dc.lft.to/lastmile_qr_scan"}, "lon": -77.02336683333333, "name": "1e0dc0f41bec72c532b2896d029412d3", "lat": 38.9312385, "is_reserved": 0, "fusion_lat": 0.0, "bike_id": "1e0dc0f41bec72c532b2896d029412d3", "type": "electric_scooter", "is_disabled": 0, "fusion_lon": 0.0}, {"rental_uris": {"android": "https://dc.lft.to/lastmile_qr_scan", "ios": "https://dc.lft.to/lastmile_qr_scan"}, "lon": -77.03193366666666, "name": "bf6ef3844e69d9cf9811c177432cfbe3", "lat": 38.89341816666666, "is_reserved": 0, "fusion_lat": 0.0, "bike_id": "bf6ef3844e69d9cf9811c177432cfbe3", "type": "electric_scooter", "is_disabled": 0, "fusion_lon": 0.0}, {"rental_uris": {"android": "https://dc.lft.to/lastmile_qr_scan", "ios": "https://dc.lft.to/lastmile_qr_scan"}, "lon": -77.02185333333334, "name": "53df669469095a13ff74da16b9f74234", "lat": 38.9147025, "is_reserved": 0, "fusion_lat": 0.0, "bike_id": "53df669469095a13ff74da16b9f74234", "type": "electric_scooter", "is_disabled": 0, "fusion_lon": 0.0}, {"rental_uris": {"android": "https://dc.lft.to/lastmile_qr_scan", "ios": "https://dc.lft.to/lastmile_qr_scan"}, "lon": -77.0688115, "name": "86c8f576fb5ab5a640e97f69b93b590d", "lat": 38.90504716666667, "is_reserved": 0, "fusion_lat": 0.0, "bike_id": "86c8f576fb5ab5a640e97f69b93b590d", "type": "electric_scooter", "is_disabled": 0, "fusion_lon": 0.0}, {"rental_uris": {"android": "https://dc.lft.to/lastmile_qr_scan", "ios": "https://dc.lft.to/lastmile_qr_scan"}, "lon": -77.012011, "name": "6901236a6c353a1e08abd15a3fa3cc17", "lat": 38.91904566666667, "is_reserved": 0, "fusion_lat": 0.0, "bike_id": "6901236a6c353a1e08abd15a3fa3cc17", "type": "electric_scooter", "is_disabled": 0, "fusion_lon": 0.0}, {"rental_uris": {"android": "https://dc.lft.to/lastmile_qr_scan", "ios": "https://dc.lft.to/lastmile_qr_scan"}, "lon": -77.03179916666667, "name": "8b246029aede29aa4b49411a21380d4e", "lat": 38.90730716666667, "is_reserved": 0, "fusion_lat": 0.0, "bike_id": "8b246029aede29aa4b49411a21380d4e", "type": "electric_scooter", "is_disabled": 0, "fusion_lon": 0.0}, {"rental_uris": {"android": "https://dc.lft.to/lastmile_qr_scan", "ios": "https://dc.lft.to/lastmile_qr_scan"}, "lon": -77.024846, "name": "0c82c9553d56dfc6920b28daab1d77a6", "lat": 38.938803, "is_reserved": 0, "fusion_lat": 0.0, "bike_id": "0c82c9553d56dfc6920b28daab1d77a6", "type": "electric_scooter", "is_disabled": 0, "fusion_lon": 0.0}, {"rental_uris": {"android": "https://dc.lft.to/lastmile_qr_scan", "ios": "https://dc.lft.to/lastmile_qr_scan"}, "lon": -77.033599, "name": "4b9bd774fc914a48f494dea8b6a80185", "lat": 38.93225183333333, "is_reserved": 0, "fusion_lat": 0.0, "bike_id": "4b9bd774fc914a48f494dea8b6a80185", "type": "electric_scooter", "is_disabled": 0, "fusion_lon": 0.0}, {"rental_uris": {"android": "https://dc.lft.to/lastmile_qr_scan", "ios": "https://dc.lft.to/lastmile_qr_scan"}, "lon": -77.0469575, "name": "457808fc12998ef1ae8e08fc9b19cd20", "lat": 38.921829833333334, "is_reserved": 0, "fusion_lat": 0.0, "bike_id": "457808fc12998ef1ae8e08fc9b19cd20", "type": "electric_scooter", "is_disabled": 0, "fusion_lon": 0.0}, {"rental_uris": {"android": "https://dc.lft.to/lastmile_qr_scan", "ios": "https://dc.lft.to/lastmile_qr_scan"}, "lon": -76.99858133333333, "name": "038d9991fb336742a2e3b318a0af8cbf", "lat": 38.9077025, "is_reserved": 0, "fusion_lat": 0.0, "bike_id": "038d9991fb336742a2e3b318a0af8cbf", "type": "electric_scooter", "is_disabled": 0, "fusion_lon": 0.0}, {"rental_uris": {"android": "https://dc.lft.to/lastmile_qr_scan", "ios": "https://dc.lft.to/lastmile_qr_scan"}, "lon": -77.02680516666666, "name": "c94ea1932e54ed3436dd17d82dfd8fbe", "lat": 38.90723583333333, "is_reserved": 0, "fusion_lat": 0.0, "bike_id": "c94ea1932e54ed3436dd17d82dfd8fbe", "type": "electric_scooter", "is_disabled": 0, "fusion_lon": 0.0}, {"rental_uris": {"android": "https://dc.lft.to/lastmile_qr_scan", "ios": "https://dc.lft.to/lastmile_qr_scan"}, "lon": -77.0632845, "name": "0e81dae834386a1adec66a1a1638f830", "lat": 38.92112933333333, "is_reserved": 0, "fusion_lat": 0.0, "bike_id": "0e81dae834386a1adec66a1a1638f830", "type": "electric_scooter", "is_disabled": 0, "fusion_lon": 0.0}, {"rental_uris": {"android": "https://dc.lft.to/lastmile_qr_scan", "ios": "https://dc.lft.to/lastmile_qr_scan"}, "lon": -77.001945, "name": "84e20b27501c2ec657c630cba3811473", "lat": 38.941584166666665, "is_reserved": 0, "fusion_lat": 0.0, "bike_id": "84e20b27501c2ec657c630cba3811473", "type": "electric_bike", "is_disabled": 0, "fusion_lon": 0.0}, {"rental_uris": {"android": "https://dc.lft.to/lastmile_qr_scan", "ios": "https://dc.lft.to/lastmile_qr_scan"}, "lon": -77.03033816666667, "name": "a2f9276c14dd8354f0fdec153ef49df2", "lat": 38.9312105, "is_reserved": 0, "fusion_lat": 0.0, "bike_id": "a2f9276c14dd8354f0fdec153ef49df2", "type": "electric_scooter", "is_disabled": 0, "fusion_lon": 0.0}, {"rental_uris": {"android": "https://dc.lft.to/lastmile_qr_scan", "ios": "https://dc.lft.to/lastmile_qr_scan"}, "lon": -77.04356433333334, "name": "ff3721575e718071e3177bcfb4262afd", "lat": 38.904182666666664, "is_reserved": 0, "fusion_lat": 0.0, "bike_id": "ff3721575e718071e3177bcfb4262afd", "type": "electric_scooter", "is_disabled": 0, "fusion_lon": 0.0}, {"rental_uris": {"android": "https://dc.lft.to/lastmile_qr_scan", "ios": "https://dc.lft.to/lastmile_qr_scan"}, "lon": -77.06193783333333, "name": "10227c6007ffe771c70af4873ae9d940", "lat": 38.91851716666667, "is_reserved": 0, "fusion_lat": 0.0, "bike_id": "10227c6007ffe771c70af4873ae9d940", "type": "electric_scooter", "is_disabled": 0, "fusion_lon": 0.0}, {"rental_uris": {"android": "https://dc.lft.to/lastmile_qr_scan", "ios": "https://dc.lft.to/lastmile_qr_scan"}, "lon": -77.03141716666667, "name": "ab8397cc378f84548ad12c76acbb4814", "lat": 38.90455766666667, "is_reserved": 0, "fusion_lat": 0.0, "bike_id": "ab8397cc378f84548ad12c76acbb4814", "type": "electric_scooter", "is_disabled": 0, "fusion_lon": 0.0}, {"rental_uris": {"android": "https://dc.lft.to/lastmile_qr_scan", "ios": "https://dc.lft.to/lastmile_qr_scan"}, "lon": -77.02040383333333, "name": "b4ce90a415c49a059c8e7d0709ef8801", "lat": 38.92087766666667, "is_reserved": 0, "fusion_lat": 0.0, "bike_id": "b4ce90a415c49a059c8e7d0709ef8801", "type": "electric_scooter", "is_disabled": 0, "fusion_lon": 0.0}, {"rental_uris": {"android": "https://dc.lft.to/lastmile_qr_scan", "ios": "https://dc.lft.to/lastmile_qr_scan"}, "lon": -77.04080366666666, "name": "6e72842bb29d0edc3de70c9c9a4ceb2e", "lat": 38.9071635, "is_reserved": 0, "fusion_lat": 0.0, "bike_id": "6e72842bb29d0edc3de70c9c9a4ceb2e", "type": "electric_scooter", "is_disabled": 0, "fusion_lon": 0.0}, {"rental_uris": {"android": "https://dc.lft.to/lastmile_qr_scan", "ios": "https://dc.lft.to/lastmile_qr_scan"}, "lon": -77.09053316666666, "name": "3fe266483987fcd1073a17757ec76254", "lat": 38.94256266666667, "is_reserved": 0, "fusion_lat": 0.0, "bike_id": "3fe266483987fcd1073a17757ec76254", "type": "electric_scooter", "is_disabled": 0, "fusion_lon": 0.0}, {"rental_uris": {"android": "https://dc.lft.to/lastmile_qr_scan", "ios": "https://dc.lft.to/lastmile_qr_scan"}, "lon": -76.99775666666666, "name": "19329c439375209bcec5f9d862831930", "lat": 38.96159766666667, "is_reserved": 0, "fusion_lat": 0.0, "bike_id": "19329c439375209bcec5f9d862831930", "type": "electric_scooter", "is_disabled": 0, "fusion_lon": 0.0}, {"rental_uris": {"android": "https://dc.lft.to/lastmile_qr_scan", "ios": "https://dc.lft.to/lastmile_qr_scan"}, "lon": -77.03870033333334, "name": "35f8886f81437a2b2139e1c04d95d22d", "lat": 38.912626, "is_reserved": 0, "fusion_lat": 0.0, "bike_id": "35f8886f81437a2b2139e1c04d95d22d", "type": "electric_scooter", "is_disabled": 0, "fusion_lon": 0.0}, {"rental_uris": {"android": "https://dc.lft.to/lastmile_qr_scan", "ios": "https://dc.lft.to/lastmile_qr_scan"}, "lon": -76.98541583333333, "name": "d778cb0a8a34ac7678fc4e48481ae2a2", "lat": 38.866909666666665, "is_reserved": 0, "fusion_lat": 0.0, "bike_id": "d778cb0a8a34ac7678fc4e48481ae2a2", "type": "electric_scooter", "is_disabled": 0, "fusion_lon": 0.0}, {"rental_uris": {"android": "https://dc.lft.to/lastmile_qr_scan", "ios": "https://dc.lft.to/lastmile_qr_scan"}, "lon": -76.9992015, "name": "1492f5da4e25cc39d0079fa333fa6c88", "lat": 38.90921616666667, "is_reserved": 0, "fusion_lat": 0.0, "bike_id": "1492f5da4e25cc39d0079fa333fa6c88", "type": "electric_scooter", "is_disabled": 0, "fusion_lon": 0.0}, {"rental_uris": {"android": "https://dc.lft.to/lastmile_qr_scan", "ios": "https://dc.lft.to/lastmile_qr_scan"}, "lon": -77.0437895, "name": "516865a8339efcba342ea4ac280d083b", "lat": 38.8922445, "is_reserved": 0, "fusion_lat": 0.0, "bike_id": "516865a8339efcba342ea4ac280d083b", "type": "electric_scooter", "is_disabled": 0, "fusion_lon": 0.0}, {"rental_uris": {"android": "https://dc.lft.to/lastmile_qr_scan", "ios": "https://dc.lft.to/lastmile_qr_scan"}, "lon": -77.0512545, "name": "8cc9a000d695025fe2e3f7f3b600635e", "lat": 38.92522, "is_reserved": 0, "fusion_lat": 0.0, "bike_id": "8cc9a000d695025fe2e3f7f3b600635e", "type": "electric_scooter", "is_disabled": 0, "fusion_lon": 0.0}, {"rental_uris": {"android": "https://dc.lft.to/lastmile_qr_scan", "ios": "https://dc.lft.to/lastmile_qr_scan"}, "lon": -77.02585883333333, "name": "d79d69e2093a9345a744bc3dba7126d1", "lat": 38.943119, "is_reserved": 0, "fusion_lat": 0.0, "bike_id": "d79d69e2093a9345a744bc3dba7126d1", "type": "electric_scooter", "is_disabled": 0, "fusion_lon": 0.0}, {"rental_uris": {"android": "https://dc.lft.to/lastmile_qr_scan", "ios": "https://dc.lft.to/lastmile_qr_scan"}, "lon": -77.03904883333334, "name": "eee4e739fb8daab2d8af50ea7e11a05d", "lat": 38.90161883333333, "is_reserved": 0, "fusion_lat": 0.0, "bike_id": "eee4e739fb8daab2d8af50ea7e11a05d", "type": "electric_scooter", "is_disabled": 0, "fusion_lon": 0.0}, {"rental_uris": {"android": "https://dc.lft.to/lastmile_qr_scan", "ios": "https://dc.lft.to/lastmile_qr_scan"}, "lon": -76.94636566666667, "name": "2d8e55c055e4b87e39fc544132e77a96", "lat": 38.89868883333333, "is_reserved": 0, "fusion_lat": 0.0, "bike_id": "2d8e55c055e4b87e39fc544132e77a96", "type": "electric_scooter", "is_disabled": 0, "fusion_lon": 0.0}, {"rental_uris": {"android": "https://dc.lft.to/lastmile_qr_scan", "ios": "https://dc.lft.to/lastmile_qr_scan"}, "lon": -77.02128516666667, "name": "8af041f129479738dc3bbeac64db995b", "lat": 38.923177833333334, "is_reserved": 0, "fusion_lat": 0.0, "bike_id": "8af041f129479738dc3bbeac64db995b", "type": "electric_scooter", "is_disabled": 0, "fusion_lon": 0.0}, {"rental_uris": {"android": "https://dc.lft.to/lastmile_qr_scan", "ios": "https://dc.lft.to/lastmile_qr_scan"}, "lon": -77.04399616666667, "name": "1cb69e1a2610b976690ab86656ac9367", "lat": 38.9259115, "is_reserved": 0, "fusion_lat": 0.0, "bike_id": "1cb69e1a2610b976690ab86656ac9367", "type": "electric_scooter", "is_disabled": 0, "fusion_lon": 0.0}, {"rental_uris": {"android": "https://dc.lft.to/lastmile_qr_scan", "ios": "https://dc.lft.to/lastmile_qr_scan"}, "lon": -76.99833533333333, "name": "34f43061011a3efcfb83cb59e8676546", "lat": 38.88465333333333, "is_reserved": 0, "fusion_lat": 0.0, "bike_id": "34f43061011a3efcfb83cb59e8676546", "type": "electric_scooter", "is_disabled": 0, "fusion_lon": 0.0}, {"rental_uris": {"android": "https://dc.lft.to/lastmile_qr_scan", "ios": "https://dc.lft.to/lastmile_qr_scan"}, "lon": -77.00671966666667, "name": "dd386fb39417992a1eb0d875ff2309ed", "lat": 38.9451775, "is_reserved": 0, "fusion_lat": 0.0, "bike_id": "dd386fb39417992a1eb0d875ff2309ed", "type": "electric_bike", "is_disabled": 0, "fusion_lon": 0.0}, {"rental_uris": {"android": "https://dc.lft.to/lastmile_qr_scan", "ios": "https://dc.lft.to/lastmile_qr_scan"}, "lon": -77.0279255, "name": "3cb2d664b047e9d1a5f1e3883bd6a7b7", "lat": 38.929763666666666, "is_reserved": 0, "fusion_lat": 0.0, "bike_id": "3cb2d664b047e9d1a5f1e3883bd6a7b7", "type": "electric_scooter", "is_disabled": 0, "fusion_lon": 0.0}, {"rental_uris": {"android": "https://dc.lft.to/lastmile_qr_scan", "ios": "https://dc.lft.to/lastmile_qr_scan"}, "lon": -77.03798416666666, "name": "27abdc25747e03ec805e109f795dc4c0", "lat": 38.9322835, "is_reserved": 0, "fusion_lat": 0.0, "bike_id": "27abdc25747e03ec805e109f795dc4c0", "type": "electric_scooter", "is_disabled": 0, "fusion_lon": 0.0}, {"rental_uris": {"android": "https://dc.lft.to/lastmile_qr_scan", "ios": "https://dc.lft.to/lastmile_qr_scan"}, "lon": -77.06392716666667, "name": "0983911a6d9076c3c8380bfc8badbaae", "lat": 38.944169, "is_reserved": 0, "fusion_lat": 0.0, "bike_id": "0983911a6d9076c3c8380bfc8badbaae", "type": "electric_scooter", "is_disabled": 0, "fusion_lon": 0.0}, {"rental_uris": {"android": "https://dc.lft.to/lastmile_qr_scan", "ios": "https://dc.lft.to/lastmile_qr_scan"}, "lon": -77.026955, "name": "6705962c2a9956f914f41a5c0a8eabcc", "lat": 38.906641666666665, "is_reserved": 0, "fusion_lat": 0.0, "bike_id": "6705962c2a9956f914f41a5c0a8eabcc", "type": "electric_scooter", "is_disabled": 0, "fusion_lon": 0.0}, {"rental_uris": {"android": "https://dc.lft.to/lastmile_qr_scan", "ios": "https://dc.lft.to/lastmile_qr_scan"}, "lon": -77.07326833333333, "name": "ca566320f0396f006a56ea2d70ed3c05", "lat": 38.925644, "is_reserved": 0, "fusion_lat": 0.0, "bike_id": "ca566320f0396f006a56ea2d70ed3c05", "type": "electric_scooter", "is_disabled": 0, "fusion_lon": 0.0}, {"rental_uris": {"android": "https://dc.lft.to/lastmile_qr_scan", "ios": "https://dc.lft.to/lastmile_qr_scan"}, "lon": -77.00554883333334, "name": "cba192ccc499edf410c7d71fb24960da", "lat": 38.90660583333333, "is_reserved": 0, "fusion_lat": 0.0, "bike_id": "cba192ccc499edf410c7d71fb24960da", "type": "electric_scooter", "is_disabled": 0, "fusion_lon": 0.0}, {"rental_uris": {"android": "https://dc.lft.to/lastmile_qr_scan", "ios": "https://dc.lft.to/lastmile_qr_scan"}, "lon": -77.01207316666667, "name": "2b33397a0123bc1f3da0150448a53d00", "lat": 38.893320333333335, "is_reserved": 0, "fusion_lat": 0.0, "bike_id": "2b33397a0123bc1f3da0150448a53d00", "type": "electric_scooter", "is_disabled": 0, "fusion_lon": 0.0}, {"rental_uris": {"android": "https://dc.lft.to/lastmile_qr_scan", "ios": "https://dc.lft.to/lastmile_qr_scan"}, "lon": -77.02888983333334, "name": "d2093a26e5ff25d7ab6c508dc8a17835", "lat": 38.90154583333333, "is_reserved": 0, "fusion_lat": 0.0, "bike_id": "d2093a26e5ff25d7ab6c508dc8a17835", "type": "electric_scooter", "is_disabled": 0, "fusion_lon": 0.0}, {"rental_uris": {"android": "https://dc.lft.to/lastmile_qr_scan", "ios": "https://dc.lft.to/lastmile_qr_scan"}, "lon": -77.04862016666667, "name": "495681cdceffb1a59d508300f39eef7c", "lat": 38.91335466666666, "is_reserved": 0, "fusion_lat": 0.0, "bike_id": "495681cdceffb1a59d508300f39eef7c", "type": "electric_scooter", "is_disabled": 0, "fusion_lon": 0.0}, {"rental_uris": {"android": "https://dc.lft.to/lastmile_qr_scan", "ios": "https://dc.lft.to/lastmile_qr_scan"}, "lon": -77.07234516666666, "name": "9ef734e2af9295b7edda5d1b55714df9", "lat": 38.9319155, "is_reserved": 0, "fusion_lat": 0.0, "bike_id": "9ef734e2af9295b7edda5d1b55714df9", "type": "electric_scooter", "is_disabled": 0, "fusion_lon": 0.0}, {"rental_uris": {"android": "https://dc.lft.to/lastmile_qr_scan", "ios": "https://dc.lft.to/lastmile_qr_scan"}, "lon": -77.003295, "name": "c17685d88f2d8cbb43cdb18ab0f118d4", "lat": 38.897326666666665, "is_reserved": 0, "fusion_lat": 0.0, "bike_id": "c17685d88f2d8cbb43cdb18ab0f118d4", "type": "electric_scooter", "is_disabled": 0, "fusion_lon": 0.0}, {"rental_uris": {"android": "https://dc.lft.to/lastmile_qr_scan", "ios": "https://dc.lft.to/lastmile_qr_scan"}, "lon": -77.02128266666666, "name": "9b03c3d14dcfe003de635646dbb44f1e", "lat": 38.92269666666667, "is_reserved": 0, "fusion_lat": 0.0, "bike_id": "9b03c3d14dcfe003de635646dbb44f1e", "type": "electric_scooter", "is_disabled": 0, "fusion_lon": 0.0}, {"rental_uris": {"android": "https://dc.lft.to/lastmile_qr_scan", "ios": "https://dc.lft.to/lastmile_qr_scan"}, "lon": -77.00207383333333, "name": "80b2cd3558dc58f588eaa5c07deacd85", "lat": 38.900371, "is_reserved": 0, "fusion_lat": 0.0, "bike_id": "80b2cd3558dc58f588eaa5c07deacd85", "type": "electric_scooter", "is_disabled": 0, "fusion_lon": 0.0}, {"rental_uris": {"android": "https://dc.lft.to/lastmile_qr_scan", "ios": "https://dc.lft.to/lastmile_qr_scan"}, "lon": -76.98360266666667, "name": "e8187bee1a2ae6aae9e75808474c5a51", "lat": 38.89436233333333, "is_reserved": 0, "fusion_lat": 0.0, "bike_id": "e8187bee1a2ae6aae9e75808474c5a51", "type": "electric_scooter", "is_disabled": 0, "fusion_lon": 0.0}, {"rental_uris": {"android": "https://dc.lft.to/lastmile_qr_scan", "ios": "https://dc.lft.to/lastmile_qr_scan"}, "lon": -77.03845683333333, "name": "b0e59f9cfafc3d5c54defd9a222615ff", "lat": 38.9121405, "is_reserved": 0, "fusion_lat": 0.0, "bike_id": "b0e59f9cfafc3d5c54defd9a222615ff", "type": "electric_scooter", "is_disabled": 0, "fusion_lon": 0.0}, {"rental_uris": {"android": "https://dc.lft.to/lastmile_qr_scan", "ios": "https://dc.lft.to/lastmile_qr_scan"}, "lon": -77.019581, "name": "6ef1529d9cc4f4da864106685c9eed57", "lat": 38.89253433333333, "is_reserved": 0, "fusion_lat": 0.0, "bike_id": "6ef1529d9cc4f4da864106685c9eed57", "type": "electric_scooter", "is_disabled": 0, "fusion_lon": 0.0}, {"rental_uris": {"android": "https://dc.lft.to/lastmile_qr_scan", "ios": "https://dc.lft.to/lastmile_qr_scan"}, "lon": -76.99556716666666, "name": "4496fc3332514e3e86ec7bb8e8961c67", "lat": 38.900288, "is_reserved": 0, "fusion_lat": 0.0, "bike_id": "4496fc3332514e3e86ec7bb8e8961c67", "type": "electric_scooter", "is_disabled": 0, "fusion_lon": 0.0}, {"rental_uris": {"android": "https://dc.lft.to/lastmile_qr_scan", "ios": "https://dc.lft.to/lastmile_qr_scan"}, "lon": -77.02425883333333, "name": "2a4efc1c7043fb73372431fefcba2221", "lat": 38.92660333333333, "is_reserved": 0, "fusion_lat": 0.0, "bike_id": "2a4efc1c7043fb73372431fefcba2221", "type": "electric_scooter", "is_disabled": 0, "fusion_lon": 0.0}, {"rental_uris": {"android": "https://dc.lft.to/lastmile_qr_scan", "ios": "https://dc.lft.to/lastmile_qr_scan"}, "lon": -77.02376733333334, "name": "d4da8c21391b677e895221d69a7e595d", "lat": 38.90730533333333, "is_reserved": 0, "fusion_lat": 0.0, "bike_id": "d4da8c21391b677e895221d69a7e595d", "type": "electric_scooter", "is_disabled": 0, "fusion_lon": 0.0}, {"rental_uris": {"android": "https://dc.lft.to/lastmile_qr_scan", "ios": "https://dc.lft.to/lastmile_qr_scan"}, "lon": -77.000093, "name": "7b16a6c6b4ddcc66b9bbaf5ab395b892", "lat": 38.902507, "is_reserved": 0, "fusion_lat": 0.0, "bike_id": "7b16a6c6b4ddcc66b9bbaf5ab395b892", "type": "electric_scooter", "is_disabled": 0, "fusion_lon": 0.0}, {"rental_uris": {"android": "https://dc.lft.to/lastmile_qr_scan", "ios": "https://dc.lft.to/lastmile_qr_scan"}, "lon": -77.02674316666666, "name": "e6ef22b4b51f99ff70774ac8accdeb26", "lat": 38.89468683333333, "is_reserved": 0, "fusion_lat": 0.0, "bike_id": "e6ef22b4b51f99ff70774ac8accdeb26", "type": "electric_scooter", "is_disabled": 0, "fusion_lon": 0.0}, {"rental_uris": {"android": "https://dc.lft.to/lastmile_qr_scan", "ios": "https://dc.lft.to/lastmile_qr_scan"}, "lon": -77.02246283333334, "name": "bb982765dd65a413826b377a1a36ed96", "lat": 38.908617, "is_reserved": 0, "fusion_lat": 0.0, "bike_id": "bb982765dd65a413826b377a1a36ed96", "type": "electric_scooter", "is_disabled": 0, "fusion_lon": 0.0}, {"rental_uris": {"android": "https://dc.lft.to/lastmile_qr_scan", "ios": "https://dc.lft.to/lastmile_qr_scan"}, "lon": -77.0065925, "name": "cf51a699b0905c06b7209f7d3796a77b", "lat": 38.900069, "is_reserved": 0, "fusion_lat": 0.0, "bike_id": "cf51a699b0905c06b7209f7d3796a77b", "type": "electric_scooter", "is_disabled": 0, "fusion_lon": 0.0}, {"rental_uris": {"android": "https://dc.lft.to/lastmile_qr_scan", "ios": "https://dc.lft.to/lastmile_qr_scan"}, "lon": -77.00454883333333, "name": "fde318124e5b902e5c2a712d4991f618", "lat": 38.91240916666667, "is_reserved": 0, "fusion_lat": 0.0, "bike_id": "fde318124e5b902e5c2a712d4991f618", "type": "electric_scooter", "is_disabled": 0, "fusion_lon": 0.0}, {"rental_uris": {"android": "https://dc.lft.to/lastmile_qr_scan", "ios": "https://dc.lft.to/lastmile_qr_scan"}, "lon": -77.03838483333334, "name": "c279a7229669f58f5630b4582bc8a24b", "lat": 38.92650183333333, "is_reserved": 0, "fusion_lat": 0.0, "bike_id": "c279a7229669f58f5630b4582bc8a24b", "type": "electric_scooter", "is_disabled": 0, "fusion_lon": 0.0}, {"rental_uris": {"android": "https://dc.lft.to/lastmile_qr_scan", "ios": "https://dc.lft.to/lastmile_qr_scan"}, "lon": -77.04747933333333, "name": "474393454cb6104094e02b3daf8333a5", "lat": 38.897449333333334, "is_reserved": 0, "fusion_lat": 0.0, "bike_id": "474393454cb6104094e02b3daf8333a5", "type": "electric_scooter", "is_disabled": 0, "fusion_lon": 0.0}, {"rental_uris": {"android": "https://dc.lft.to/lastmile_qr_scan", "ios": "https://dc.lft.to/lastmile_qr_scan"}, "lon": -77.03658433333334, "name": "f3309d57ca4ef7c5c1a3383105df1305", "lat": 38.92988533333333, "is_reserved": 0, "fusion_lat": 0.0, "bike_id": "f3309d57ca4ef7c5c1a3383105df1305", "type": "electric_scooter", "is_disabled": 0, "fusion_lon": 0.0}, {"rental_uris": {"android": "https://dc.lft.to/lastmile_qr_scan", "ios": "https://dc.lft.to/lastmile_qr_scan"}, "lon": -77.04386283333334, "name": "9dc3d6b1d624e6e6247496748bf7c3d7", "lat": 38.9236115, "is_reserved": 0, "fusion_lat": 0.0, "bike_id": "9dc3d6b1d624e6e6247496748bf7c3d7", "type": "electric_scooter", "is_disabled": 0, "fusion_lon": 0.0}, {"rental_uris": {"android": "https://dc.lft.to/lastmile_qr_scan", "ios": "https://dc.lft.to/lastmile_qr_scan"}, "lon": -76.98611816666667, "name": "d2b36c7e8a1de1d9acfc55f4aeb3aae5", "lat": 38.88296, "is_reserved": 0, "fusion_lat": 0.0, "bike_id": "d2b36c7e8a1de1d9acfc55f4aeb3aae5", "type": "electric_scooter", "is_disabled": 0, "fusion_lon": 0.0}, {"rental_uris": {"android": "https://dc.lft.to/lastmile_qr_scan", "ios": "https://dc.lft.to/lastmile_qr_scan"}, "lon": -76.98566183333334, "name": "56f96349c983295fee4f364a5f0dda9a", "lat": 38.8668295, "is_reserved": 0, "fusion_lat": 0.0, "bike_id": "56f96349c983295fee4f364a5f0dda9a", "type": "electric_scooter", "is_disabled": 0, "fusion_lon": 0.0}, {"rental_uris": {"android": "https://dc.lft.to/lastmile_qr_scan", "ios": "https://dc.lft.to/lastmile_qr_scan"}, "lon": -77.02667233333334, "name": "66b9870c612b732e2cfcd728f426386f", "lat": 38.92478916666666, "is_reserved": 0, "fusion_lat": 0.0, "bike_id": "66b9870c612b732e2cfcd728f426386f", "type": "electric_scooter", "is_disabled": 0, "fusion_lon": 0.0}, {"rental_uris": {"android": "https://dc.lft.to/lastmile_qr_scan", "ios": "https://dc.lft.to/lastmile_qr_scan"}, "lon": -77.04045833333333, "name": "11094b4fe4b39f92c178e2b4ac997354", "lat": 38.91795416666667, "is_reserved": 0, "fusion_lat": 0.0, "bike_id": "11094b4fe4b39f92c178e2b4ac997354", "type": "electric_scooter", "is_disabled": 0, "fusion_lon": 0.0}, {"rental_uris": {"android": "https://dc.lft.to/lastmile_qr_scan", "ios": "https://dc.lft.to/lastmile_qr_scan"}, "lon": -77.0220925, "name": "d93a97b63109f61495bf7b6da44c56b3", "lat": 38.89535166666667, "is_reserved": 0, "fusion_lat": 0.0, "bike_id": "d93a97b63109f61495bf7b6da44c56b3", "type": "electric_scooter", "is_disabled": 0, "fusion_lon": 0.0}, {"rental_uris": {"android": "https://dc.lft.to/lastmile_qr_scan", "ios": "https://dc.lft.to/lastmile_qr_scan"}, "lon": -77.01300366666666, "name": "bdaa68783bf57ac136539ef3ad88a12f", "lat": 38.900664166666665, "is_reserved": 0, "fusion_lat": 0.0, "bike_id": "bdaa68783bf57ac136539ef3ad88a12f", "type": "electric_bike", "is_disabled": 0, "fusion_lon": 0.0}, {"rental_uris": {"android": "https://dc.lft.to/lastmile_qr_scan", "ios": "https://dc.lft.to/lastmile_qr_scan"}, "lon": -76.94641266666666, "name": "24f5280f493e7f28adea14601c77b6b9", "lat": 38.898633833333335, "is_reserved": 0, "fusion_lat": 0.0, "bike_id": "24f5280f493e7f28adea14601c77b6b9", "type": "electric_scooter", "is_disabled": 0, "fusion_lon": 0.0}, {"rental_uris": {"android": "https://dc.lft.to/lastmile_qr_scan", "ios": "https://dc.lft.to/lastmile_qr_scan"}, "lon": -76.97548616666667, "name": "337e2b29fdd32af22ee7f0729fd01e69", "lat": 38.90325566666667, "is_reserved": 0, "fusion_lat": 0.0, "bike_id": "337e2b29fdd32af22ee7f0729fd01e69", "type": "electric_scooter", "is_disabled": 0, "fusion_lon": 0.0}, {"rental_uris": {"android": "https://dc.lft.to/lastmile_qr_scan", "ios": "https://dc.lft.to/lastmile_qr_scan"}, "lon": -77.00335066666666, "name": "b3c0325a72478cc476a927d9a89ef045", "lat": 38.89919583333333, "is_reserved": 0, "fusion_lat": 0.0, "bike_id": "b3c0325a72478cc476a927d9a89ef045", "type": "electric_scooter", "is_disabled": 0, "fusion_lon": 0.0}, {"rental_uris": {"android": "https://dc.lft.to/lastmile_qr_scan", "ios": "https://dc.lft.to/lastmile_qr_scan"}, "lon": -77.01075883333333, "name": "4e004a2f3f6da17590d18c8cfd36cc37", "lat": 38.9095815, "is_reserved": 0, "fusion_lat": 0.0, "bike_id": "4e004a2f3f6da17590d18c8cfd36cc37", "type": "electric_scooter", "is_disabled": 0, "fusion_lon": 0.0}, {"rental_uris": {"android": "https://dc.lft.to/lastmile_qr_scan", "ios": "https://dc.lft.to/lastmile_qr_scan"}, "lon": -77.03287816666666, "name": "61e73f6c960c7df43369624829e2e705", "lat": 38.92165166666667, "is_reserved": 0, "fusion_lat": 0.0, "bike_id": "61e73f6c960c7df43369624829e2e705", "type": "electric_scooter", "is_disabled": 0, "fusion_lon": 0.0}, {"rental_uris": {"android": "https://dc.lft.to/lastmile_qr_scan", "ios": "https://dc.lft.to/lastmile_qr_scan"}, "lon": -76.99958533333333, "name": "603abb113d066ac8d8fd2550c6738771", "lat": 38.874145166666665, "is_reserved": 0, "fusion_lat": 0.0, "bike_id": "603abb113d066ac8d8fd2550c6738771", "type": "electric_scooter", "is_disabled": 0, "fusion_lon": 0.0}, {"rental_uris": {"android": "https://dc.lft.to/lastmile_qr_scan", "ios": "https://dc.lft.to/lastmile_qr_scan"}, "lon": -77.081911, "name": "c540ae101135049108fe07d2ef432448", "lat": 38.93330783333333, "is_reserved": 0, "fusion_lat": 0.0, "bike_id": "c540ae101135049108fe07d2ef432448", "type": "electric_scooter", "is_disabled": 0, "fusion_lon": 0.0}, {"rental_uris": {"android": "https://dc.lft.to/lastmile_qr_scan", "ios": "https://dc.lft.to/lastmile_qr_scan"}, "lon": -77.026339, "name": "c74053d69645b799263266d6bac93cb7", "lat": 38.89440366666667, "is_reserved": 0, "fusion_lat": 0.0, "bike_id": "c74053d69645b799263266d6bac93cb7", "type": "electric_scooter", "is_disabled": 0, "fusion_lon": 0.0}, {"rental_uris": {"android": "https://dc.lft.to/lastmile_qr_scan", "ios": "https://dc.lft.to/lastmile_qr_scan"}, "lon": -77.03854816666667, "name": "d8d9821cca7ca57acc7f9b1ba863b6c4", "lat": 38.9178245, "is_reserved": 0, "fusion_lat": 0.0, "bike_id": "d8d9821cca7ca57acc7f9b1ba863b6c4", "type": "electric_scooter", "is_disabled": 0, "fusion_lon": 0.0}, {"rental_uris": {"android": "https://dc.lft.to/lastmile_qr_scan", "ios": "https://dc.lft.to/lastmile_qr_scan"}, "lon": -77.031751, "name": "d73d6fc970d8e1d01286adc33031cb74", "lat": 38.920612, "is_reserved": 0, "fusion_lat": 0.0, "bike_id": "d73d6fc970d8e1d01286adc33031cb74", "type": "electric_scooter", "is_disabled": 0, "fusion_lon": 0.0}, {"rental_uris": {"android": "https://dc.lft.to/lastmile_qr_scan", "ios": "https://dc.lft.to/lastmile_qr_scan"}, "lon": -76.9983235, "name": "6e2602a3302085e56a868349cc0d004d", "lat": 38.9038015, "is_reserved": 0, "fusion_lat": 0.0, "bike_id": "6e2602a3302085e56a868349cc0d004d", "type": "electric_scooter", "is_disabled": 0, "fusion_lon": 0.0}, {"rental_uris": {"android": "https://dc.lft.to/lastmile_qr_scan", "ios": "https://dc.lft.to/lastmile_qr_scan"}, "lon": -77.01482366666667, "name": "ce9541e80b5447970018fba423ad39ba", "lat": 38.9140985, "is_reserved": 0, "fusion_lat": 0.0, "bike_id": "ce9541e80b5447970018fba423ad39ba", "type": "electric_scooter", "is_disabled": 0, "fusion_lon": 0.0}, {"rental_uris": {"android": "https://dc.lft.to/lastmile_qr_scan", "ios": "https://dc.lft.to/lastmile_qr_scan"}, "lon": -76.97255783333334, "name": "14f1c62b5b17797a251f2b909e49ac4a", "lat": 38.957476166666666, "is_reserved": 0, "fusion_lat": 0.0, "bike_id": "14f1c62b5b17797a251f2b909e49ac4a", "type": "electric_bike", "is_disabled": 0, "fusion_lon": 0.0}, {"rental_uris": {"android": "https://dc.lft.to/lastmile_qr_scan", "ios": "https://dc.lft.to/lastmile_qr_scan"}, "lon": -77.000731, "name": "ca4a8bcbb1f1ea5e38ca78b661231083", "lat": 38.92553183333333, "is_reserved": 0, "fusion_lat": 0.0, "bike_id": "ca4a8bcbb1f1ea5e38ca78b661231083", "type": "electric_scooter", "is_disabled": 0, "fusion_lon": 0.0}, {"rental_uris": {"android": "https://dc.lft.to/lastmile_qr_scan", "ios": "https://dc.lft.to/lastmile_qr_scan"}, "lon": -76.97254233333334, "name": "d45f570964fb94bfd8597a8e64316197", "lat": 38.957422333333334, "is_reserved": 0, "fusion_lat": 0.0, "bike_id": "d45f570964fb94bfd8597a8e64316197", "type": "electric_bike", "is_disabled": 0, "fusion_lon": 0.0}, {"rental_uris": {"android": "https://dc.lft.to/lastmile_qr_scan", "ios": "https://dc.lft.to/lastmile_qr_scan"}, "lon": -77.00798633333333, "name": "4a71da9327641efbf251999fa79ac5eb", "lat": 38.94922583333334, "is_reserved": 0, "fusion_lat": 0.0, "bike_id": "4a71da9327641efbf251999fa79ac5eb", "type": "electric_bike", "is_disabled": 0, "fusion_lon": 0.0}, {"rental_uris": {"android": "https://dc.lft.to/lastmile_qr_scan", "ios": "https://dc.lft.to/lastmile_qr_scan"}, "lon": -76.9876275, "name": "b851a121aecb852ada9a61578988e6e5", "lat": 38.900294333333335, "is_reserved": 0, "fusion_lat": 0.0, "bike_id": "b851a121aecb852ada9a61578988e6e5", "type": "electric_scooter", "is_disabled": 0, "fusion_lon": 0.0}, {"rental_uris": {"android": "https://dc.lft.to/lastmile_qr_scan", "ios": "https://dc.lft.to/lastmile_qr_scan"}, "lon": -77.04499666666666, "name": "bd0c9c6ab55e2ab2349d727799e9023b", "lat": 39.01422133333333, "is_reserved": 0, "fusion_lat": 0.0, "bike_id": "bd0c9c6ab55e2ab2349d727799e9023b", "type": "electric_bike", "is_disabled": 0, "fusion_lon": 0.0}, {"rental_uris": {"android": "https://dc.lft.to/lastmile_qr_scan", "ios": "https://dc.lft.to/lastmile_qr_scan"}, "lon": -76.97234066666667, "name": "65e085064d4e594b226bfc961e3869d5", "lat": 38.904306, "is_reserved": 0, "fusion_lat": 0.0, "bike_id": "65e085064d4e594b226bfc961e3869d5", "type": "electric_bike", "is_disabled": 0, "fusion_lon": 0.0}, {"rental_uris": {"android": "https://dc.lft.to/lastmile_qr_scan", "ios": "https://dc.lft.to/lastmile_qr_scan"}, "lon": -76.95837616666667, "name": "b2c34e18b0d0163bad643679e4775497", "lat": 38.93049383333334, "is_reserved": 0, "fusion_lat": 0.0, "bike_id": "b2c34e18b0d0163bad643679e4775497", "type": "electric_bike", "is_disabled": 0, "fusion_lon": 0.0}, {"rental_uris": {"android": "https://dc.lft.to/lastmile_qr_scan", "ios": "https://dc.lft.to/lastmile_qr_scan"}, "lon": -77.03254766666667, "name": "22efbe8d518285cb179ca1b614675b25", "lat": 38.9142215, "is_reserved": 0, "fusion_lat": 0.0, "bike_id": "22efbe8d518285cb179ca1b614675b25", "type": "electric_scooter", "is_disabled": 0, "fusion_lon": 0.0}, {"rental_uris": {"android": "https://dc.lft.to/lastmile_qr_scan", "ios": "https://dc.lft.to/lastmile_qr_scan"}, "lon": -77.02476716666666, "name": "445047cf44beb521f9fe2d2c77bfd124", "lat": 38.91930166666667, "is_reserved": 0, "fusion_lat": 0.0, "bike_id": "445047cf44beb521f9fe2d2c77bfd124", "type": "electric_scooter", "is_disabled": 0, "fusion_lon": 0.0}, {"rental_uris": {"android": "https://dc.lft.to/lastmile_qr_scan", "ios": "https://dc.lft.to/lastmile_qr_scan"}, "lon": -77.04435116666667, "name": "097662501d8ccfa0680ff540c10b1f3b", "lat": 38.92238416666667, "is_reserved": 0, "fusion_lat": 0.0, "bike_id": "097662501d8ccfa0680ff540c10b1f3b", "type": "electric_scooter", "is_disabled": 0, "fusion_lon": 0.0}, {"rental_uris": {"android": "https://dc.lft.to/lastmile_qr_scan", "ios": "https://dc.lft.to/lastmile_qr_scan"}, "lon": -77.09957833333333, "name": "b5b0b3ff9b648df42bc2938b894bfdd7", "lat": 38.85794466666667, "is_reserved": 0, "fusion_lat": 0.0, "bike_id": "b5b0b3ff9b648df42bc2938b894bfdd7", "type": "electric_bike", "is_disabled": 0, "fusion_lon": 0.0}, {"rental_uris": {"android": "https://dc.lft.to/lastmile_qr_scan", "ios": "https://dc.lft.to/lastmile_qr_scan"}, "lon": -77.022406, "name": "0e0adf38aefff411165d1ce0b63d73ba", "lat": 38.981107333333334, "is_reserved": 0, "fusion_lat": 0.0, "bike_id": "0e0adf38aefff411165d1ce0b63d73ba", "type": "electric_scooter", "is_disabled": 0, "fusion_lon": 0.0}, {"rental_uris": {"android": "https://dc.lft.to/lastmile_qr_scan", "ios": "https://dc.lft.to/lastmile_qr_scan"}, "lon": -77.0283325, "name": "87dea99a49ff61abbab1034d41f6f225", "lat": 38.89376883333333, "is_reserved": 0, "fusion_lat": 0.0, "bike_id": "87dea99a49ff61abbab1034d41f6f225", "type": "electric_scooter", "is_disabled": 0, "fusion_lon": 0.0}, {"rental_uris": {"android": "https://dc.lft.to/lastmile_qr_scan", "ios": "https://dc.lft.to/lastmile_qr_scan"}, "lon": -77.02176533333333, "name": "2b9e02984b18fc8a97151c93bc3c9c9f", "lat": 38.892996333333336, "is_reserved": 0, "fusion_lat": 0.0, "bike_id": "2b9e02984b18fc8a97151c93bc3c9c9f", "type": "electric_scooter", "is_disabled": 0, "fusion_lon": 0.0}, {"rental_uris": {"android": "https://dc.lft.to/lastmile_qr_scan", "ios": "https://dc.lft.to/lastmile_qr_scan"}, "lon": -77.053891, "name": "7fcec263c302a4bfe02a77f9132ddfba", "lat": 38.91067683333333, "is_reserved": 0, "fusion_lat": 0.0, "bike_id": "7fcec263c302a4bfe02a77f9132ddfba", "type": "electric_scooter", "is_disabled": 0, "fusion_lon": 0.0}, {"rental_uris": {"android": "https://dc.lft.to/lastmile_qr_scan", "ios": "https://dc.lft.to/lastmile_qr_scan"}, "lon": -76.996553, "name": "0981573ed4cae3ceb89c8fd4a7abcd9f", "lat": 38.81612483333333, "is_reserved": 0, "fusion_lat": 0.0, "bike_id": "0981573ed4cae3ceb89c8fd4a7abcd9f", "type": "electric_bike", "is_disabled": 0, "fusion_lon": 0.0}, {"rental_uris": {"android": "https://dc.lft.to/lastmile_qr_scan", "ios": "https://dc.lft.to/lastmile_qr_scan"}, "lon": -77.0021095, "name": "2bcb5872275af0e7a0737c9eb7d1e06a", "lat": 38.920051666666666, "is_reserved": 0, "fusion_lat": 0.0, "bike_id": "2bcb5872275af0e7a0737c9eb7d1e06a", "type": "electric_scooter", "is_disabled": 0, "fusion_lon": 0.0}, {"rental_uris": {"android": "https://dc.lft.to/lastmile_qr_scan", "ios": "https://dc.lft.to/lastmile_qr_scan"}, "lon": -77.00203633333334, "name": "9fdbde0ed12ef909abf852a56ab6ca7a", "lat": 38.91241983333333, "is_reserved": 0, "fusion_lat": 0.0, "bike_id": "9fdbde0ed12ef909abf852a56ab6ca7a", "type": "electric_scooter", "is_disabled": 0, "fusion_lon": 0.0}, {"rental_uris": {"android": "https://dc.lft.to/lastmile_qr_scan", "ios": "https://dc.lft.to/lastmile_qr_scan"}, "lon": -77.02191883333333, "name": "c0452e7d8a4a6ef165df29673419d8ad", "lat": 38.8949635, "is_reserved": 0, "fusion_lat": 0.0, "bike_id": "c0452e7d8a4a6ef165df29673419d8ad", "type": "electric_scooter", "is_disabled": 0, "fusion_lon": 0.0}, {"rental_uris": {"android": "https://dc.lft.to/lastmile_qr_scan", "ios": "https://dc.lft.to/lastmile_qr_scan"}, "lon": -77.02827216666667, "name": "46d51c2759e3607924db3dcd13368463", "lat": 38.917133, "is_reserved": 0, "fusion_lat": 0.0, "bike_id": "46d51c2759e3607924db3dcd13368463", "type": "electric_scooter", "is_disabled": 0, "fusion_lon": 0.0}, {"rental_uris": {"android": "https://dc.lft.to/lastmile_qr_scan", "ios": "https://dc.lft.to/lastmile_qr_scan"}, "lon": -77.04519283333333, "name": "53d2446f868adf8add5d1ea4a66d59fe", "lat": 38.89608966666667, "is_reserved": 0, "fusion_lat": 0.0, "bike_id": "53d2446f868adf8add5d1ea4a66d59fe", "type": "electric_scooter", "is_disabled": 0, "fusion_lon": 0.0}, {"rental_uris": {"android": "https://dc.lft.to/lastmile_qr_scan", "ios": "https://dc.lft.to/lastmile_qr_scan"}, "lon": -76.98089183333333, "name": "759c992486d8d96bc9a247a7893cbb45", "lat": 38.95757483333333, "is_reserved": 0, "fusion_lat": 0.0, "bike_id": "759c992486d8d96bc9a247a7893cbb45", "type": "electric_bike", "is_disabled": 0, "fusion_lon": 0.0}, {"rental_uris": {"android": "https://dc.lft.to/lastmile_qr_scan", "ios": "https://dc.lft.to/lastmile_qr_scan"}, "lon": -76.96935216666667, "name": "b79a5db2659ecf8e13737c1ba37ce24d", "lat": 38.959885, "is_reserved": 0, "fusion_lat": 0.0, "bike_id": "b79a5db2659ecf8e13737c1ba37ce24d", "type": "electric_bike", "is_disabled": 0, "fusion_lon": 0.0}, {"rental_uris": {"android": "https://dc.lft.to/lastmile_qr_scan", "ios": "https://dc.lft.to/lastmile_qr_scan"}, "lon": -77.04254566666667, "name": "e151d80e9c8c005c405dcdefb7be53b7", "lat": 38.92204016666667, "is_reserved": 0, "fusion_lat": 0.0, "bike_id": "e151d80e9c8c005c405dcdefb7be53b7", "type": "electric_scooter", "is_disabled": 0, "fusion_lon": 0.0}, {"rental_uris": {"android": "https://dc.lft.to/lastmile_qr_scan", "ios": "https://dc.lft.to/lastmile_qr_scan"}, "lon": -77.01506283333333, "name": "436533c48331aa178b8a78f0c29eb50d", "lat": 38.91006466666666, "is_reserved": 0, "fusion_lat": 0.0, "bike_id": "436533c48331aa178b8a78f0c29eb50d", "type": "electric_scooter", "is_disabled": 0, "fusion_lon": 0.0}, {"rental_uris": {"android": "https://dc.lft.to/lastmile_qr_scan", "ios": "https://dc.lft.to/lastmile_qr_scan"}, "lon": -77.03103166666666, "name": "de788cf464254f33349a7fde30d8d461", "lat": 38.93188933333333, "is_reserved": 0, "fusion_lat": 0.0, "bike_id": "de788cf464254f33349a7fde30d8d461", "type": "electric_scooter", "is_disabled": 0, "fusion_lon": 0.0}, {"rental_uris": {"android": "https://dc.lft.to/lastmile_qr_scan", "ios": "https://dc.lft.to/lastmile_qr_scan"}, "lon": -77.04243733333334, "name": "b312d172e045fedf4e3d460d78d7983b", "lat": 38.92225283333333, "is_reserved": 0, "fusion_lat": 0.0, "bike_id": "b312d172e045fedf4e3d460d78d7983b", "type": "electric_scooter", "is_disabled": 0, "fusion_lon": 0.0}, {"rental_uris": {"android": "https://dc.lft.to/lastmile_qr_scan", "ios": "https://dc.lft.to/lastmile_qr_scan"}, "lon": -77.025207, "name": "f21016199052f10a61a5799b0bc62ba0", "lat": 38.920837, "is_reserved": 0, "fusion_lat": 0.0, "bike_id": "f21016199052f10a61a5799b0bc62ba0", "type": "electric_scooter", "is_disabled": 0, "fusion_lon": 0.0}, {"rental_uris": {"android": "https://dc.lft.to/lastmile_qr_scan", "ios": "https://dc.lft.to/lastmile_qr_scan"}, "lon": -77.01865433333333, "name": "fbe678e680de4c7076a8b92aaacbc98e", "lat": 38.89899066666667, "is_reserved": 0, "fusion_lat": 0.0, "bike_id": "fbe678e680de4c7076a8b92aaacbc98e", "type": "electric_scooter", "is_disabled": 0, "fusion_lon": 0.0}, {"rental_uris": {"android": "https://dc.lft.to/lastmile_qr_scan", "ios": "https://dc.lft.to/lastmile_qr_scan"}, "lon": -76.97627266666667, "name": "e714390e43e3d4b4c7425e57f06bb062", "lat": 38.90158483333333, "is_reserved": 0, "fusion_lat": 0.0, "bike_id": "e714390e43e3d4b4c7425e57f06bb062", "type": "electric_scooter", "is_disabled": 0, "fusion_lon": 0.0}, {"rental_uris": {"android": "https://dc.lft.to/lastmile_qr_scan", "ios": "https://dc.lft.to/lastmile_qr_scan"}, "lon": -77.02276666666667, "name": "dfaf7487bcbea6969f59a128b88c7303", "lat": 38.916552333333335, "is_reserved": 0, "fusion_lat": 0.0, "bike_id": "dfaf7487bcbea6969f59a128b88c7303", "type": "electric_scooter", "is_disabled": 0, "fusion_lon": 0.0}, {"rental_uris": {"android": "https://dc.lft.to/lastmile_qr_scan", "ios": "https://dc.lft.to/lastmile_qr_scan"}, "lon": -77.01223866666666, "name": "7326185ac4719e05d89aa74d133e0de0", "lat": 38.91351983333333, "is_reserved": 0, "fusion_lat": 0.0, "bike_id": "7326185ac4719e05d89aa74d133e0de0", "type": "electric_scooter", "is_disabled": 0, "fusion_lon": 0.0}, {"rental_uris": {"android": "https://dc.lft.to/lastmile_qr_scan", "ios": "https://dc.lft.to/lastmile_qr_scan"}, "lon": -77.04683, "name": "b40cc7ad14c9d7bad10a4930b6def6fb", "lat": 38.902945, "is_reserved": 0, "fusion_lat": 0.0, "bike_id": "b40cc7ad14c9d7bad10a4930b6def6fb", "type": "electric_scooter", "is_disabled": 0, "fusion_lon": 0.0}, {"rental_uris": {"android": "https://dc.lft.to/lastmile_qr_scan", "ios": "https://dc.lft.to/lastmile_qr_scan"}, "lon": -76.96258083333333, "name": "780737f75da3fec156a670f5e0bd1667", "lat": 38.88250816666667, "is_reserved": 0, "fusion_lat": 0.0, "bike_id": "780737f75da3fec156a670f5e0bd1667", "type": "electric_bike", "is_disabled": 0, "fusion_lon": 0.0}, {"rental_uris": {"android": "https://dc.lft.to/lastmile_qr_scan", "ios": "https://dc.lft.to/lastmile_qr_scan"}, "lon": -77.003803, "name": "794d42903784609d74bcb74c3e21a8bd", "lat": 38.877028333333335, "is_reserved": 0, "fusion_lat": 0.0, "bike_id": "794d42903784609d74bcb74c3e21a8bd", "type": "electric_scooter", "is_disabled": 0, "fusion_lon": 0.0}, {"rental_uris": {"android": "https://dc.lft.to/lastmile_qr_scan", "ios": "https://dc.lft.to/lastmile_qr_scan"}, "lon": -77.044714, "name": "8a4ec88d2d5b37d15835e0a67bafc669", "lat": 38.9188945, "is_reserved": 0, "fusion_lat": 0.0, "bike_id": "8a4ec88d2d5b37d15835e0a67bafc669", "type": "electric_scooter", "is_disabled": 0, "fusion_lon": 0.0}, {"rental_uris": {"android": "https://dc.lft.to/lastmile_qr_scan", "ios": "https://dc.lft.to/lastmile_qr_scan"}, "lon": -77.05111733333334, "name": "4e23847b49579d669dfd47f1d27f7fe5", "lat": 38.813383333333334, "is_reserved": 0, "fusion_lat": 0.0, "bike_id": "4e23847b49579d669dfd47f1d27f7fe5", "type": "electric_bike", "is_disabled": 0, "fusion_lon": 0.0}, {"rental_uris": {"android": "https://dc.lft.to/lastmile_qr_scan", "ios": "https://dc.lft.to/lastmile_qr_scan"}, "lon": -77.0093215, "name": "5917159d77079e4c89649d44124ec200", "lat": 38.87622916666667, "is_reserved": 0, "fusion_lat": 0.0, "bike_id": "5917159d77079e4c89649d44124ec200", "type": "electric_scooter", "is_disabled": 0, "fusion_lon": 0.0}, {"rental_uris": {"android": "https://dc.lft.to/lastmile_qr_scan", "ios": "https://dc.lft.to/lastmile_qr_scan"}, "lon": -77.01461166666667, "name": "143c431dccfab21a77cd2fad4e4a8e0d", "lat": 38.87934933333333, "is_reserved": 0, "fusion_lat": 0.0, "bike_id": "143c431dccfab21a77cd2fad4e4a8e0d", "type": "electric_scooter", "is_disabled": 0, "fusion_lon": 0.0}, {"rental_uris": {"android": "https://dc.lft.to/lastmile_qr_scan", "ios": "https://dc.lft.to/lastmile_qr_scan"}, "lon": -77.02277883333333, "name": "477007be2d7c3603a665a8249d88889c", "lat": 38.9165325, "is_reserved": 0, "fusion_lat": 0.0, "bike_id": "477007be2d7c3603a665a8249d88889c", "type": "electric_scooter", "is_disabled": 0, "fusion_lon": 0.0}, {"rental_uris": {"android": "https://dc.lft.to/lastmile_qr_scan", "ios": "https://dc.lft.to/lastmile_qr_scan"}, "lon": -77.0444785, "name": "1c640cd954cf7ef53d56456f83d6da01", "lat": 38.912598833333334, "is_reserved": 0, "fusion_lat": 0.0, "bike_id": "1c640cd954cf7ef53d56456f83d6da01", "type": "electric_scooter", "is_disabled": 0, "fusion_lon": 0.0}, {"rental_uris": {"android": "https://dc.lft.to/lastmile_qr_scan", "ios": "https://dc.lft.to/lastmile_qr_scan"}, "lon": -77.02315466666667, "name": "be126cc5c941d556b9812629cea6d9ef", "lat": 38.9171185, "is_reserved": 0, "fusion_lat": 0.0, "bike_id": "be126cc5c941d556b9812629cea6d9ef", "type": "electric_scooter", "is_disabled": 0, "fusion_lon": 0.0}, {"rental_uris": {"android": "https://dc.lft.to/lastmile_qr_scan", "ios": "https://dc.lft.to/lastmile_qr_scan"}, "lon": -77.02286966666667, "name": "d11ced96a9b2d19a4ceb511a12e3a8a3", "lat": 38.89518783333333, "is_reserved": 0, "fusion_lat": 0.0, "bike_id": "d11ced96a9b2d19a4ceb511a12e3a8a3", "type": "electric_scooter", "is_disabled": 0, "fusion_lon": 0.0}, {"rental_uris": {"android": "https://dc.lft.to/lastmile_qr_scan", "ios": "https://dc.lft.to/lastmile_qr_scan"}, "lon": -76.9690385, "name": "372ab1fa502ee3c01b22d51b6e1d2d24", "lat": 38.873105833333334, "is_reserved": 0, "fusion_lat": 0.0, "bike_id": "372ab1fa502ee3c01b22d51b6e1d2d24", "type": "electric_scooter", "is_disabled": 0, "fusion_lon": 0.0}, {"rental_uris": {"android": "https://dc.lft.to/lastmile_qr_scan", "ios": "https://dc.lft.to/lastmile_qr_scan"}, "lon": -77.02046866666667, "name": "a86d6d2ba9d5711d1970de1a66b10575", "lat": 38.9365235, "is_reserved": 0, "fusion_lat": 0.0, "bike_id": "a86d6d2ba9d5711d1970de1a66b10575", "type": "electric_scooter", "is_disabled": 0, "fusion_lon": 0.0}, {"rental_uris": {"android": "https://dc.lft.to/lastmile_qr_scan", "ios": "https://dc.lft.to/lastmile_qr_scan"}, "lon": -77.03373016666667, "name": "0e548da618e8f2e0e8e13576263cb656", "lat": 38.924446333333336, "is_reserved": 0, "fusion_lat": 0.0, "bike_id": "0e548da618e8f2e0e8e13576263cb656", "type": "electric_scooter", "is_disabled": 0, "fusion_lon": 0.0}, {"rental_uris": {"android": "https://dc.lft.to/lastmile_qr_scan", "ios": "https://dc.lft.to/lastmile_qr_scan"}, "lon": -77.022466, "name": "725a13169917624352ec87f9c7681017", "lat": 38.922709833333336, "is_reserved": 0, "fusion_lat": 0.0, "bike_id": "725a13169917624352ec87f9c7681017", "type": "electric_scooter", "is_disabled": 0, "fusion_lon": 0.0}, {"rental_uris": {"android": "https://dc.lft.to/lastmile_qr_scan", "ios": "https://dc.lft.to/lastmile_qr_scan"}, "lon": -76.98696733333334, "name": "d840d73b02fd5788df7777538ef57efb", "lat": 38.90019216666666, "is_reserved": 0, "fusion_lat": 0.0, "bike_id": "d840d73b02fd5788df7777538ef57efb", "type": "electric_scooter", "is_disabled": 0, "fusion_lon": 0.0}, {"rental_uris": {"android": "https://dc.lft.to/lastmile_qr_scan", "ios": "https://dc.lft.to/lastmile_qr_scan"}, "lon": -77.01145166666667, "name": "3cd1458bf30796d2ab4fc8edc4c00c97", "lat": 38.90649116666667, "is_reserved": 0, "fusion_lat": 0.0, "bike_id": "3cd1458bf30796d2ab4fc8edc4c00c97", "type": "electric_scooter", "is_disabled": 0, "fusion_lon": 0.0}, {"rental_uris": {"android": "https://dc.lft.to/lastmile_qr_scan", "ios": "https://dc.lft.to/lastmile_qr_scan"}, "lon": -77.00183, "name": "27d2d80d14a0a23eca7bba63540f3b6d", "lat": 38.822185, "is_reserved": 0, "fusion_lat": 0.0, "bike_id": "27d2d80d14a0a23eca7bba63540f3b6d", "type": "electric_scooter", "is_disabled": 0, "fusion_lon": 0.0}, {"rental_uris": {"android": "https://dc.lft.to/lastmile_qr_scan", "ios": "https://dc.lft.to/lastmile_qr_scan"}, "lon": -77.020311, "name": "647c288db97ec71c424698a79efde517", "lat": 38.8847975, "is_reserved": 0, "fusion_lat": 0.0, "bike_id": "647c288db97ec71c424698a79efde517", "type": "electric_scooter", "is_disabled": 0, "fusion_lon": 0.0}, {"rental_uris": {"android": "https://dc.lft.to/lastmile_qr_scan", "ios": "https://dc.lft.to/lastmile_qr_scan"}, "lon": -77.03156266666667, "name": "e95dddc6197e164c0bc1d0c81bfbcf6b", "lat": 38.916938, "is_reserved": 0, "fusion_lat": 0.0, "bike_id": "e95dddc6197e164c0bc1d0c81bfbcf6b", "type": "electric_scooter", "is_disabled": 0, "fusion_lon": 0.0}, {"rental_uris": {"android": "https://dc.lft.to/lastmile_qr_scan", "ios": "https://dc.lft.to/lastmile_qr_scan"}, "lon": -77.0769465, "name": "89089fb98fda4ff5f9c69d05f8a4f5ca", "lat": 38.99420766666667, "is_reserved": 0, "fusion_lat": 0.0, "bike_id": "89089fb98fda4ff5f9c69d05f8a4f5ca", "type": "electric_bike", "is_disabled": 0, "fusion_lon": 0.0}, {"rental_uris": {"android": "https://dc.lft.to/lastmile_qr_scan", "ios": "https://dc.lft.to/lastmile_qr_scan"}, "lon": -77.0569485, "name": "9c49be888dd0614b3b6d773a8d4850b5", "lat": 38.93326666666667, "is_reserved": 0, "fusion_lat": 0.0, "bike_id": "9c49be888dd0614b3b6d773a8d4850b5", "type": "electric_scooter", "is_disabled": 0, "fusion_lon": 0.0}, {"rental_uris": {"android": "https://dc.lft.to/lastmile_qr_scan", "ios": "https://dc.lft.to/lastmile_qr_scan"}, "lon": -77.02966133333334, "name": "268e71cdf60057f597729226afe8fda2", "lat": 38.917294, "is_reserved": 0, "fusion_lat": 0.0, "bike_id": "268e71cdf60057f597729226afe8fda2", "type": "electric_scooter", "is_disabled": 0, "fusion_lon": 0.0}, {"rental_uris": {"android": "https://dc.lft.to/lastmile_qr_scan", "ios": "https://dc.lft.to/lastmile_qr_scan"}, "lon": -77.024153, "name": "72dc70c1bf526fd779f48f98ca3a2733", "lat": 38.931085833333334, "is_reserved": 0, "fusion_lat": 0.0, "bike_id": "72dc70c1bf526fd779f48f98ca3a2733", "type": "electric_scooter", "is_disabled": 0, "fusion_lon": 0.0}, {"rental_uris": {"android": "https://dc.lft.to/lastmile_qr_scan", "ios": "https://dc.lft.to/lastmile_qr_scan"}, "lon": -76.93407766666667, "name": "86ec076677adfd9424f9f153a79acbe7", "lat": 38.89896516666667, "is_reserved": 0, "fusion_lat": 0.0, "bike_id": "86ec076677adfd9424f9f153a79acbe7", "type": "electric_scooter", "is_disabled": 0, "fusion_lon": 0.0}, {"rental_uris": {"android": "https://dc.lft.to/lastmile_qr_scan", "ios": "https://dc.lft.to/lastmile_qr_scan"}, "lon": -77.0346055, "name": "18e39dd109e73fe6ce4d5cce0e2b1c7f", "lat": 38.9056335, "is_reserved": 0, "fusion_lat": 0.0, "bike_id": "18e39dd109e73fe6ce4d5cce0e2b1c7f", "type": "electric_scooter", "is_disabled": 0, "fusion_lon": 0.0}, {"rental_uris": {"android": "https://dc.lft.to/lastmile_qr_scan", "ios": "https://dc.lft.to/lastmile_qr_scan"}, "lon": -77.05754683333333, "name": "5afd66ab8fd130056f5fc4d4de8198f0", "lat": 38.92417016666667, "is_reserved": 0, "fusion_lat": 0.0, "bike_id": "5afd66ab8fd130056f5fc4d4de8198f0", "type": "electric_scooter", "is_disabled": 0, "fusion_lon": 0.0}, {"rental_uris": {"android": "https://dc.lft.to/lastmile_qr_scan", "ios": "https://dc.lft.to/lastmile_qr_scan"}, "lon": -77.02205066666667, "name": "cb4692d3ea5a6991744bddc69e386b03", "lat": 38.90577583333334, "is_reserved": 0, "fusion_lat": 0.0, "bike_id": "cb4692d3ea5a6991744bddc69e386b03", "type": "electric_scooter", "is_disabled": 0, "fusion_lon": 0.0}, {"rental_uris": {"android": "https://dc.lft.to/lastmile_qr_scan", "ios": "https://dc.lft.to/lastmile_qr_scan"}, "lon": -77.01858366666667, "name": "3e62221601963c1e4bc404e04e9ab4e9", "lat": 38.973668833333335, "is_reserved": 0, "fusion_lat": 0.0, "bike_id": "3e62221601963c1e4bc404e04e9ab4e9", "type": "electric_scooter", "is_disabled": 0, "fusion_lon": 0.0}, {"rental_uris": {"android": "https://dc.lft.to/lastmile_qr_scan", "ios": "https://dc.lft.to/lastmile_qr_scan"}, "lon": -77.03635616666666, "name": "12e5cb887618f0b1c2e419f764be1f6d", "lat": 38.92739783333333, "is_reserved": 0, "fusion_lat": 0.0, "bike_id": "12e5cb887618f0b1c2e419f764be1f6d", "type": "electric_scooter", "is_disabled": 0, "fusion_lon": 0.0}, {"rental_uris": {"android": "https://dc.lft.to/lastmile_qr_scan", "ios": "https://dc.lft.to/lastmile_qr_scan"}, "lon": -77.02628833333333, "name": "c205f9fa4afed13188eeb77eedae422c", "lat": 38.8965725, "is_reserved": 0, "fusion_lat": 0.0, "bike_id": "c205f9fa4afed13188eeb77eedae422c", "type": "electric_scooter", "is_disabled": 0, "fusion_lon": 0.0}, {"rental_uris": {"android": "https://dc.lft.to/lastmile_qr_scan", "ios": "https://dc.lft.to/lastmile_qr_scan"}, "lon": -77.01669866666667, "name": "2a01f6a7ccad8709bf79ac06195af46a", "lat": 38.90140933333333, "is_reserved": 0, "fusion_lat": 0.0, "bike_id": "2a01f6a7ccad8709bf79ac06195af46a", "type": "electric_scooter", "is_disabled": 0, "fusion_lon": 0.0}, {"rental_uris": {"android": "https://dc.lft.to/lastmile_qr_scan", "ios": "https://dc.lft.to/lastmile_qr_scan"}, "lon": -77.01159, "name": "035c00b2d9c535d343d11eff105daa56", "lat": 38.92022, "is_reserved": 0, "fusion_lat": 0.0, "bike_id": "035c00b2d9c535d343d11eff105daa56", "type": "electric_scooter", "is_disabled": 0, "fusion_lon": 0.0}, {"rental_uris": {"android": "https://dc.lft.to/lastmile_qr_scan", "ios": "https://dc.lft.to/lastmile_qr_scan"}, "lon": -77.02098683333334, "name": "162e16c6788677a0239bb8e2e0b433be", "lat": 38.921140333333334, "is_reserved": 0, "fusion_lat": 0.0, "bike_id": "162e16c6788677a0239bb8e2e0b433be", "type": "electric_scooter", "is_disabled": 0, "fusion_lon": 0.0}, {"rental_uris": {"android": "https://dc.lft.to/lastmile_qr_scan", "ios": "https://dc.lft.to/lastmile_qr_scan"}, "lon": -77.04778066666667, "name": "2284512fb1c65d84623ef94b641cc1ba", "lat": 38.902503833333334, "is_reserved": 0, "fusion_lat": 0.0, "bike_id": "2284512fb1c65d84623ef94b641cc1ba", "type": "electric_scooter", "is_disabled": 0, "fusion_lon": 0.0}, {"rental_uris": {"android": "https://dc.lft.to/lastmile_qr_scan", "ios": "https://dc.lft.to/lastmile_qr_scan"}, "lon": -77.0344455, "name": "e762f0ecf1ef53d326086d03289db876", "lat": 38.909499, "is_reserved": 0, "fusion_lat": 0.0, "bike_id": "e762f0ecf1ef53d326086d03289db876", "type": "electric_scooter", "is_disabled": 0, "fusion_lon": 0.0}, {"rental_uris": {"android": "https://dc.lft.to/lastmile_qr_scan", "ios": "https://dc.lft.to/lastmile_qr_scan"}, "lon": -77.068858, "name": "c98e7c4a8329bedd9b6ebc9d41cb3cad", "lat": 38.905026, "is_reserved": 0, "fusion_lat": 0.0, "bike_id": "c98e7c4a8329bedd9b6ebc9d41cb3cad", "type": "electric_scooter", "is_disabled": 0, "fusion_lon": 0.0}, {"rental_uris": {"android": "https://dc.lft.to/lastmile_qr_scan", "ios": "https://dc.lft.to/lastmile_qr_scan"}, "lon": -77.0578885, "name": "da6b932bb619ee5b4a138c81ff2abefc", "lat": 38.90095816666667, "is_reserved": 0, "fusion_lat": 0.0, "bike_id": "da6b932bb619ee5b4a138c81ff2abefc", "type": "electric_scooter", "is_disabled": 0, "fusion_lon": 0.0}, {"rental_uris": {"android": "https://dc.lft.to/lastmile_qr_scan", "ios": "https://dc.lft.to/lastmile_qr_scan"}, "lon": -77.04262916666667, "name": "8e08c64cb81886f578f02a9fe8f2ec91", "lat": 38.908600166666666, "is_reserved": 0, "fusion_lat": 0.0, "bike_id": "8e08c64cb81886f578f02a9fe8f2ec91", "type": "electric_scooter", "is_disabled": 0, "fusion_lon": 0.0}, {"rental_uris": {"android": "https://dc.lft.to/lastmile_qr_scan", "ios": "https://dc.lft.to/lastmile_qr_scan"}, "lon": -77.0011495, "name": "9056f4d8cd7961e4d3333a353a136622", "lat": 38.87793416666667, "is_reserved": 0, "fusion_lat": 0.0, "bike_id": "9056f4d8cd7961e4d3333a353a136622", "type": "electric_scooter", "is_disabled": 0, "fusion_lon": 0.0}, {"rental_uris": {"android": "https://dc.lft.to/lastmile_qr_scan", "ios": "https://dc.lft.to/lastmile_qr_scan"}, "lon": -77.01103966666666, "name": "13ed9fd18504841039429a872abe6c76", "lat": 38.8955405, "is_reserved": 0, "fusion_lat": 0.0, "bike_id": "13ed9fd18504841039429a872abe6c76", "type": "electric_scooter", "is_disabled": 0, "fusion_lon": 0.0}, {"rental_uris": {"android": "https://dc.lft.to/lastmile_qr_scan", "ios": "https://dc.lft.to/lastmile_qr_scan"}, "lon": -77.0006605, "name": "0db09ab1aff1c54713e9f3dc50a47280", "lat": 38.9255335, "is_reserved": 0, "fusion_lat": 0.0, "bike_id": "0db09ab1aff1c54713e9f3dc50a47280", "type": "electric_scooter", "is_disabled": 0, "fusion_lon": 0.0}, {"rental_uris": {"android": "https://dc.lft.to/lastmile_qr_scan", "ios": "https://dc.lft.to/lastmile_qr_scan"}, "lon": -76.99946833333334, "name": "7ee72ea7266572ebe14a19cb8bf902b1", "lat": 38.842970333333334, "is_reserved": 0, "fusion_lat": 0.0, "bike_id": "7ee72ea7266572ebe14a19cb8bf902b1", "type": "electric_scooter", "is_disabled": 0, "fusion_lon": 0.0}, {"rental_uris": {"android": "https://dc.lft.to/lastmile_qr_scan", "ios": "https://dc.lft.to/lastmile_qr_scan"}, "lon": -77.049111, "name": "57d9b361bbd4de788bd2b9dbc90e0701", "lat": 38.89689, "is_reserved": 0, "fusion_lat": 0.0, "bike_id": "57d9b361bbd4de788bd2b9dbc90e0701", "type": "electric_scooter", "is_disabled": 0, "fusion_lon": 0.0}, {"rental_uris": {"android": "https://dc.lft.to/lastmile_qr_scan", "ios": "https://dc.lft.to/lastmile_qr_scan"}, "lon": -77.01211233333333, "name": "26eaf9e4f8ff1a12d6eee7f22a8eb460", "lat": 38.91921166666667, "is_reserved": 0, "fusion_lat": 0.0, "bike_id": "26eaf9e4f8ff1a12d6eee7f22a8eb460", "type": "electric_scooter", "is_disabled": 0, "fusion_lon": 0.0}, {"rental_uris": {"android": "https://dc.lft.to/lastmile_qr_scan", "ios": "https://dc.lft.to/lastmile_qr_scan"}, "lon": -77.04474083333334, "name": "f64fd45de120913c39ee371bf664043a", "lat": 38.918870166666665, "is_reserved": 0, "fusion_lat": 0.0, "bike_id": "f64fd45de120913c39ee371bf664043a", "type": "electric_scooter", "is_disabled": 0, "fusion_lon": 0.0}, {"rental_uris": {"android": "https://dc.lft.to/lastmile_qr_scan", "ios": "https://dc.lft.to/lastmile_qr_scan"}, "lon": -77.0020795, "name": "a2d80e1e3fed2faa1ee0296de3682d8b", "lat": 38.900330833333335, "is_reserved": 0, "fusion_lat": 0.0, "bike_id": "a2d80e1e3fed2faa1ee0296de3682d8b", "type": "electric_scooter", "is_disabled": 0, "fusion_lon": 0.0}, {"rental_uris": {"android": "https://dc.lft.to/lastmile_qr_scan", "ios": "https://dc.lft.to/lastmile_qr_scan"}, "lon": -77.03203866666666, "name": "efc32b54a98cb8d0888fda086e2832ae", "lat": 38.892390166666665, "is_reserved": 0, "fusion_lat": 0.0, "bike_id": "efc32b54a98cb8d0888fda086e2832ae", "type": "electric_scooter", "is_disabled": 0, "fusion_lon": 0.0}, {"rental_uris": {"android": "https://dc.lft.to/lastmile_qr_scan", "ios": "https://dc.lft.to/lastmile_qr_scan"}, "lon": -76.94784033333333, "name": "368926ec8d16527a01987bc1c1f98646", "lat": 38.896214666666665, "is_reserved": 0, "fusion_lat": 0.0, "bike_id": "368926ec8d16527a01987bc1c1f98646", "type": "electric_scooter", "is_disabled": 0, "fusion_lon": 0.0}, {"rental_uris": {"android": "https://dc.lft.to/lastmile_qr_scan", "ios": "https://dc.lft.to/lastmile_qr_scan"}, "lon": -76.95157016666667, "name": "aaea54457b016adcb255e8fc9c8da825", "lat": 38.885219, "is_reserved": 0, "fusion_lat": 0.0, "bike_id": "aaea54457b016adcb255e8fc9c8da825", "type": "electric_bike", "is_disabled": 0, "fusion_lon": 0.0}, {"rental_uris": {"android": "https://dc.lft.to/lastmile_qr_scan", "ios": "https://dc.lft.to/lastmile_qr_scan"}, "lon": -76.94851816666667, "name": "f8281ec9c375e74fdaaf137b3f048109", "lat": 38.88305533333333, "is_reserved": 0, "fusion_lat": 0.0, "bike_id": "f8281ec9c375e74fdaaf137b3f048109", "type": "electric_scooter", "is_disabled": 0, "fusion_lon": 0.0}, {"rental_uris": {"android": "https://dc.lft.to/lastmile_qr_scan", "ios": "https://dc.lft.to/lastmile_qr_scan"}, "lon": -76.94893083333334, "name": "8bb612ff9297971ec3d552a33f782d28", "lat": 38.89534833333333, "is_reserved": 0, "fusion_lat": 0.0, "bike_id": "8bb612ff9297971ec3d552a33f782d28", "type": "electric_scooter", "is_disabled": 0, "fusion_lon": 0.0}, {"rental_uris": {"android": "https://dc.lft.to/lastmile_qr_scan", "ios": "https://dc.lft.to/lastmile_qr_scan"}, "lon": -76.99001566666666, "name": "1e1fb77fac1fcb06ee366ff275a6e755", "lat": 38.86506633333333, "is_reserved": 0, "fusion_lat": 0.0, "bike_id": "1e1fb77fac1fcb06ee366ff275a6e755", "type": "electric_scooter", "is_disabled": 0, "fusion_lon": 0.0}, {"rental_uris": {"android": "https://dc.lft.to/lastmile_qr_scan", "ios": "https://dc.lft.to/lastmile_qr_scan"}, "lon": -77.02429616666667, "name": "f28193d628a4a99466f54ba3e1fc982e", "lat": 38.9204555, "is_reserved": 0, "fusion_lat": 0.0, "bike_id": "f28193d628a4a99466f54ba3e1fc982e", "type": "electric_scooter", "is_disabled": 0, "fusion_lon": 0.0}, {"rental_uris": {"android": "https://dc.lft.to/lastmile_qr_scan", "ios": "https://dc.lft.to/lastmile_qr_scan"}, "lon": -76.98824783333333, "name": "697dced7ec87dc692ba3434f99686542", "lat": 38.90035016666667, "is_reserved": 0, "fusion_lat": 0.0, "bike_id": "697dced7ec87dc692ba3434f99686542", "type": "electric_scooter", "is_disabled": 0, "fusion_lon": 0.0}, {"rental_uris": {"android": "https://dc.lft.to/lastmile_qr_scan", "ios": "https://dc.lft.to/lastmile_qr_scan"}, "lon": -77.031829, "name": "382a43f93e507107ac018f0a15ed2a49", "lat": 38.90392583333333, "is_reserved": 0, "fusion_lat": 0.0, "bike_id": "382a43f93e507107ac018f0a15ed2a49", "type": "electric_scooter", "is_disabled": 0, "fusion_lon": 0.0}, {"rental_uris": {"android": "https://dc.lft.to/lastmile_qr_scan", "ios": "https://dc.lft.to/lastmile_qr_scan"}, "lon": -77.02182116666667, "name": "350ee5f5c02e10a8b7c1ab48d1c8732c", "lat": 38.91564966666667, "is_reserved": 0, "fusion_lat": 0.0, "bike_id": "350ee5f5c02e10a8b7c1ab48d1c8732c", "type": "electric_scooter", "is_disabled": 0, "fusion_lon": 0.0}, {"rental_uris": {"android": "https://dc.lft.to/lastmile_qr_scan", "ios": "https://dc.lft.to/lastmile_qr_scan"}, "lon": -77.0416165, "name": "c11feb3956dc0549e331af8bb5a911b9", "lat": 38.892361, "is_reserved": 0, "fusion_lat": 0.0, "bike_id": "c11feb3956dc0549e331af8bb5a911b9", "type": "electric_scooter", "is_disabled": 0, "fusion_lon": 0.0}, {"rental_uris": {"android": "https://dc.lft.to/lastmile_qr_scan", "ios": "https://dc.lft.to/lastmile_qr_scan"}, "lon": -77.0327825, "name": "2c38c443e3fed10097ab50f5334e0639", "lat": 38.936935, "is_reserved": 0, "fusion_lat": 0.0, "bike_id": "2c38c443e3fed10097ab50f5334e0639", "type": "electric_scooter", "is_disabled": 0, "fusion_lon": 0.0}, {"rental_uris": {"android": "https://dc.lft.to/lastmile_qr_scan", "ios": "https://dc.lft.to/lastmile_qr_scan"}, "lon": -77.0470205, "name": "a827eedbf3e336b2af948ef16639d216", "lat": 38.921038833333334, "is_reserved": 0, "fusion_lat": 0.0, "bike_id": "a827eedbf3e336b2af948ef16639d216", "type": "electric_scooter", "is_disabled": 0, "fusion_lon": 0.0}, {"rental_uris": {"android": "https://dc.lft.to/lastmile_qr_scan", "ios": "https://dc.lft.to/lastmile_qr_scan"}, "lon": -77.022323, "name": "9969542e7f38a5ab28502ee4cda5d716", "lat": 38.910293333333335, "is_reserved": 0, "fusion_lat": 0.0, "bike_id": "9969542e7f38a5ab28502ee4cda5d716", "type": "electric_scooter", "is_disabled": 0, "fusion_lon": 0.0}, {"rental_uris": {"android": "https://dc.lft.to/lastmile_qr_scan", "ios": "https://dc.lft.to/lastmile_qr_scan"}, "lon": -77.0317975, "name": "fcdd7d1f09afff7929a7e9ea9c506ddb", "lat": 38.91532933333333, "is_reserved": 0, "fusion_lat": 0.0, "bike_id": "fcdd7d1f09afff7929a7e9ea9c506ddb", "type": "electric_scooter", "is_disabled": 0, "fusion_lon": 0.0}, {"rental_uris": {"android": "https://dc.lft.to/lastmile_qr_scan", "ios": "https://dc.lft.to/lastmile_qr_scan"}, "lon": -77.03662783333333, "name": "e766fe03302742f3cdc59afe145957ed", "lat": 38.92093533333333, "is_reserved": 0, "fusion_lat": 0.0, "bike_id": "e766fe03302742f3cdc59afe145957ed", "type": "electric_scooter", "is_disabled": 0, "fusion_lon": 0.0}, {"rental_uris": {"android": "https://dc.lft.to/lastmile_qr_scan", "ios": "https://dc.lft.to/lastmile_qr_scan"}, "lon": -77.02979983333333, "name": "f6df74f77a3436d87e9032c2cef8907e", "lat": 38.907271333333334, "is_reserved": 0, "fusion_lat": 0.0, "bike_id": "f6df74f77a3436d87e9032c2cef8907e", "type": "electric_scooter", "is_disabled": 0, "fusion_lon": 0.0}, {"rental_uris": {"android": "https://dc.lft.to/lastmile_qr_scan", "ios": "https://dc.lft.to/lastmile_qr_scan"}, "lon": -77.03494883333333, "name": "f9591838bdcd0494651bf04872aa1195", "lat": 38.921499833333336, "is_reserved": 0, "fusion_lat": 0.0, "bike_id": "f9591838bdcd0494651bf04872aa1195", "type": "electric_scooter", "is_disabled": 0, "fusion_lon": 0.0}, {"rental_uris": {"android": "https://dc.lft.to/lastmile_qr_scan", "ios": "https://dc.lft.to/lastmile_qr_scan"}, "lon": -77.0247225, "name": "a0cd72514aefd4091016eb26822082b8", "lat": 38.92074133333333, "is_reserved": 0, "fusion_lat": 0.0, "bike_id": "a0cd72514aefd4091016eb26822082b8", "type": "electric_scooter", "is_disabled": 0, "fusion_lon": 0.0}, {"rental_uris": {"android": "https://dc.lft.to/lastmile_qr_scan", "ios": "https://dc.lft.to/lastmile_qr_scan"}, "lon": -76.9963255, "name": "9b64bfa10d72e9c56bb9ae75965f4911", "lat": 38.905339833333336, "is_reserved": 0, "fusion_lat": 0.0, "bike_id": "9b64bfa10d72e9c56bb9ae75965f4911", "type": "electric_scooter", "is_disabled": 0, "fusion_lon": 0.0}, {"rental_uris": {"android": "https://dc.lft.to/lastmile_qr_scan", "ios": "https://dc.lft.to/lastmile_qr_scan"}, "lon": -77.027397, "name": "b4ad7ff0649e1e5c5b0f9b4627bdb519", "lat": 38.927714, "is_reserved": 0, "fusion_lat": 0.0, "bike_id": "b4ad7ff0649e1e5c5b0f9b4627bdb519", "type": "electric_scooter", "is_disabled": 0, "fusion_lon": 0.0}, {"rental_uris": {"android": "https://dc.lft.to/lastmile_qr_scan", "ios": "https://dc.lft.to/lastmile_qr_scan"}, "lon": -77.0357795, "name": "3334af3d50b3bf4d0816412eb67bde7c", "lat": 38.90153883333333, "is_reserved": 0, "fusion_lat": 0.0, "bike_id": "3334af3d50b3bf4d0816412eb67bde7c", "type": "electric_scooter", "is_disabled": 0, "fusion_lon": 0.0}, {"rental_uris": {"android": "https://dc.lft.to/lastmile_qr_scan", "ios": "https://dc.lft.to/lastmile_qr_scan"}, "lon": -77.02203966666667, "name": "7394e4cf5e86e09513531d94281c8952", "lat": 38.90022783333333, "is_reserved": 0, "fusion_lat": 0.0, "bike_id": "7394e4cf5e86e09513531d94281c8952", "type": "electric_scooter", "is_disabled": 0, "fusion_lon": 0.0}, {"rental_uris": {"android": "https://dc.lft.to/lastmile_qr_scan", "ios": "https://dc.lft.to/lastmile_qr_scan"}, "lon": -77.03520716666667, "name": "1f7c4d2b2bfe4324d1984a0185c3d24f", "lat": 38.922608333333336, "is_reserved": 0, "fusion_lat": 0.0, "bike_id": "1f7c4d2b2bfe4324d1984a0185c3d24f", "type": "electric_scooter", "is_disabled": 0, "fusion_lon": 0.0}, {"rental_uris": {"android": "https://dc.lft.to/lastmile_qr_scan", "ios": "https://dc.lft.to/lastmile_qr_scan"}, "lon": -76.93338316666667, "name": "a889865dc12604eaada1f7e15676ccb1", "lat": 38.90868583333334, "is_reserved": 0, "fusion_lat": 0.0, "bike_id": "a889865dc12604eaada1f7e15676ccb1", "type": "electric_scooter", "is_disabled": 0, "fusion_lon": 0.0}, {"rental_uris": {"android": "https://dc.lft.to/lastmile_qr_scan", "ios": "https://dc.lft.to/lastmile_qr_scan"}, "lon": -77.03675166666666, "name": "a6fd8cf6d36d64972657eb5b4d053fe6", "lat": 38.936521666666664, "is_reserved": 0, "fusion_lat": 0.0, "bike_id": "a6fd8cf6d36d64972657eb5b4d053fe6", "type": "electric_bike", "is_disabled": 0, "fusion_lon": 0.0}, {"rental_uris": {"android": "https://dc.lft.to/lastmile_qr_scan", "ios": "https://dc.lft.to/lastmile_qr_scan"}, "lon": -77.033832, "name": "db87d30bc9ab1e1e3bdbcc0259c82704", "lat": 38.90400833333333, "is_reserved": 0, "fusion_lat": 0.0, "bike_id": "db87d30bc9ab1e1e3bdbcc0259c82704", "type": "electric_scooter", "is_disabled": 0, "fusion_lon": 0.0}, {"rental_uris": {"android": "https://dc.lft.to/lastmile_qr_scan", "ios": "https://dc.lft.to/lastmile_qr_scan"}, "lon": -77.03064716666667, "name": "f166f850b0714038949b84a22572e1c8", "lat": 38.92252033333333, "is_reserved": 0, "fusion_lat": 0.0, "bike_id": "f166f850b0714038949b84a22572e1c8", "type": "electric_scooter", "is_disabled": 0, "fusion_lon": 0.0}, {"rental_uris": {"android": "https://dc.lft.to/lastmile_qr_scan", "ios": "https://dc.lft.to/lastmile_qr_scan"}, "lon": -77.02386666666666, "name": "c8975c972231ecedca4ab0d39e7a6b33", "lat": 38.92658633333333, "is_reserved": 0, "fusion_lat": 0.0, "bike_id": "c8975c972231ecedca4ab0d39e7a6b33", "type": "electric_scooter", "is_disabled": 0, "fusion_lon": 0.0}, {"rental_uris": {"android": "https://dc.lft.to/lastmile_qr_scan", "ios": "https://dc.lft.to/lastmile_qr_scan"}, "lon": -77.02296233333334, "name": "d0afc868acc0903236a643ef93636176", "lat": 38.9143925, "is_reserved": 0, "fusion_lat": 0.0, "bike_id": "d0afc868acc0903236a643ef93636176", "type": "electric_scooter", "is_disabled": 0, "fusion_lon": 0.0}, {"rental_uris": {"android": "https://dc.lft.to/lastmile_qr_scan", "ios": "https://dc.lft.to/lastmile_qr_scan"}, "lon": -77.01302366666667, "name": "8d6ecebf806660109180f4087cf11439", "lat": 38.901871666666665, "is_reserved": 0, "fusion_lat": 0.0, "bike_id": "8d6ecebf806660109180f4087cf11439", "type": "electric_scooter", "is_disabled": 0, "fusion_lon": 0.0}, {"rental_uris": {"android": "https://dc.lft.to/lastmile_qr_scan", "ios": "https://dc.lft.to/lastmile_qr_scan"}, "lon": -77.0459835, "name": "64bc065ae0cbb53a4373082f8cb00d3a", "lat": 38.914615833333336, "is_reserved": 0, "fusion_lat": 0.0, "bike_id": "64bc065ae0cbb53a4373082f8cb00d3a", "type": "electric_bike", "is_disabled": 0, "fusion_lon": 0.0}, {"rental_uris": {"android": "https://dc.lft.to/lastmile_qr_scan", "ios": "https://dc.lft.to/lastmile_qr_scan"}, "lon": -77.049969, "name": "167519fa9b01f1806fa27f4a15face0d", "lat": 38.8990715, "is_reserved": 0, "fusion_lat": 0.0, "bike_id": "167519fa9b01f1806fa27f4a15face0d", "type": "electric_scooter", "is_disabled": 0, "fusion_lon": 0.0}, {"rental_uris": {"android": "https://dc.lft.to/lastmile_qr_scan", "ios": "https://dc.lft.to/lastmile_qr_scan"}, "lon": -77.04118133333333, "name": "5b43677a3a5974854f76b051ce33ce48", "lat": 38.92527116666667, "is_reserved": 0, "fusion_lat": 0.0, "bike_id": "5b43677a3a5974854f76b051ce33ce48", "type": "electric_scooter", "is_disabled": 0, "fusion_lon": 0.0}, {"rental_uris": {"android": "https://dc.lft.to/lastmile_qr_scan", "ios": "https://dc.lft.to/lastmile_qr_scan"}, "lon": -77.02415133333334, "name": "95aac2216e9e054bcc0a3833f3152642", "lat": 38.89223033333333, "is_reserved": 0, "fusion_lat": 0.0, "bike_id": "95aac2216e9e054bcc0a3833f3152642", "type": "electric_scooter", "is_disabled": 0, "fusion_lon": 0.0}, {"rental_uris": {"android": "https://dc.lft.to/lastmile_qr_scan", "ios": "https://dc.lft.to/lastmile_qr_scan"}, "lon": -77.02587283333334, "name": "6240b2a718b37e93c0fdbbc07467fbea", "lat": 38.94313433333333, "is_reserved": 0, "fusion_lat": 0.0, "bike_id": "6240b2a718b37e93c0fdbbc07467fbea", "type": "electric_scooter", "is_disabled": 0, "fusion_lon": 0.0}, {"rental_uris": {"android": "https://dc.lft.to/lastmile_qr_scan", "ios": "https://dc.lft.to/lastmile_qr_scan"}, "lon": -77.03872816666667, "name": "c68fcff485da66315bb8d66aa723e122", "lat": 38.901238, "is_reserved": 0, "fusion_lat": 0.0, "bike_id": "c68fcff485da66315bb8d66aa723e122", "type": "electric_scooter", "is_disabled": 0, "fusion_lon": 0.0}, {"rental_uris": {"android": "https://dc.lft.to/lastmile_qr_scan", "ios": "https://dc.lft.to/lastmile_qr_scan"}, "lon": -76.93125966666666, "name": "6f5e667456d27acb0dbbbc2ec86268a2", "lat": 38.89823533333333, "is_reserved": 0, "fusion_lat": 0.0, "bike_id": "6f5e667456d27acb0dbbbc2ec86268a2", "type": "electric_scooter", "is_disabled": 0, "fusion_lon": 0.0},