{"data": {"bikes": [{"fusion_lon": 0.0, "name": "54044949d7332b328f945094a6a0dc77", "rental_uris": {"android": "https://dc.lft.to/lastmile_qr_scan", "ios": "https://dc.lft.to/lastmile_qr_scan"}, "lat": 38.87656716666667, "bike_id": "54044949d7332b328f945094a6a0dc77", "is_disabled": 0, "lon": -77.00388466666666, "is_reserved": 0, "fusion_lat": 0.0, "type": "electric_scooter"}, {"fusion_lon": 0.0, "name": "812420216b45f6774912d19b24763a5d", "rental_uris": {"android": "https://dc.lft.to/lastmile_qr_scan", "ios": "https://dc.lft.to/lastmile_qr_scan"}, "lat": 38.9064025, "bike_id": "812420216b45f6774912d19b24763a5d", "is_disabled": 0, "lon": -77.01431016666666, "is_reserved": 0, "fusion_lat": 0.0, "type": "electric_scooter"}, {"fusion_lon": 0.0, "name": "32bc85c9eea8a5e01b274308d10b456e", "rental_uris": {"android": "https://dc.lft.to/lastmile_qr_scan", "ios": "https://dc.lft.to/lastmile_qr_scan"}, "lat": 38.9152135, "bike_id": "32bc85c9eea8a5e01b274308d10b456e", "is_disabled": 0, "lon": -77.02200783333333, "is_reserved": 0, "fusion_lat": 0.0, "type": "electric_scooter"}, {"fusion_lon": 0.0, "name": "f717313d3094d2cbc1630c6f3ba80fd4", "rental_uris": {"android": "https://dc.lft.to/lastmile_qr_scan", "ios": "https://dc.lft.to/lastmile_qr_scan"}, "lat": 38.90260683333333, "bike_id": "f717313d3094d2cbc1630c6f3ba80fd4", "is_disabled": 0, "lon": -77.03071383333334, "is_reserved": 0, "fusion_lat": 0.0, "type": "electric_scooter"}, {"fusion_lon": 0.0, "name": "3c180bd17ab808dab31c5387dd22953b", "rental_uris": {"android": "https://dc.lft.to/lastmile_qr_scan", "ios": "https://dc.lft.to/lastmile_qr_scan"}, "lat": 38.892330666666666, "bike_id": "3c180bd17ab808dab31c5387dd22953b", "is_disabled": 0, "lon": -77.0487685, "is_reserved": 0, "fusion_lat": 0.0, "type": "electric_scooter"}, {"fusion_lon": 0.0, "name": "c121a6bca83ed8603cbda99eace83ef5", "rental_uris": {"android": "https://dc.lft.to/lastmile_qr_scan", "ios": "https://dc.lft.to/lastmile_qr_scan"}, "lat": 38.93739866666667, "bike_id": "c121a6bca83ed8603cbda99eace83ef5", "is_disabled": 0, "lon": -77.03263466666667, "is_reserved": 0, "fusion_lat": 0.0, "type": "electric_scooter"}, {"fusion_lon": 0.0, "name": "a3229b32154cfb40aa0f9341a72f1e65", "rental_uris": {"android": "https://dc.lft.to/lastmile_qr_scan", "ios": "https://dc.lft.to/lastmile_qr_scan"}, "lat": 38.901901333333335, "bike_id": "a3229b32154cfb40aa0f9341a72f1e65", "is_disabled": 0, "lon": -77.0365515, "is_reserved": 0, "fusion_lat": 0.0, "type": "electric_scooter"}, {"fusion_lon": 0.0, "name": "38809299128c8036f6432cc042f7280d", "rental_uris": {"android": "https://dc.lft.to/lastmile_qr_scan", "ios": "https://dc.lft.to/lastmile_qr_scan"}, "lat": 38.89219633333333, "bike_id": "38809299128c8036f6432cc042f7280d", "is_disabled": 0, "lon": -77.01375766666666, "is_reserved": 0, "fusion_lat": 0.0, "type": "electric_scooter"}, {"fusion_lon": 0.0, "name": "3ce6e72141246c8a1f1f130c8ce646c9", "rental_uris": {"android": "https://dc.lft.to/lastmile_qr_scan", "ios": "https://dc.lft.to/lastmile_qr_scan"}, "lat": 38.93693916666667, "bike_id": "3ce6e72141246c8a1f1f130c8ce646c9", "is_disabled": 0, "lon": -77.02717283333334, "is_reserved": 0, "fusion_lat": 0.0, "type": "electric_scooter"}, {"fusion_lon": 0.0, "name": "47fdae42a6531ccd57473eb77afc12c4", "rental_uris": {"android": "https://dc.lft.to/lastmile_qr_scan", "ios": "https://dc.lft.to/lastmile_qr_scan"}, "lat": 38.8935355, "bike_id": "47fdae42a6531ccd57473eb77afc12c4", "is_disabled": 0, "lon": -77.00333183333333, "is_reserved": 0, "fusion_lat": 0.0, "type": "electric_scooter"}, {"fusion_lon": 0.0, "name": "462e4016c21f7d674dacd3c5de43ecfb", "rental_uris": {"android": "https://dc.lft.to/lastmile_qr_scan", "ios": "https://dc.lft.to/lastmile_qr_scan"}, "lat": 38.93201233333333, "bike_id": "462e4016c21f7d674dacd3c5de43ecfb", "is_disabled": 0, "lon": -77.03280533333333, "is_reserved": 0, "fusion_lat": 0.0, "type": "electric_scooter"}, {"fusion_lon": 0.0, "name": "26a56d4f34006244a7a22d14b5d03372", "rental_uris": {"android": "https://dc.lft.to/lastmile_qr_scan", "ios": "https://dc.lft.to/lastmile_qr_scan"}, "lat": 38.88585066666667, "bike_id": "26a56d4f34006244a7a22d14b5d03372", "is_disabled": 0, "lon": -76.9915105, "is_reserved": 0, "fusion_lat": 0.0, "type": "electric_bike"}, {"fusion_lon": 0.0, "name": "62787de0e1e405663abde3b83eb636f2", "rental_uris": {"android": "https://dc.lft.to/lastmile_qr_scan", "ios": "https://dc.lft.to/lastmile_qr_scan"}, "lat": 38.8872165, "bike_id": "62787de0e1e405663abde3b83eb636f2", "is_disabled": 0, "lon": -76.99678466666667, "is_reserved": 0, "fusion_lat": 0.0, "type": "electric_scooter"}, {"fusion_lon": 0.0, "name": "beea5634beac96a057b3661f8b5ce355", "rental_uris": {"android": "https://dc.lft.to/lastmile_qr_scan", "ios": "https://dc.lft.to/lastmile_qr_scan"}, "lat": 38.907255, "bike_id": "beea5634beac96a057b3661f8b5ce355", "is_disabled": 0, "lon": -77.031808, "is_reserved": 0, "fusion_lat": 0.0, "type": "electric_scooter"}, {"fusion_lon": 0.0, "name": "84c339f93409d67c774d5073d016c9d1", "rental_uris": {"android": "https://dc.lft.to/lastmile_qr_scan", "ios": "https://dc.lft.to/lastmile_qr_scan"}, "lat": 38.92146783333333, "bike_id": "84c339f93409d67c774d5073d016c9d1", "is_disabled": 0, "lon": -77.0352165, "is_reserved": 0, "fusion_lat": 0.0, "type": "electric_scooter"}, {"fusion_lon": 0.0, "name": "cfa70362833fa637d4e1f1982383d4ff", "rental_uris": {"android": "https://dc.lft.to/lastmile_qr_scan", "ios": "https://dc.lft.to/lastmile_qr_scan"}, "lat": 39.0253845, "bike_id": "cfa70362833fa637d4e1f1982383d4ff", "is_disabled": 0, "lon": -77.04449183333334, "is_reserved": 0, "fusion_lat": 0.0, "type": "electric_bike"}, {"fusion_lon": 0.0, "name": "7047b9585b486a79931bc087ffdd69e7", "rental_uris": {"android": "https://dc.lft.to/lastmile_qr_scan", "ios": "https://dc.lft.to/lastmile_qr_scan"}, "lat": 38.87854433333333, "bike_id": "7047b9585b486a79931bc087ffdd69e7", "is_disabled": 0, "lon": -77.01972516666666, "is_reserved": 0, "fusion_lat": 0.0, "type": "electric_scooter"}, {"fusion_lon": 0.0, "name": "6ba157c84684c590430df3a721720f69", "rental_uris": {"android": "https://dc.lft.to/lastmile_qr_scan", "ios": "https://dc.lft.to/lastmile_qr_scan"}, "lat": 38.86340383333334, "bike_id": "6ba157c84684c590430df3a721720f69", "is_disabled": 0, "lon": -76.98705266666667, "is_reserved": 0, "fusion_lat": 0.0, "type": "electric_scooter"}, {"fusion_lon": 0.0, "name": "f97bb2d90798b4cfd4ebd7d45ecbfcc2", "rental_uris": {"android": "https://dc.lft.to/lastmile_qr_scan", "ios": "https://dc.lft.to/lastmile_qr_scan"}, "lat": 38.89823916666667, "bike_id": "f97bb2d90798b4cfd4ebd7d45ecbfcc2", "is_disabled": 0, "lon": -76.93011766666666, "is_reserved": 0, "fusion_lat": 0.0, "type": "electric_scooter"}, {"fusion_lon": 0.0, "name": "7e5eeeb2c800b85f43399d4a80e337bc", "rental_uris": {"android": "https://dc.lft.to/lastmile_qr_scan", "ios": "https://dc.lft.to/lastmile_qr_scan"}, "lat": 38.892197, "bike_id": "7e5eeeb2c800b85f43399d4a80e337bc", "is_disabled": 0, "lon": -77.0139885, "is_reserved": 0, "fusion_lat": 0.0, "type": "electric_scooter"}, {"fusion_lon": 0.0, "name": "916ebad62a820844dc096537f6abe334", "rental_uris": {"android": "https://dc.lft.to/lastmile_qr_scan", "ios": "https://dc.lft.to/lastmile_qr_scan"}, "lat": 38.882098166666665, "bike_id": "916ebad62a820844dc096537f6abe334", "is_disabled": 0, "lon": -76.98921333333334, "is_reserved": 0, "fusion_lat": 0.0, "type": "electric_scooter"}, {"fusion_lon": 0.0, "name": "da5b919b54b93f7d2057d48977f65ab5", "rental_uris": {"android": "https://dc.lft.to/lastmile_qr_scan", "ios": "https://dc.lft.to/lastmile_qr_scan"}, "lat": 38.83575533333333, "bike_id": "da5b919b54b93f7d2057d48977f65ab5", "is_disabled": 0, "lon": -76.9901655, "is_reserved": 0, "fusion_lat": 0.0, "type": "electric_bike"}, {"fusion_lon": 0.0, "name": "16014a4e4f5732d0d4c89264649fc516", "rental_uris": {"android": "https://dc.lft.to/lastmile_qr_scan", "ios": "https://dc.lft.to/lastmile_qr_scan"}, "lat": 38.9246975, "bike_id": "16014a4e4f5732d0d4c89264649fc516", "is_disabled": 0, "lon": -77.022225, "is_reserved": 0, "fusion_lat": 0.0, "type": "electric_scooter"}, {"fusion_lon": 0.0, "name": "541cdc31f554ad0b3aaf23e31d7236d7", "rental_uris": {"android": "https://dc.lft.to/lastmile_qr_scan", "ios": "https://dc.lft.to/lastmile_qr_scan"}, "lat": 38.907323, "bike_id": "541cdc31f554ad0b3aaf23e31d7236d7", "is_disabled": 0, "lon": -77.04340483333333, "is_reserved": 0, "fusion_lat": 0.0, "type": "electric_scooter"}, {"fusion_lon": 0.0, "name": "b74d1a9a7324c2b936230eccd7bb9b6c", "rental_uris": {"android": "https://dc.lft.to/lastmile_qr_scan", "ios": "https://dc.lft.to/lastmile_qr_scan"}, "lat": 38.903835666666666, "bike_id": "b74d1a9a7324c2b936230eccd7bb9b6c", "is_disabled": 0, "lon": -77.04763016666666, "is_reserved": 0, "fusion_lat": 0.0, "type": "electric_scooter"}, {"fusion_lon": 0.0, "name": "214fd2391b3bebba049e822e82d5f00a", "rental_uris": {"android": "https://dc.lft.to/lastmile_qr_scan", "ios": "https://dc.lft.to/lastmile_qr_scan"}, "lat": 38.862191833333334, "bike_id": "214fd2391b3bebba049e822e82d5f00a", "is_disabled": 0, "lon": -76.994641, "is_reserved": 0, "fusion_lat": 0.0, "type": "electric_scooter"}, {"fusion_lon": 0.0, "name": "2045e83ef5d6ac5baf442127b1ee7b45", "rental_uris": {"android": "https://dc.lft.to/lastmile_qr_scan", "ios": "https://dc.lft.to/lastmile_qr_scan"}, "lat": 38.892197, "bike_id": "2045e83ef5d6ac5baf442127b1ee7b45", "is_disabled": 0, "lon": -77.025613, "is_reserved": 0, "fusion_lat": 0.0, "type": "electric_scooter"}, {"fusion_lon": 0.0, "name": "36f1fbc610efbe6f7e928d7223f15a43", "rental_uris": {"android": "https://dc.lft.to/lastmile_qr_scan", "ios": "https://dc.lft.to/lastmile_qr_scan"}, "lat": 38.899697, "bike_id": "36f1fbc610efbe6f7e928d7223f15a43", "is_disabled": 0, "lon": -77.0260055, "is_reserved": 0, "fusion_lat": 0.0, "type": "electric_scooter"}, {"fusion_lon": 0.0, "name": "1438255621ddc4bb6b5048bad66967e3", "rental_uris": {"android": "https://dc.lft.to/lastmile_qr_scan", "ios": "https://dc.lft.to/lastmile_qr_scan"}, "lat": 38.893282, "bike_id": "1438255621ddc4bb6b5048bad66967e3", "is_disabled": 0, "lon": -77.0486935, "is_reserved": 0, "fusion_lat": 0.0, "type": "electric_scooter"}, {"fusion_lon": 0.0, "name": "15a78dd16361c89e56202ae6060a35cc", "rental_uris": {"android": "https://dc.lft.to/lastmile_qr_scan", "ios": "https://dc.lft.to/lastmile_qr_scan"}, "lat": 38.934736, "bike_id": "15a78dd16361c89e56202ae6060a35cc", "is_disabled": 0, "lon": -77.08660683333333, "is_reserved": 0, "fusion_lat": 0.0, "type": "electric_scooter"}, {"fusion_lon": 0.0, "name": "35220b9d30df0d700a7a826a96997792", "rental_uris": {"android": "https://dc.lft.to/lastmile_qr_scan", "ios": "https://dc.lft.to/lastmile_qr_scan"}, "lat": 38.91986283333333, "bike_id": "35220b9d30df0d700a7a826a96997792", "is_disabled": 0, "lon": -77.018009, "is_reserved": 0, "fusion_lat": 0.0, "type": "electric_scooter"}, {"fusion_lon": 0.0, "name": "d984354296625cfbc70c95df7ec5a84d", "rental_uris": {"android": "https://dc.lft.to/lastmile_qr_scan", "ios": "https://dc.lft.to/lastmile_qr_scan"}, "lat": 38.805627, "bike_id": "d984354296625cfbc70c95df7ec5a84d", "is_disabled": 0, "lon": -77.13231433333333, "is_reserved": 0, "fusion_lat": 0.0, "type": "electric_bike"}, {"fusion_lon": 0.0, "name": "a7f98af8c117a67bac6c8244f490972b", "rental_uris": {"android": "https://dc.lft.to/lastmile_qr_scan", "ios": "https://dc.lft.to/lastmile_qr_scan"}, "lat": 38.87667583333333, "bike_id": "a7f98af8c117a67bac6c8244f490972b", "is_disabled": 0, "lon": -76.99610033333333, "is_reserved": 0, "fusion_lat": 0.0, "type": "electric_scooter"}, {"fusion_lon": 0.0, "name": "75b9fea400318602911af749a936621c", "rental_uris": {"android": "https://dc.lft.to/lastmile_qr_scan", "ios": "https://dc.lft.to/lastmile_qr_scan"}, "lat": 38.916907333333334, "bike_id": "75b9fea400318602911af749a936621c", "is_disabled": 0, "lon": -77.02605666666666, "is_reserved": 0, "fusion_lat": 0.0, "type": "electric_scooter"}, {"fusion_lon": 0.0, "name": "8d32619c613ce06f04fd4a4028f111ee", "rental_uris": {"android": "https://dc.lft.to/lastmile_qr_scan", "ios": "https://dc.lft.to/lastmile_qr_scan"}, "lat": 38.88066766666667, "bike_id": "8d32619c613ce06f04fd4a4028f111ee", "is_disabled": 0, "lon": -77.0255355, "is_reserved": 0, "fusion_lat": 0.0, "type": "electric_scooter"}, {"fusion_lon": 0.0, "name": "3b472cb7342c68035ff1437a0efa5961", "rental_uris": {"android": "https://dc.lft.to/lastmile_qr_scan", "ios": "https://dc.lft.to/lastmile_qr_scan"}, "lat": 38.8954455, "bike_id": "3b472cb7342c68035ff1437a0efa5961", "is_disabled": 0, "lon": -76.98337933333333, "is_reserved": 0, "fusion_lat": 0.0, "type": "electric_scooter"}, {"fusion_lon": 0.0, "name": "91962ae51c965c3b34b631448a0207c6", "rental_uris": {"android": "https://dc.lft.to/lastmile_qr_scan", "ios": "https://dc.lft.to/lastmile_qr_scan"}, "lat": 38.916973666666664, "bike_id": "91962ae51c965c3b34b631448a0207c6", "is_disabled": 0, "lon": -77.03135733333333, "is_reserved": 0, "fusion_lat": 0.0, "type": "electric_scooter"}, {"fusion_lon": 0.0, "name": "fcfc42ece60e671c85d5159b3b166ff2", "rental_uris": {"android": "https://dc.lft.to/lastmile_qr_scan", "ios": "https://dc.lft.to/lastmile_qr_scan"}, "lat": 38.90288266666667, "bike_id": "fcfc42ece60e671c85d5159b3b166ff2", "is_disabled": 0, "lon": -77.03365133333334, "is_reserved": 0, "fusion_lat": 0.0, "type": "electric_scooter"}, {"fusion_lon": 0.0, "name": "aa31ee9af5e838c88bf061d1c7a7ddf2", "rental_uris": {"android": "https://dc.lft.to/lastmile_qr_scan", "ios": "https://dc.lft.to/lastmile_qr_scan"}, "lat": 38.89720583333333, "bike_id": "aa31ee9af5e838c88bf061d1c7a7ddf2", "is_disabled": 0, "lon": -77.02134066666666, "is_reserved": 0, "fusion_lat": 0.0, "type": "electric_scooter"}, {"fusion_lon": 0.0, "name": "121b203c51bf1d0377443a7f6c4da616", "rental_uris": {"android": "https://dc.lft.to/lastmile_qr_scan", "ios": "https://dc.lft.to/lastmile_qr_scan"}, "lat": 38.90263933333333, "bike_id": "121b203c51bf1d0377443a7f6c4da616", "is_disabled": 0, "lon": -77.03038616666667, "is_reserved": 0, "fusion_lat": 0.0, "type": "electric_scooter"}, {"fusion_lon": 0.0, "name": "0a521482d8bd977594ffc4ce04d8811f", "rental_uris": {"android": "https://dc.lft.to/lastmile_qr_scan", "ios": "https://dc.lft.to/lastmile_qr_scan"}, "lat": 38.916153333333334, "bike_id": "0a521482d8bd977594ffc4ce04d8811f", "is_disabled": 0, "lon": -77.04867333333333, "is_reserved": 0, "fusion_lat": 0.0, "type": "electric_scooter"}, {"fusion_lon": 0.0, "name": "1d39c6ebaba2984ae7008c0244c214c8", "rental_uris": {"android": "https://dc.lft.to/lastmile_qr_scan", "ios": "https://dc.lft.to/lastmile_qr_scan"}, "lat": 38.924368333333334, "bike_id": "1d39c6ebaba2984ae7008c0244c214c8", "is_disabled": 0, "lon": -77.0224285, "is_reserved": 0, "fusion_lat": 0.0, "type": "electric_scooter"}, {"fusion_lon": 0.0, "name": "65666d4ada33adc0d83cd62e8ab33903", "rental_uris": {"android": "https://dc.lft.to/lastmile_qr_scan", "ios": "https://dc.lft.to/lastmile_qr_scan"}, "lat": 38.89125583333333, "bike_id": "65666d4ada33adc0d83cd62e8ab33903", "is_disabled": 0, "lon": -76.94055833333333, "is_reserved": 0, "fusion_lat": 0.0, "type": "electric_bike"}, {"fusion_lon": 0.0, "name": "2bf67cb20ca27bf600b0c43ce1ac01f8", "rental_uris": {"android": "https://dc.lft.to/lastmile_qr_scan", "ios": "https://dc.lft.to/lastmile_qr_scan"}, "lat": 38.90568966666667, "bike_id": "2bf67cb20ca27bf600b0c43ce1ac01f8", "is_disabled": 0, "lon": -77.0059535, "is_reserved": 0, "fusion_lat": 0.0, "type": "electric_scooter"}, {"fusion_lon": 0.0, "name": "81db6b8289bf19a3fc6b39b39c26b17a", "rental_uris": {"android": "https://dc.lft.to/lastmile_qr_scan", "ios": "https://dc.lft.to/lastmile_qr_scan"}, "lat": 38.91713016666667, "bike_id": "81db6b8289bf19a3fc6b39b39c26b17a", "is_disabled": 0, "lon": -77.025868, "is_reserved": 0, "fusion_lat": 0.0, "type": "electric_scooter"}, {"fusion_lon": 0.0, "name": "c7aa844d4c6f8b5e04b13021fc5eee51", "rental_uris": {"android": "https://dc.lft.to/lastmile_qr_scan", "ios": "https://dc.lft.to/lastmile_qr_scan"}, "lat": 38.91357166666667, "bike_id": "c7aa844d4c6f8b5e04b13021fc5eee51", "is_disabled": 0, "lon": -77.03355166666667, "is_reserved": 0, "fusion_lat": 0.0, "type": "electric_scooter"}, {"fusion_lon": 0.0, "name": "eda880e411234cbe00a9e770ce400c70", "rental_uris": {"android": "https://dc.lft.to/lastmile_qr_scan", "ios": "https://dc.lft.to/lastmile_qr_scan"}, "lat": 38.90664916666667, "bike_id": "eda880e411234cbe00a9e770ce400c70", "is_disabled": 0, "lon": -77.04279916666667, "is_reserved": 0, "fusion_lat": 0.0, "type": "electric_scooter"}, {"fusion_lon": 0.0, "name": "eb9566213664c9cce42c0ff65713ed6d", "rental_uris": {"android": "https://dc.lft.to/lastmile_qr_scan", "ios": "https://dc.lft.to/lastmile_qr_scan"}, "lat": 38.893581166666664, "bike_id": "eb9566213664c9cce42c0ff65713ed6d", "is_disabled": 0, "lon": -77.01513316666667, "is_reserved": 0, "fusion_lat": 0.0, "type": "electric_scooter"}, {"fusion_lon": 0.0, "name": "3d2cd144622df899a644a5b9c1dadb93", "rental_uris": {"android": "https://dc.lft.to/lastmile_qr_scan", "ios": "https://dc.lft.to/lastmile_qr_scan"}, "lat": 38.92464066666667, "bike_id": "3d2cd144622df899a644a5b9c1dadb93", "is_disabled": 0, "lon": -77.03831133333334, "is_reserved": 0, "fusion_lat": 0.0, "type": "electric_scooter"}, {"fusion_lon": 0.0, "name": "9d3cec45c39a0598f2fd2bff7ec365ec", "rental_uris": {"android": "https://dc.lft.to/lastmile_qr_scan", "ios": "https://dc.lft.to/lastmile_qr_scan"}, "lat": 38.908761, "bike_id": "9d3cec45c39a0598f2fd2bff7ec365ec", "is_disabled": 0, "lon": -77.03188233333333, "is_reserved": 0, "fusion_lat": 0.0, "type": "electric_scooter"}, {"fusion_lon": 0.0, "name": "5386d9c10ad9ef4a3dc8124f03497a58", "rental_uris": {"android": "https://dc.lft.to/lastmile_qr_scan", "ios": "https://dc.lft.to/lastmile_qr_scan"}, "lat": 38.904669166666665, "bike_id": "5386d9c10ad9ef4a3dc8124f03497a58", "is_disabled": 0, "lon": -77.03587116666667, "is_reserved": 0, "fusion_lat": 0.0, "type": "electric_scooter"}, {"fusion_lon": 0.0, "name": "b640d3199077f22fa30e3f414a8ede64", "rental_uris": {"android": "https://dc.lft.to/lastmile_qr_scan", "ios": "https://dc.lft.to/lastmile_qr_scan"}, "lat": 38.91561333333333, "bike_id": "b640d3199077f22fa30e3f414a8ede64", "is_disabled": 0, "lon": -77.00681266666666, "is_reserved": 0, "fusion_lat": 0.0, "type": "electric_scooter"}, {"fusion_lon": 0.0, "name": "b3a1e559353c548e00f9d4023b39f42b", "rental_uris": {"android": "https://dc.lft.to/lastmile_qr_scan", "ios": "https://dc.lft.to/lastmile_qr_scan"}, "lat": 38.89839166666667, "bike_id": "b3a1e559353c548e00f9d4023b39f42b", "is_disabled": 0, "lon": -77.03201066666666, "is_reserved": 0, "fusion_lat": 0.0, "type": "electric_scooter"}, {"fusion_lon": 0.0, "name": "9ded41f7010f1edec8010b44d3a99df2", "rental_uris": {"android": "https://dc.lft.to/lastmile_qr_scan", "ios": "https://dc.lft.to/lastmile_qr_scan"}, "lat": 38.894701166666664, "bike_id": "9ded41f7010f1edec8010b44d3a99df2", "is_disabled": 0, "lon": -77.021985, "is_reserved": 0, "fusion_lat": 0.0, "type": "electric_scooter"}, {"fusion_lon": 0.0, "name": "061718b81a4a124b8ac7f91cd7890b22", "rental_uris": {"android": "https://dc.lft.to/lastmile_qr_scan", "ios": "https://dc.lft.to/lastmile_qr_scan"}, "lat": 38.92332233333333, "bike_id": "061718b81a4a124b8ac7f91cd7890b22", "is_disabled": 0, "lon": -77.0567895, "is_reserved": 0, "fusion_lat": 0.0, "type": "electric_scooter"}, {"fusion_lon": 0.0, "name": "d16682f4ff1b9c387f5a41aada153802", "rental_uris": {"android": "https://dc.lft.to/lastmile_qr_scan", "ios": "https://dc.lft.to/lastmile_qr_scan"}, "lat": 38.905728, "bike_id": "d16682f4ff1b9c387f5a41aada153802", "is_disabled": 0, "lon": -77.040208, "is_reserved": 0, "fusion_lat": 0.0, "type": "electric_scooter"}, {"fusion_lon": 0.0, "name": "f150a6eb6cc6e54967ffc433b252d6ee", "rental_uris": {"android": "https://dc.lft.to/lastmile_qr_scan", "ios": "https://dc.lft.to/lastmile_qr_scan"}, "lat": 38.9260075, "bike_id": "f150a6eb6cc6e54967ffc433b252d6ee", "is_disabled": 0, "lon": -77.02155883333333, "is_reserved": 0, "fusion_lat": 0.0, "type": "electric_scooter"}, {"fusion_lon": 0.0, "name": "7c10b212026b4dcfe9e44f678e5d5a4a", "rental_uris": {"android": "https://dc.lft.to/lastmile_qr_scan", "ios": "https://dc.lft.to/lastmile_qr_scan"}, "lat": 38.883677, "bike_id": "7c10b212026b4dcfe9e44f678e5d5a4a", "is_disabled": 0, "lon": -76.9952215, "is_reserved": 0, "fusion_lat": 0.0, "type": "electric_scooter"}, {"fusion_lon": 0.0, "name": "cf568022068689c084dfefabd9f8c74e", "rental_uris": {"android": "https://dc.lft.to/lastmile_qr_scan", "ios": "https://dc.lft.to/lastmile_qr_scan"}, "lat": 38.89770633333333, "bike_id": "cf568022068689c084dfefabd9f8c74e", "is_disabled": 0, "lon": -77.01590216666666, "is_reserved": 0, "fusion_lat": 0.0, "type": "electric_scooter"}, {"fusion_lon": 0.0, "name": "22ceb4d97a093a027eea23ec7c081e5c", "rental_uris": {"android": "https://dc.lft.to/lastmile_qr_scan", "ios": "https://dc.lft.to/lastmile_qr_scan"}, "lat": 38.916728166666665, "bike_id": "22ceb4d97a093a027eea23ec7c081e5c", "is_disabled": 0, "lon": -77.03203716666667, "is_reserved": 0, "fusion_lat": 0.0, "type": "electric_scooter"}, {"fusion_lon": 0.0, "name": "3676efa56071f0269ca4571fa08b102a", "rental_uris": {"android": "https://dc.lft.to/lastmile_qr_scan", "ios": "https://dc.lft.to/lastmile_qr_scan"}, "lat": 38.950349333333335, "bike_id": "3676efa56071f0269ca4571fa08b102a", "is_disabled": 0, "lon": -76.97103133333333, "is_reserved": 0, "fusion_lat": 0.0, "type": "electric_bike"}, {"fusion_lon": 0.0, "name": "415c32a3da387e9f96713e27608158a2", "rental_uris": {"android": "https://dc.lft.to/lastmile_qr_scan", "ios": "https://dc.lft.to/lastmile_qr_scan"}, "lat": 38.9190595, "bike_id": "415c32a3da387e9f96713e27608158a2", "is_disabled": 0, "lon": -77.04104666666667, "is_reserved": 0, "fusion_lat": 0.0, "type": "electric_scooter"}, {"fusion_lon": 0.0, "name": "94584e45a906daafc83fb98b20daea92", "rental_uris": {"android": "https://dc.lft.to/lastmile_qr_scan", "ios": "https://dc.lft.to/lastmile_qr_scan"}, "lat": 38.912667, "bike_id": "94584e45a906daafc83fb98b20daea92", "is_disabled": 0, "lon": -77.02226666666667, "is_reserved": 0, "fusion_lat": 0.0, "type": "electric_scooter"}, {"fusion_lon": 0.0, "name": "710c446c792ffce8ab5c7a7d4c77ab67", "rental_uris": {"android": "https://dc.lft.to/lastmile_qr_scan", "ios": "https://dc.lft.to/lastmile_qr_scan"}, "lat": 38.879601, "bike_id": "710c446c792ffce8ab5c7a7d4c77ab67", "is_disabled": 0, "lon": -77.0242465, "is_reserved": 0, "fusion_lat": 0.0, "type": "electric_scooter"}, {"fusion_lon": 0.0, "name": "d865541c73bfefc4d442c7866a1372b6", "rental_uris": {"android": "https://dc.lft.to/lastmile_qr_scan", "ios": "https://dc.lft.to/lastmile_qr_scan"}, "lat": 38.88593616666667, "bike_id": "d865541c73bfefc4d442c7866a1372b6", "is_disabled": 0, "lon": -77.00581816666667, "is_reserved": 0, "fusion_lat": 0.0, "type": "electric_scooter"}, {"fusion_lon": 0.0, "name": "742ce9b076771f0cb98d7c1d1e925c58", "rental_uris": {"android": "https://dc.lft.to/lastmile_qr_scan", "ios": "https://dc.lft.to/lastmile_qr_scan"}, "lat": 38.896203166666666, "bike_id": "742ce9b076771f0cb98d7c1d1e925c58", "is_disabled": 0, "lon": -76.998515, "is_reserved": 0, "fusion_lat": 0.0, "type": "electric_scooter"}, {"fusion_lon": 0.0, "name": "d8ad25dbf7b82f5696729b68305f15e9", "rental_uris": {"android": "https://dc.lft.to/lastmile_qr_scan", "ios": "https://dc.lft.to/lastmile_qr_scan"}, "lat": 38.89245283333333, "bike_id": "d8ad25dbf7b82f5696729b68305f15e9", "is_disabled": 0, "lon": -77.04661283333333, "is_reserved": 0, "fusion_lat": 0.0, "type": "electric_scooter"}, {"fusion_lon": 0.0, "name": "58602c3c2a2978549bfd6dbc5cbde780", "rental_uris": {"android": "https://dc.lft.to/lastmile_qr_scan", "ios": "https://dc.lft.to/lastmile_qr_scan"}, "lat": 38.892567, "bike_id": "58602c3c2a2978549bfd6dbc5cbde780", "is_disabled": 0, "lon": -77.0021675, "is_reserved": 0, "fusion_lat": 0.0, "type": "electric_scooter"}, {"fusion_lon": 0.0, "name": "96bc76c03d2791a19e5d66921192bf1a", "rental_uris": {"android": "https://dc.lft.to/lastmile_qr_scan", "ios": "https://dc.lft.to/lastmile_qr_scan"}, "lat": 38.92783683333333, "bike_id": "96bc76c03d2791a19e5d66921192bf1a", "is_disabled": 0, "lon": -77.02308066666667, "is_reserved": 0, "fusion_lat": 0.0, "type": "electric_scooter"}, {"fusion_lon": 0.0, "name": "5e9b3298a20c6c3372863df7f8891caa", "rental_uris": {"android": "https://dc.lft.to/lastmile_qr_scan", "ios": "https://dc.lft.to/lastmile_qr_scan"}, "lat": 38.9057515, "bike_id": "5e9b3298a20c6c3372863df7f8891caa", "is_disabled": 0, "lon": -77.04543466666667, "is_reserved": 0, "fusion_lat": 0.0, "type": "electric_scooter"}, {"fusion_lon": 0.0, "name": "b9b62a38f1e458bf05fc0244308b8e83", "rental_uris": {"android": "https://dc.lft.to/lastmile_qr_scan", "ios": "https://dc.lft.to/lastmile_qr_scan"}, "lat": 38.905733166666664, "bike_id": "b9b62a38f1e458bf05fc0244308b8e83", "is_disabled": 0, "lon": -77.03468533333333, "is_reserved": 0, "fusion_lat": 0.0, "type": "electric_scooter"}, {"fusion_lon": 0.0, "name": "b9af9ac9a5208d3e31e90df472f4c1c5", "rental_uris": {"android": "https://dc.lft.to/lastmile_qr_scan", "ios": "https://dc.lft.to/lastmile_qr_scan"}, "lat": 38.86866633333333, "bike_id": "b9af9ac9a5208d3e31e90df472f4c1c5", "is_disabled": 0, "lon": -76.98662833333333, "is_reserved": 0, "fusion_lat": 0.0, "type": "electric_scooter"}, {"fusion_lon": 0.0, "name": "602dc9aecd209237db4b36fe8cd2601c", "rental_uris": {"android": "https://dc.lft.to/lastmile_qr_scan", "ios": "https://dc.lft.to/lastmile_qr_scan"}, "lat": 38.90633583333333, "bike_id": "602dc9aecd209237db4b36fe8cd2601c", "is_disabled": 0, "lon": -77.03892183333333, "is_reserved": 0, "fusion_lat": 0.0, "type": "electric_scooter"}, {"fusion_lon": 0.0, "name": "c19d5a306e6d8724964aa2e1543ca7df", "rental_uris": {"android": "https://dc.lft.to/lastmile_qr_scan", "ios": "https://dc.lft.to/lastmile_qr_scan"}, "lat": 38.91343583333333, "bike_id": "c19d5a306e6d8724964aa2e1543ca7df", "is_disabled": 0, "lon": -77.012251, "is_reserved": 0, "fusion_lat": 0.0, "type": "electric_scooter"}, {"fusion_lon": 0.0, "name": "bb29dd5f76dd892ae2e05c18d87b95d9", "rental_uris": {"android": "https://dc.lft.to/lastmile_qr_scan", "ios": "https://dc.lft.to/lastmile_qr_scan"}, "lat": 38.906805166666665, "bike_id": "bb29dd5f76dd892ae2e05c18d87b95d9", "is_disabled": 0, "lon": -77.02696833333333, "is_reserved": 0, "fusion_lat": 0.0, "type": "electric_scooter"}, {"fusion_lon": 0.0, "name": "ecc1da8b076ec05a3446654d75aecee6", "rental_uris": {"android": "https://dc.lft.to/lastmile_qr_scan", "ios": "https://dc.lft.to/lastmile_qr_scan"}, "lat": 38.90675516666667, "bike_id": "ecc1da8b076ec05a3446654d75aecee6", "is_disabled": 0, "lon": -77.06340366666667, "is_reserved": 0, "fusion_lat": 0.0, "type": "electric_scooter"}, {"fusion_lon": 0.0, "name": "4ea1c42f1eafd6b7ad7b83374e8b688d", "rental_uris": {"android": "https://dc.lft.to/lastmile_qr_scan", "ios": "https://dc.lft.to/lastmile_qr_scan"}, "lat": 38.964640833333334, "bike_id": "4ea1c42f1eafd6b7ad7b83374e8b688d", "is_disabled": 0, "lon": -77.03566066666667, "is_reserved": 0, "fusion_lat": 0.0, "type": "electric_bike"}, {"fusion_lon": 0.0, "name": "ff4d16716d2fb19451ff832a1d4fb8ed", "rental_uris": {"android": "https://dc.lft.to/lastmile_qr_scan", "ios": "https://dc.lft.to/lastmile_qr_scan"}, "lat": 38.8923645, "bike_id": "ff4d16716d2fb19451ff832a1d4fb8ed", "is_disabled": 0, "lon": -77.01257916666667, "is_reserved": 0, "fusion_lat": 0.0, "type": "electric_scooter"}, {"fusion_lon": 0.0, "name": "5825ae9322c0a42c0fbd63ca5114210d", "rental_uris": {"android": "https://dc.lft.to/lastmile_qr_scan", "ios": "https://dc.lft.to/lastmile_qr_scan"}, "lat": 39.029202166666664, "bike_id": "5825ae9322c0a42c0fbd63ca5114210d", "is_disabled": 0, "lon": -77.01360516666666, "is_reserved": 0, "fusion_lat": 0.0, "type": "electric_bike"}, {"fusion_lon": 0.0, "name": "b6e229d2257fa34cc0b981464eb4d949", "rental_uris": {"android": "https://dc.lft.to/lastmile_qr_scan", "ios": "https://dc.lft.to/lastmile_qr_scan"}, "lat": 38.892442333333335, "bike_id": "b6e229d2257fa34cc0b981464eb4d949", "is_disabled": 0, "lon": -77.04655566666666, "is_reserved": 0, "fusion_lat": 0.0, "type": "electric_scooter"}, {"fusion_lon": 0.0, "name": "6a6f64f2d3cf568c84e4198974a197f2", "rental_uris": {"android": "https://dc.lft.to/lastmile_qr_scan", "ios": "https://dc.lft.to/lastmile_qr_scan"}, "lat": 38.91979666666667, "bike_id": "6a6f64f2d3cf568c84e4198974a197f2", "is_disabled": 0, "lon": -77.02179333333333, "is_reserved": 0, "fusion_lat": 0.0, "type": "electric_scooter"}, {"fusion_lon": 0.0, "name": "f0d952627e384f61910087d0e749e3d6", "rental_uris": {"android": "https://dc.lft.to/lastmile_qr_scan", "ios": "https://dc.lft.to/lastmile_qr_scan"}, "lat": 38.943144333333336, "bike_id": "f0d952627e384f61910087d0e749e3d6", "is_disabled": 0, "lon": -77.06169416666667, "is_reserved": 0, "fusion_lat": 0.0, "type": "electric_scooter"}, {"fusion_lon": 0.0, "name": "14a909938b96c27538c62d9ca5133136", "rental_uris": {"android": "https://dc.lft.to/lastmile_qr_scan", "ios": "https://dc.lft.to/lastmile_qr_scan"}, "lat": 38.90737383333333, "bike_id": "14a909938b96c27538c62d9ca5133136", "is_disabled": 0, "lon": -77.00779, "is_reserved": 0, "fusion_lat": 0.0, "type": "electric_scooter"}, {"fusion_lon": 0.0, "name": "e4dfdc777aac48370e2e724627114025", "rental_uris": {"android": "https://dc.lft.to/lastmile_qr_scan", "ios": "https://dc.lft.to/lastmile_qr_scan"}, "lat": 38.88820283333333, "bike_id": "e4dfdc777aac48370e2e724627114025", "is_disabled": 0, "lon": -76.97704316666666, "is_reserved": 0, "fusion_lat": 0.0, "type": "electric_scooter"}, {"fusion_lon": 0.0, "name": "4ffa96bddfde50035402f3273fb4197a", "rental_uris": {"android": "https://dc.lft.to/lastmile_qr_scan", "ios": "https://dc.lft.to/lastmile_qr_scan"}, "lat": 38.93189916666667, "bike_id": "4ffa96bddfde50035402f3273fb4197a", "is_disabled": 0, "lon": -77.03756566666667, "is_reserved": 0, "fusion_lat": 0.0, "type": "electric_scooter"}, {"fusion_lon": 0.0, "name": "7a5b4e455de73bf07d3e5b434bdbaee9", "rental_uris": {"android": "https://dc.lft.to/lastmile_qr_scan", "ios": "https://dc.lft.to/lastmile_qr_scan"}, "lat": 38.90240633333333, "bike_id": "7a5b4e455de73bf07d3e5b434bdbaee9", "is_disabled": 0, "lon": -77.034265, "is_reserved": 0, "fusion_lat": 0.0, "type": "electric_scooter"}, {"fusion_lon": 0.0, "name": "8f993c4a775b7b6d82015e2bf1af704d", "rental_uris": {"android": "https://dc.lft.to/lastmile_qr_scan", "ios": "https://dc.lft.to/lastmile_qr_scan"}, "lat": 38.9324055, "bike_id": "8f993c4a775b7b6d82015e2bf1af704d", "is_disabled": 0, "lon": -77.02837466666666, "is_reserved": 0, "fusion_lat": 0.0, "type": "electric_scooter"}, {"fusion_lon": 0.0, "name": "5a58bcea1e6a1a01f03f7624dd266ad8", "rental_uris": {"android": "https://dc.lft.to/lastmile_qr_scan", "ios": "https://dc.lft.to/lastmile_qr_scan"}, "lat": 38.92516033333333, "bike_id": "5a58bcea1e6a1a01f03f7624dd266ad8", "is_disabled": 0, "lon": -77.02360266666666, "is_reserved": 0, "fusion_lat": 0.0, "type": "electric_scooter"}, {"fusion_lon": 0.0, "name": "434dee5d1b70f30d5ef6646216a3f180", "rental_uris": {"android": "https://dc.lft.to/lastmile_qr_scan", "ios": "https://dc.lft.to/lastmile_qr_scan"}, "lat": 38.88508916666667, "bike_id": "434dee5d1b70f30d5ef6646216a3f180", "is_disabled": 0, "lon": -77.0111565, "is_reserved": 0, "fusion_lat": 0.0, "type": "electric_scooter"}, {"fusion_lon": 0.0, "name": "9589e234fba485a196272902a92e6133", "rental_uris": {"android": "https://dc.lft.to/lastmile_qr_scan", "ios": "https://dc.lft.to/lastmile_qr_scan"}, "lat": 38.90136666666667, "bike_id": "9589e234fba485a196272902a92e6133", "is_disabled": 0, "lon": -77.0318015, "is_reserved": 0, "fusion_lat": 0.0, "type": "electric_scooter"}, {"fusion_lon": 0.0, "name": "fe5df9ecd68de7654b7a338267d73b98", "rental_uris": {"android": "https://dc.lft.to/lastmile_qr_scan", "ios": "https://dc.lft.to/lastmile_qr_scan"}, "lat": 38.921381, "bike_id": "fe5df9ecd68de7654b7a338267d73b98", "is_disabled": 0, "lon": -77.018026, "is_reserved": 0, "fusion_lat": 0.0, "type": "electric_scooter"}, {"fusion_lon": 0.0, "name": "efa5b6a4a2bd8ddb5626eca680c5de63", "rental_uris": {"android": "https://dc.lft.to/lastmile_qr_scan", "ios": "https://dc.lft.to/lastmile_qr_scan"}, "lat": 38.904997333333334, "bike_id": "efa5b6a4a2bd8ddb5626eca680c5de63", "is_disabled": 0, "lon": -77.05323466666667, "is_reserved": 0, "fusion_lat": 0.0, "type": "electric_scooter"}, {"fusion_lon": 0.0, "name": "193f04f7ed49baf98679a47da62eb0c9", "rental_uris": {"android": "https://dc.lft.to/lastmile_qr_scan", "ios": "https://dc.lft.to/lastmile_qr_scan"}, "lat": 38.892302666666666, "bike_id": "193f04f7ed49baf98679a47da62eb0c9", "is_disabled": 0, "lon": -77.05000166666666, "is_reserved": 0, "fusion_lat": 0.0, "type": "electric_scooter"}, {"fusion_lon": 0.0, "name": "d95f6a166eb055a6f67edab445eac833", "rental_uris": {"android": "https://dc.lft.to/lastmile_qr_scan", "ios": "https://dc.lft.to/lastmile_qr_scan"}, "lat": 38.923595166666665, "bike_id": "d95f6a166eb055a6f67edab445eac833", "is_disabled": 0, "lon": -77.05049, "is_reserved": 0, "fusion_lat": 0.0, "type": "electric_scooter"}, {"fusion_lon": 0.0, "name": "c9a2b2b9a199c898f602f7d37e2d0e73", "rental_uris": {"android": "https://dc.lft.to/lastmile_qr_scan", "ios": "https://dc.lft.to/lastmile_qr_scan"}, "lat": 38.89355883333333, "bike_id": "c9a2b2b9a199c898f602f7d37e2d0e73", "is_disabled": 0, "lon": -77.00335, "is_reserved": 0, "fusion_lat": 0.0, "type": "electric_scooter"}, {"fusion_lon": 0.0, "name": "3355b6f0dddb3651fba80d7b46bb077e", "rental_uris": {"android": "https://dc.lft.to/lastmile_qr_scan", "ios": "https://dc.lft.to/lastmile_qr_scan"}, "lat": 38.924321, "bike_id": "3355b6f0dddb3651fba80d7b46bb077e", "is_disabled": 0, "lon": -77.05209883333333, "is_reserved": 0, "fusion_lat": 0.0, "type": "electric_scooter"}, {"fusion_lon": 0.0, "name": "97b89b88f0454333417492a8fda8e8a4", "rental_uris": {"android": "https://dc.lft.to/lastmile_qr_scan", "ios": "https://dc.lft.to/lastmile_qr_scan"}, "lat": 38.88603966666667, "bike_id": "97b89b88f0454333417492a8fda8e8a4", "is_disabled": 0, "lon": -77.1423475, "is_reserved": 0, "fusion_lat": 0.0, "type": "electric_bike"}, {"fusion_lon": 0.0, "name": "c304a30782c4373a11414941cd2d2986", "rental_uris": {"android": "https://dc.lft.to/lastmile_qr_scan", "ios": "https://dc.lft.to/lastmile_qr_scan"}, "lat": 38.9042015, "bike_id": "c304a30782c4373a11414941cd2d2986", "is_disabled": 0, "lon": -77.0532715, "is_reserved": 0, "fusion_lat": 0.0, "type": "electric_scooter"}, {"fusion_lon": 0.0, "name": "060ebcfbb6f888ab781eac0c904fa162", "rental_uris": {"android": "https://dc.lft.to/lastmile_qr_scan", "ios": "https://dc.lft.to/lastmile_qr_scan"}, "lat": 38.930274, "bike_id": "060ebcfbb6f888ab781eac0c904fa162", "is_disabled": 0, "lon": -77.0129675, "is_reserved": 0, "fusion_lat": 0.0, "type": "electric_scooter"}, {"fusion_lon": 0.0, "name": "4b881149e13920f29b3db952a9ebb855", "rental_uris": {"android": "https://dc.lft.to/lastmile_qr_scan", "ios": "https://dc.lft.to/lastmile_qr_scan"}, "lat": 38.92640733333333, "bike_id": "4b881149e13920f29b3db952a9ebb855", "is_disabled": 0, "lon": -77.02508783333333, "is_reserved": 0, "fusion_lat": 0.0, "type": "electric_scooter"}, {"fusion_lon": 0.0, "name": "f3c5aa1676461cdabd056da1a0a8eea8", "rental_uris": {"android": "https://dc.lft.to/lastmile_qr_scan", "ios": "https://dc.lft.to/lastmile_qr_scan"}, "lat": 38.90021983333333, "bike_id": "f3c5aa1676461cdabd056da1a0a8eea8", "is_disabled": 0, "lon": -77.04097483333334, "is_reserved": 0, "fusion_lat": 0.0, "type": "electric_scooter"}, {"fusion_lon": 0.0, "name": "5c72a385571996e8dc030a8a0e61e2ea", "rental_uris": {"android": "https://dc.lft.to/lastmile_qr_scan", "ios": "https://dc.lft.to/lastmile_qr_scan"}, "lat": 38.930350833333335, "bike_id": "5c72a385571996e8dc030a8a0e61e2ea", "is_disabled": 0, "lon": -77.02967933333333, "is_reserved": 0, "fusion_lat": 0.0, "type": "electric_scooter"}, {"fusion_lon": 0.0, "name": "3d7191a087c3ddb8edf1ae769c6661e6", "rental_uris": {"android": "https://dc.lft.to/lastmile_qr_scan", "ios": "https://dc.lft.to/lastmile_qr_scan"}, "lat": 38.92599233333333, "bike_id": "3d7191a087c3ddb8edf1ae769c6661e6", "is_disabled": 0, "lon": -77.021578, "is_reserved": 0, "fusion_lat": 0.0, "type": "electric_scooter"}, {"fusion_lon": 0.0, "name": "f0d9f6e5a3998e401203f8bb8a7eede9", "rental_uris": {"android": "https://dc.lft.to/lastmile_qr_scan", "ios": "https://dc.lft.to/lastmile_qr_scan"}, "lat": 38.916601666666665, "bike_id": "f0d9f6e5a3998e401203f8bb8a7eede9", "is_disabled": 0, "lon": -77.038458, "is_reserved": 0, "fusion_lat": 0.0, "type": "electric_scooter"}, {"fusion_lon": 0.0, "name": "9f1f333129271b88475917acc004af8c", "rental_uris": {"android": "https://dc.lft.to/lastmile_qr_scan", "ios": "https://dc.lft.to/lastmile_qr_scan"}, "lat": 38.93686, "bike_id": "9f1f333129271b88475917acc004af8c", "is_disabled": 0, "lon": -77.05979533333333, "is_reserved": 0, "fusion_lat": 0.0, "type": "electric_scooter"}, {"fusion_lon": 0.0, "name": "89337b7bd5ecc652d598adc4e136359d", "rental_uris": {"android": "https://dc.lft.to/lastmile_qr_scan", "ios": "https://dc.lft.to/lastmile_qr_scan"}, "lat": 38.90163733333333, "bike_id": "89337b7bd5ecc652d598adc4e136359d", "is_disabled": 0, "lon": -77.031759, "is_reserved": 0, "fusion_lat": 0.0, "type": "electric_scooter"}, {"fusion_lon": 0.0, "name": "e15b15450bb94553f97ab5c129222ab4", "rental_uris": {"android": "https://dc.lft.to/lastmile_qr_scan", "ios": "https://dc.lft.to/lastmile_qr_scan"}, "lat": 38.907596166666664, "bike_id": "e15b15450bb94553f97ab5c129222ab4", "is_disabled": 0, "lon": -77.03071816666667, "is_reserved": 0, "fusion_lat": 0.0, "type": "electric_scooter"}, {"fusion_lon": 0.0, "name": "214c56990a2571fb78aecc4f33fa0246", "rental_uris": {"android": "https://dc.lft.to/lastmile_qr_scan", "ios": "https://dc.lft.to/lastmile_qr_scan"}, "lat": 38.929673333333334, "bike_id": "214c56990a2571fb78aecc4f33fa0246", "is_disabled": 0, "lon": -77.04203066666666, "is_reserved": 0, "fusion_lat": 0.0, "type": "electric_scooter"}, {"fusion_lon": 0.0, "name": "01bed459fb70f85e21d879b46e5aaf2a", "rental_uris": {"android": "https://dc.lft.to/lastmile_qr_scan", "ios": "https://dc.lft.to/lastmile_qr_scan"}, "lat": 38.9154295, "bike_id": "01bed459fb70f85e21d879b46e5aaf2a", "is_disabled": 0, "lon": -77.04473333333334, "is_reserved": 0, "fusion_lat": 0.0, "type": "electric_scooter"}, {"fusion_lon": 0.0, "name": "ee7d9437262960b7496a30276631965d", "rental_uris": {"android": "https://dc.lft.to/lastmile_qr_scan", "ios": "https://dc.lft.to/lastmile_qr_scan"}, "lat": 38.918533833333335, "bike_id": "ee7d9437262960b7496a30276631965d", "is_disabled": 0, "lon": -77.0252865, "is_reserved": 0, "fusion_lat": 0.0, "type": "electric_scooter"}, {"fusion_lon": 0.0, "name": "bd3819d3bb4163cca451bedbff6008b5", "rental_uris": {"android": "https://dc.lft.to/lastmile_qr_scan", "ios": "https://dc.lft.to/lastmile_qr_scan"}, "lat": 38.900016, "bike_id": "bd3819d3bb4163cca451bedbff6008b5", "is_disabled": 0, "lon": -77.03352216666667, "is_reserved": 0, "fusion_lat": 0.0, "type": "electric_scooter"}, {"fusion_lon": 0.0, "name": "71127c3fe85a26f59d0838131c3cf281", "rental_uris": {"android": "https://dc.lft.to/lastmile_qr_scan", "ios": "https://dc.lft.to/lastmile_qr_scan"}, "lat": 38.902721166666666, "bike_id": "71127c3fe85a26f59d0838131c3cf281", "is_disabled": 0, "lon": -77.04611616666666, "is_reserved": 0, "fusion_lat": 0.0, "type": "electric_scooter"}, {"fusion_lon": 0.0, "name": "ee51f40bdfed5e821a0b078e5832e87a", "rental_uris": {"android": "https://dc.lft.to/lastmile_qr_scan", "ios": "https://dc.lft.to/lastmile_qr_scan"}, "lat": 38.931220333333336, "bike_id": "ee51f40bdfed5e821a0b078e5832e87a", "is_disabled": 0, "lon": -77.03601933333333, "is_reserved": 0, "fusion_lat": 0.0, "type": "electric_scooter"}, {"fusion_lon": 0.0, "name": "13a76b50d36daff12712b27a78e52291", "rental_uris": {"android": "https://dc.lft.to/lastmile_qr_scan", "ios": "https://dc.lft.to/lastmile_qr_scan"}, "lat": 38.945381833333336, "bike_id": "13a76b50d36daff12712b27a78e52291", "is_disabled": 0, "lon": -77.344637, "is_reserved": 0, "fusion_lat": 0.0, "type": "electric_bike"}, {"fusion_lon": 0.0, "name": "a4abb3cff0c4c0041d3fd6e5922b5aab", "rental_uris": {"android": "https://dc.lft.to/lastmile_qr_scan", "ios": "https://dc.lft.to/lastmile_qr_scan"}, "lat": 38.9192195, "bike_id": "a4abb3cff0c4c0041d3fd6e5922b5aab", "is_disabled": 0, "lon": -77.00993716666666, "is_reserved": 0, "fusion_lat": 0.0, "type": "electric_scooter"}, {"fusion_lon": 0.0, "name": "41457da9878bf2e7e57b98b657c7a38e", "rental_uris": {"android": "https://dc.lft.to/lastmile_qr_scan", "ios": "https://dc.lft.to/lastmile_qr_scan"}, "lat": 38.924518, "bike_id": "41457da9878bf2e7e57b98b657c7a38e", "is_disabled": 0, "lon": -77.021632, "is_reserved": 0, "fusion_lat": 0.0, "type": "electric_scooter"}, {"fusion_lon": 0.0, "name": "c175fab5a8e10f62af84563c4622990e", "rental_uris": {"android": "https://dc.lft.to/lastmile_qr_scan", "ios": "https://dc.lft.to/lastmile_qr_scan"}, "lat": 38.89265266666666, "bike_id": "c175fab5a8e10f62af84563c4622990e", "is_disabled": 0, "lon": -77.042104, "is_reserved": 0, "fusion_lat": 0.0, "type": "electric_scooter"}, {"fusion_lon": 0.0, "name": "7b9b154f55f68491369c7631f0a6887c", "rental_uris": {"android": "https://dc.lft.to/lastmile_qr_scan", "ios": "https://dc.lft.to/lastmile_qr_scan"}, "lat": 38.922177833333336, "bike_id": "7b9b154f55f68491369c7631f0a6887c", "is_disabled": 0, "lon": -77.02028583333333, "is_reserved": 0, "fusion_lat": 0.0, "type": "electric_scooter"}, {"fusion_lon": 0.0, "name": "bd68dd32189bac47a28db9669571cbf2", "rental_uris": {"android": "https://dc.lft.to/lastmile_qr_scan", "ios": "https://dc.lft.to/lastmile_qr_scan"}, "lat": 38.9053075, "bike_id": "bd68dd32189bac47a28db9669571cbf2", "is_disabled": 0, "lon": -77.06529633333334, "is_reserved": 0, "fusion_lat": 0.0, "type": "electric_scooter"}, {"fusion_lon": 0.0, "name": "1a1c46ca9c205f2172e09d6db9465fd8", "rental_uris": {"android": "https://dc.lft.to/lastmile_qr_scan", "ios": "https://dc.lft.to/lastmile_qr_scan"}, "lat": 38.90847, "bike_id": "1a1c46ca9c205f2172e09d6db9465fd8", "is_disabled": 0, "lon": -76.99805433333333, "is_reserved": 0, "fusion_lat": 0.0, "type": "electric_scooter"}, {"fusion_lon": 0.0, "name": "58ccbbea677678190290ece22d217c22", "rental_uris": {"android": "https://dc.lft.to/lastmile_qr_scan", "ios": "https://dc.lft.to/lastmile_qr_scan"}, "lat": 38.9214105, "bike_id": "58ccbbea677678190290ece22d217c22", "is_disabled": 0, "lon": -77.0180645, "is_reserved": 0, "fusion_lat": 0.0, "type": "electric_scooter"}, {"fusion_lon": 0.0, "name": "0e953cbdd78cce71b29c384ce64e53c6", "rental_uris": {"android": "https://dc.lft.to/lastmile_qr_scan", "ios": "https://dc.lft.to/lastmile_qr_scan"}, "lat": 38.92412266666667, "bike_id": "0e953cbdd78cce71b29c384ce64e53c6", "is_disabled": 0, "lon": -77.0201095, "is_reserved": 0, "fusion_lat": 0.0, "type": "electric_scooter"}, {"fusion_lon": 0.0, "name": "7a507f748df9080c6b70a21ce4bd3d0b", "rental_uris": {"android": "https://dc.lft.to/lastmile_qr_scan", "ios": "https://dc.lft.to/lastmile_qr_scan"}, "lat": 38.916646166666666, "bike_id": "7a507f748df9080c6b70a21ce4bd3d0b", "is_disabled": 0, "lon": -77.03854966666667, "is_reserved": 0, "fusion_lat": 0.0, "type": "electric_scooter"}, {"fusion_lon": 0.0, "name": "0e8e808ac6dd3af7a5bffcb4cdaecb8c", "rental_uris": {"android": "https://dc.lft.to/lastmile_qr_scan", "ios": "https://dc.lft.to/lastmile_qr_scan"}, "lat": 38.8865815, "bike_id": "0e8e808ac6dd3af7a5bffcb4cdaecb8c", "is_disabled": 0, "lon": -76.9367475, "is_reserved": 0, "fusion_lat": 0.0, "type": "electric_scooter"}, {"fusion_lon": 0.0, "name": "77f2927b281cefa054e416dfd5be236f", "rental_uris": {"android": "https://dc.lft.to/lastmile_qr_scan", "ios": "https://dc.lft.to/lastmile_qr_scan"}, "lat": 39.08431983333333, "bike_id": "77f2927b281cefa054e416dfd5be236f", "is_disabled": 0, "lon": -76.951456, "is_reserved": 0, "fusion_lat": 0.0, "type": "electric_bike"}, {"fusion_lon": 0.0, "name": "7a66488d6c1377be9d0ef113d3941196", "rental_uris": {"android": "https://dc.lft.to/lastmile_qr_scan", "ios": "https://dc.lft.to/lastmile_qr_scan"}, "lat": 38.89386316666667, "bike_id": "7a66488d6c1377be9d0ef113d3941196", "is_disabled": 0, "lon": -77.02264716666667, "is_reserved": 0, "fusion_lat": 0.0, "type": "electric_scooter"}, {"fusion_lon": 0.0, "name": "c15412bccd7ea29eef03650ead26f383", "rental_uris": {"android": "https://dc.lft.to/lastmile_qr_scan", "ios": "https://dc.lft.to/lastmile_qr_scan"}, "lat": 38.896961166666664, "bike_id": "c15412bccd7ea29eef03650ead26f383", "is_disabled": 0, "lon": -77.04341583333333, "is_reserved": 0, "fusion_lat": 0.0, "type": "electric_scooter"}, {"fusion_lon": 0.0, "name": "7c30a2ff410970b938174d62a2c30180", "rental_uris": {"android": "https://dc.lft.to/lastmile_qr_scan", "ios": "https://dc.lft.to/lastmile_qr_scan"}, "lat": 38.90539616666667, "bike_id": "7c30a2ff410970b938174d62a2c30180", "is_disabled": 0, "lon": -77.03402483333333, "is_reserved": 0, "fusion_lat": 0.0, "type": "electric_scooter"}, {"fusion_lon": 0.0, "name": "feec10277ad3bc0e7088bca2fe42e090", "rental_uris": {"android": "https://dc.lft.to/lastmile_qr_scan", "ios": "https://dc.lft.to/lastmile_qr_scan"}, "lat": 38.903605666666664, "bike_id": "feec10277ad3bc0e7088bca2fe42e090", "is_disabled": 0, "lon": -77.03206416666667, "is_reserved": 0, "fusion_lat": 0.0, "type": "electric_scooter"}, {"fusion_lon": 0.0, "name": "f56d052d4c941e310be65307a393aff7", "rental_uris": {"android": "https://dc.lft.to/lastmile_qr_scan", "ios": "https://dc.lft.to/lastmile_qr_scan"}, "lat": 38.89728266666667, "bike_id": "f56d052d4c941e310be65307a393aff7", "is_disabled": 0, "lon": -77.03207166666667, "is_reserved": 0, "fusion_lat": 0.0, "type": "electric_scooter"}, {"fusion_lon": 0.0, "name": "3fa80ca91abf8bea2893ac183c5c6b5e", "rental_uris": {"android": "https://dc.lft.to/lastmile_qr_scan", "ios": "https://dc.lft.to/lastmile_qr_scan"}, "lat": 38.88367016666667, "bike_id": "3fa80ca91abf8bea2893ac183c5c6b5e", "is_disabled": 0, "lon": -76.99521633333333, "is_reserved": 0, "fusion_lat": 0.0, "type": "electric_scooter"}, {"fusion_lon": 0.0, "name": "3471446f144eff8ca090e0cc865e8b39", "rental_uris": {"android": "https://dc.lft.to/lastmile_qr_scan", "ios": "https://dc.lft.to/lastmile_qr_scan"}, "lat": 38.8935355, "bike_id": "3471446f144eff8ca090e0cc865e8b39", "is_disabled": 0, "lon": -77.00338333333333, "is_reserved": 0, "fusion_lat": 0.0, "type": "electric_scooter"}, {"fusion_lon": 0.0, "name": "4d85b14b60f3b693e5b74f80963ad2f8", "rental_uris": {"android": "https://dc.lft.to/lastmile_qr_scan", "ios": "https://dc.lft.to/lastmile_qr_scan"}, "lat": 38.9222125, "bike_id": "4d85b14b60f3b693e5b74f80963ad2f8", "is_disabled": 0, "lon": -77.042426, "is_reserved": 0, "fusion_lat": 0.0, "type": "electric_scooter"}, {"fusion_lon": 0.0, "name": "abf1b879f6ca1243491149d2c2c8d6f7", "rental_uris": {"android": "https://dc.lft.to/lastmile_qr_scan", "ios": "https://dc.lft.to/lastmile_qr_scan"}, "lat": 38.89156933333334, "bike_id": "abf1b879f6ca1243491149d2c2c8d6f7", "is_disabled": 0, "lon": -77.02180116666666, "is_reserved": 0, "fusion_lat": 0.0, "type": "electric_scooter"}, {"fusion_lon": 0.0, "name": "d5a1f4b87c67a43352191e4b6525f90c", "rental_uris": {"android": "https://dc.lft.to/lastmile_qr_scan", "ios": "https://dc.lft.to/lastmile_qr_scan"}, "lat": 38.90261316666667, "bike_id": "d5a1f4b87c67a43352191e4b6525f90c", "is_disabled": 0, "lon": -77.0300205, "is_reserved": 0, "fusion_lat": 0.0, "type": "electric_scooter"}, {"fusion_lon": 0.0, "name": "36a2b196b8f0cc303d2bc43c4ee39dca", "rental_uris": {"android": "https://dc.lft.to/lastmile_qr_scan", "ios": "https://dc.lft.to/lastmile_qr_scan"}, "lat": 38.9207355, "bike_id": "36a2b196b8f0cc303d2bc43c4ee39dca", "is_disabled": 0, "lon": -77.02424633333334, "is_reserved": 0, "fusion_lat": 0.0, "type": "electric_scooter"}, {"fusion_lon": 0.0, "name": "21a99c1a1aba90fce68d6702068da413", "rental_uris": {"android": "https://dc.lft.to/lastmile_qr_scan", "ios": "https://dc.lft.to/lastmile_qr_scan"}, "lat": 38.907437333333334, "bike_id": "21a99c1a1aba90fce68d6702068da413", "is_disabled": 0, "lon": -77.04149266666667, "is_reserved": 0, "fusion_lat": 0.0, "type": "electric_scooter"}, {"fusion_lon": 0.0, "name": "fe9f14bed6433a5d478b225fb607df14", "rental_uris": {"android": "https://dc.lft.to/lastmile_qr_scan", "ios": "https://dc.lft.to/lastmile_qr_scan"}, "lat": 38.891698, "bike_id": "fe9f14bed6433a5d478b225fb607df14", "is_disabled": 0, "lon": -77.0155405, "is_reserved": 0, "fusion_lat": 0.0, "type": "electric_scooter"}, {"fusion_lon": 0.0, "name": "dc524a01fdc515641fc14032b859276c", "rental_uris": {"android": "https://dc.lft.to/lastmile_qr_scan", "ios": "https://dc.lft.to/lastmile_qr_scan"}, "lat": 38.909099166666664, "bike_id": "dc524a01fdc515641fc14032b859276c", "is_disabled": 0, "lon": -77.07281166666667, "is_reserved": 0, "fusion_lat": 0.0, "type": "electric_scooter"}, {"fusion_lon": 0.0, "name": "a7e1af54854cec941d36aede0cbc4667", "rental_uris": {"android": "https://dc.lft.to/lastmile_qr_scan", "ios": "https://dc.lft.to/lastmile_qr_scan"}, "lat": 38.9117505, "bike_id": "a7e1af54854cec941d36aede0cbc4667", "is_disabled": 0, "lon": -77.00339916666667, "is_reserved": 0, "fusion_lat": 0.0, "type": "electric_bike"}, {"fusion_lon": 0.0, "name": "0e4a74bcf23b61130d246c97b0c0a9ed", "rental_uris": {"android": "https://dc.lft.to/lastmile_qr_scan", "ios": "https://dc.lft.to/lastmile_qr_scan"}, "lat": 38.907256, "bike_id": "0e4a74bcf23b61130d246c97b0c0a9ed", "is_disabled": 0, "lon": -77.0502915, "is_reserved": 0, "fusion_lat": 0.0, "type": "electric_scooter"}, {"fusion_lon": 0.0, "name": "00df577be0cbaca9e700ed6f415c9c95", "rental_uris": {"android": "https://dc.lft.to/lastmile_qr_scan", "ios": "https://dc.lft.to/lastmile_qr_scan"}, "lat": 38.9072835, "bike_id": "00df577be0cbaca9e700ed6f415c9c95", "is_disabled": 0, "lon": -77.03943666666666, "is_reserved": 0, "fusion_lat": 0.0, "type": "electric_scooter"}, {"fusion_lon": 0.0, "name": "6a17ed1dc94696268d15bf942c5ad49a", "rental_uris": {"android": "https://dc.lft.to/lastmile_qr_scan", "ios": "https://dc.lft.to/lastmile_qr_scan"}, "lat": 38.96117516666666, "bike_id": "6a17ed1dc94696268d15bf942c5ad49a", "is_disabled": 0, "lon": -77.02807516666667, "is_reserved": 0, "fusion_lat": 0.0, "type": "electric_scooter"}, {"fusion_lon": 0.0, "name": "eaeb4b9e8180053ae80066149ec570d7", "rental_uris": {"android": "https://dc.lft.to/lastmile_qr_scan", "ios": "https://dc.lft.to/lastmile_qr_scan"}, "lat": 38.889852833333336, "bike_id": "eaeb4b9e8180053ae80066149ec570d7", "is_disabled": 0, "lon": -77.00321416666667, "is_reserved": 0, "fusion_lat": 0.0, "type": "electric_scooter"}, {"fusion_lon": 0.0, "name": "5966fca70545774918f2c1fe69401de4", "rental_uris": {"android": "https://dc.lft.to/lastmile_qr_scan", "ios": "https://dc.lft.to/lastmile_qr_scan"}, "lat": 38.929319666666665, "bike_id": "5966fca70545774918f2c1fe69401de4", "is_disabled": 0, "lon": -77.03297583333334, "is_reserved": 0, "fusion_lat": 0.0, "type": "electric_scooter"}, {"fusion_lon": 0.0, "name": "c917f9fc4278979e9334f8d03396bc97", "rental_uris": {"android": "https://dc.lft.to/lastmile_qr_scan", "ios": "https://dc.lft.to/lastmile_qr_scan"}, "lat": 38.90493283333333, "bike_id": "c917f9fc4278979e9334f8d03396bc97", "is_disabled": 0, "lon": -77.04336633333334, "is_reserved": 0, "fusion_lat": 0.0, "type": "electric_scooter"}, {"fusion_lon": 0.0, "name": "a80666ce1d169e6422df87bb86c7fa7b", "rental_uris": {"android": "https://dc.lft.to/lastmile_qr_scan", "ios": "https://dc.lft.to/lastmile_qr_scan"}, "lat": 38.89895383333333, "bike_id": "a80666ce1d169e6422df87bb86c7fa7b", "is_disabled": 0, "lon": -76.976059, "is_reserved": 0, "fusion_lat": 0.0, "type": "electric_scooter"}, {"fusion_lon": 0.0, "name": "7c7689235b1ccdd9ee28f8b7854c1797", "rental_uris": {"android": "https://dc.lft.to/lastmile_qr_scan", "ios": "https://dc.lft.to/lastmile_qr_scan"}, "lat": 38.91366083333333, "bike_id": "7c7689235b1ccdd9ee28f8b7854c1797", "is_disabled": 0, "lon": -77.09190116666667, "is_reserved": 0, "fusion_lat": 0.0, "type": "electric_scooter"}, {"fusion_lon": 0.0, "name": "cf2ab4c6450641c0e996777d57beeaaa", "rental_uris": {"android": "https://dc.lft.to/lastmile_qr_scan", "ios": "https://dc.lft.to/lastmile_qr_scan"}, "lat": 38.904254333333334, "bike_id": "cf2ab4c6450641c0e996777d57beeaaa", "is_disabled": 0, "lon": -77.03454066666667, "is_reserved": 0, "fusion_lat": 0.0, "type": "electric_scooter"}, {"fusion_lon": 0.0, "name": "3908d76e82a67f509343fa6525b04ce6", "rental_uris": {"android": "https://dc.lft.to/lastmile_qr_scan", "ios": "https://dc.lft.to/lastmile_qr_scan"}, "lat": 38.86522733333334, "bike_id": "3908d76e82a67f509343fa6525b04ce6", "is_disabled": 0, "lon": -76.96904116666667, "is_reserved": 0, "fusion_lat": 0.0, "type": "electric_scooter"}, {"fusion_lon": 0.0, "name": "7bdb25c0f836dc25c1800d31615312f6", "rental_uris": {"android": "https://dc.lft.to/lastmile_qr_scan", "ios": "https://dc.lft.to/lastmile_qr_scan"}, "lat": 38.884388, "bike_id": "7bdb25c0f836dc25c1800d31615312f6", "is_disabled": 0, "lon": -76.9576835, "is_reserved": 0, "fusion_lat": 0.0, "type": "electric_scooter"}, {"fusion_lon": 0.0, "name": "4e935a58a6e19662e6e103bfc5b08536", "rental_uris": {"android": "https://dc.lft.to/lastmile_qr_scan", "ios": "https://dc.lft.to/lastmile_qr_scan"}, "lat": 38.91814816666667, "bike_id": "4e935a58a6e19662e6e103bfc5b08536", "is_disabled": 0, "lon": -77.02478616666667, "is_reserved": 0, "fusion_lat": 0.0, "type": "electric_scooter"}, {"fusion_lon": 0.0, "name": "88f2d851b1c9fe6284a56895f64829c2", "rental_uris": {"android": "https://dc.lft.to/lastmile_qr_scan", "ios": "https://dc.lft.to/lastmile_qr_scan"}, "lat": 38.8961885, "bike_id": "88f2d851b1c9fe6284a56895f64829c2", "is_disabled": 0, "lon": -77.040742, "is_reserved": 0, "fusion_lat": 0.0, "type": "electric_scooter"}, {"fusion_lon": 0.0, "name": "dd7d1d579c174fe6cc8176f0cefcb9cf", "rental_uris": {"android": "https://dc.lft.to/lastmile_qr_scan", "ios": "https://dc.lft.to/lastmile_qr_scan"}, "lat": 38.929226666666665, "bike_id": "dd7d1d579c174fe6cc8176f0cefcb9cf", "is_disabled": 0, "lon": -77.0326365, "is_reserved": 0, "fusion_lat": 0.0, "type": "electric_scooter"}, {"fusion_lon": 0.0, "name": "ad0099c80cffdd996721e5a4808340f1", "rental_uris": {"android": "https://dc.lft.to/lastmile_qr_scan", "ios": "https://dc.lft.to/lastmile_qr_scan"}, "lat": 38.8922115, "bike_id": "ad0099c80cffdd996721e5a4808340f1", "is_disabled": 0, "lon": -77.02563, "is_reserved": 0, "fusion_lat": 0.0, "type": "electric_scooter"}, {"fusion_lon": 0.0, "name": "d20cacaaed705e4e73aab7978cb83936", "rental_uris": {"android": "https://dc.lft.to/lastmile_qr_scan", "ios": "https://dc.lft.to/lastmile_qr_scan"}, "lat": 38.901386, "bike_id": "d20cacaaed705e4e73aab7978cb83936", "is_disabled": 0, "lon": -77.03878116666667, "is_reserved": 0, "fusion_lat": 0.0, "type": "electric_scooter"}, {"fusion_lon": 0.0, "name": "2879cb4eed0e4c31ff42fe8c08309901", "rental_uris": {"android": "https://dc.lft.to/lastmile_qr_scan", "ios": "https://dc.lft.to/lastmile_qr_scan"}, "lat": 38.91817666666667, "bike_id": "2879cb4eed0e4c31ff42fe8c08309901", "is_disabled": 0, "lon": -77.0344475, "is_reserved": 0, "fusion_lat": 0.0, "type": "electric_scooter"}, {"fusion_lon": 0.0, "name": "28db1184be37c77c2129c1d31ec61ce5", "rental_uris": {"android": "https://dc.lft.to/lastmile_qr_scan", "ios": "https://dc.lft.to/lastmile_qr_scan"}, "lat": 38.93752116666667, "bike_id": "28db1184be37c77c2129c1d31ec61ce5", "is_disabled": 0, "lon": -77.0243895, "is_reserved": 0, "fusion_lat": 0.0, "type": "electric_scooter"}, {"fusion_lon": 0.0, "name": "9e9015e15cbdbe3cff469d4efed6850f", "rental_uris": {"android": "https://dc.lft.to/lastmile_qr_scan", "ios": "https://dc.lft.to/lastmile_qr_scan"}, "lat": 38.90353233333333, "bike_id": "9e9015e15cbdbe3cff469d4efed6850f", "is_disabled": 0, "lon": -77.02610166666666, "is_reserved": 0, "fusion_lat": 0.0, "type": "electric_scooter"}, {"fusion_lon": 0.0, "name": "a603445857c24ec34f856d119106a7f3", "rental_uris": {"android": "https://dc.lft.to/lastmile_qr_scan", "ios": "https://dc.lft.to/lastmile_qr_scan"}, "lat": 38.919211, "bike_id": "a603445857c24ec34f856d119106a7f3", "is_disabled": 0, "lon": -77.00977916666666, "is_reserved": 0, "fusion_lat": 0.0, "type": "electric_scooter"}, {"fusion_lon": 0.0, "name": "6e5f808a2f277ce39f9de78e63ac698b", "rental_uris": {"android": "https://dc.lft.to/lastmile_qr_scan", "ios": "https://dc.lft.to/lastmile_qr_scan"}, "lat": 38.9061915, "bike_id": "6e5f808a2f277ce39f9de78e63ac698b", "is_disabled": 0, "lon": -76.950098, "is_reserved": 0, "fusion_lat": 0.0, "type": "electric_scooter"}, {"fusion_lon": 0.0, "name": "00844477e06b495221f8c219e6c0fec0", "rental_uris": {"android": "https://dc.lft.to/lastmile_qr_scan", "ios": "https://dc.lft.to/lastmile_qr_scan"}, "lat": 38.8939965, "bike_id": "00844477e06b495221f8c219e6c0fec0", "is_disabled": 0, "lon": -77.00205616666666, "is_reserved": 0, "fusion_lat": 0.0, "type": "electric_scooter"}, {"fusion_lon": 0.0, "name": "949a0912b88f6fcbbfb8360a6bf62ef0", "rental_uris": {"android": "https://dc.lft.to/lastmile_qr_scan", "ios": "https://dc.lft.to/lastmile_qr_scan"}, "lat": 38.88507166666667, "bike_id": "949a0912b88f6fcbbfb8360a6bf62ef0", "is_disabled": 0, "lon": -77.01117683333334, "is_reserved": 0, "fusion_lat": 0.0, "type": "electric_scooter"}, {"fusion_lon": 0.0, "name": "73f1b18d9649fa6c422ccd691019638c", "rental_uris": {"android": "https://dc.lft.to/lastmile_qr_scan", "ios": "https://dc.lft.to/lastmile_qr_scan"}, "lat": 38.886302666666666, "bike_id": "73f1b18d9649fa6c422ccd691019638c", "is_disabled": 0, "lon": -77.01533033333334, "is_reserved": 0, "fusion_lat": 0.0, "type": "electric_scooter"}, {"fusion_lon": 0.0, "name": "26da31ee2beb8ebe4b54dee4a0caf5a1", "rental_uris": {"android": "https://dc.lft.to/lastmile_qr_scan", "ios": "https://dc.lft.to/lastmile_qr_scan"}, "lat": 38.90075366666667, "bike_id": "26da31ee2beb8ebe4b54dee4a0caf5a1", "is_disabled": 0, "lon": -77.05001666666666, "is_reserved": 0, "fusion_lat": 0.0, "type": "electric_scooter"}, {"fusion_lon": 0.0, "name": "7f1d01b9451b7bceed5742243b62f03a", "rental_uris": {"android": "https://dc.lft.to/lastmile_qr_scan", "ios": "https://dc.lft.to/lastmile_qr_scan"}, "lat": 38.904409333333334, "bike_id": "7f1d01b9451b7bceed5742243b62f03a", "is_disabled": 0, "lon": -77.0515995, "is_reserved": 0, "fusion_lat": 0.0, "type": "electric_scooter"}, {"fusion_lon": 0.0, "name": "5a51b60061a97e7657c4d0c6bdb08486", "rental_uris": {"android": "https://dc.lft.to/lastmile_qr_scan", "ios": "https://dc.lft.to/lastmile_qr_scan"}, "lat": 38.9003255, "bike_id": "5a51b60061a97e7657c4d0c6bdb08486", "is_disabled": 0, "lon": -76.9985185, "is_reserved": 0, "fusion_lat": 0.0, "type": "electric_scooter"}, {"fusion_lon": 0.0, "name": "cfc9d4a56c33c13c10cb18f489773541", "rental_uris": {"android": "https://dc.lft.to/lastmile_qr_scan", "ios": "https://dc.lft.to/lastmile_qr_scan"}, "lat": 38.90374683333334, "bike_id": "cfc9d4a56c33c13c10cb18f489773541", "is_disabled": 0, "lon": -77.0385835, "is_reserved": 0, "fusion_lat": 0.0, "type": "electric_scooter"}, {"fusion_lon": 0.0, "name": "9d6a7f42d522fadfb95abe9ac1402c92", "rental_uris": {"android": "https://dc.lft.to/lastmile_qr_scan", "ios": "https://dc.lft.to/lastmile_qr_scan"}, "lat": 38.9062435, "bike_id": "9d6a7f42d522fadfb95abe9ac1402c92", "is_disabled": 0, "lon": -77.04142833333333, "is_reserved": 0, "fusion_lat": 0.0, "type": "electric_scooter"}, {"fusion_lon": 0.0, "name": "48fb2f982568f0e639347b79bed55a42", "rental_uris": {"android": "https://dc.lft.to/lastmile_qr_scan", "ios": "https://dc.lft.to/lastmile_qr_scan"}, "lat": 38.89968966666667, "bike_id": "48fb2f982568f0e639347b79bed55a42", "is_disabled": 0, "lon": -77.01609816666667, "is_reserved": 0, "fusion_lat": 0.0, "type": "electric_scooter"}, {"fusion_lon": 0.0, "name": "3bddaa2d8c0de00cafcc140141c855d1", "rental_uris": {"android": "https://dc.lft.to/lastmile_qr_scan", "ios": "https://dc.lft.to/lastmile_qr_scan"}, "lat": 38.89768866666667, "bike_id": "3bddaa2d8c0de00cafcc140141c855d1", "is_disabled": 0, "lon": -77.01222883333334, "is_reserved": 0, "fusion_lat": 0.0, "type": "electric_scooter"}, {"fusion_lon": 0.0, "name": "d96106c10e8b15148796831a0129c3a9", "rental_uris": {"android": "https://dc.lft.to/lastmile_qr_scan", "ios": "https://dc.lft.to/lastmile_qr_scan"}, "lat": 38.906419, "bike_id": "d96106c10e8b15148796831a0129c3a9", "is_disabled": 0, "lon": -77.053386, "is_reserved": 0, "fusion_lat": 0.0, "type": "electric_scooter"}, {"fusion_lon": 0.0, "name": "8f29c30d3f85ff8f505bbdf3ab2cf5f3", "rental_uris": {"android": "https://dc.lft.to/lastmile_qr_scan", "ios": "https://dc.lft.to/lastmile_qr_scan"}, "lat": 38.800518, "bike_id": "8f29c30d3f85ff8f505bbdf3ab2cf5f3", "is_disabled": 0, "lon": -77.128384, "is_reserved": 0, "fusion_lat": 0.0, "type": "electric_bike"}, {"fusion_lon": 0.0, "name": "60d7061ba20dab3ea2333ff0eccfb6b6", "rental_uris": {"android": "https://dc.lft.to/lastmile_qr_scan", "ios": "https://dc.lft.to/lastmile_qr_scan"}, "lat": 38.892258166666664, "bike_id": "60d7061ba20dab3ea2333ff0eccfb6b6", "is_disabled": 0, "lon": -77.025642, "is_reserved": 0, "fusion_lat": 0.0, "type": "electric_scooter"}, {"fusion_lon": 0.0, "name": "41bedb0a733449fcaa513e65931414f4", "rental_uris": {"android": "https://dc.lft.to/lastmile_qr_scan", "ios": "https://dc.lft.to/lastmile_qr_scan"}, "lat": 38.931119833333334, "bike_id": "41bedb0a733449fcaa513e65931414f4", "is_disabled": 0, "lon": -77.035146, "is_reserved": 0, "fusion_lat": 0.0, "type": "electric_scooter"}, {"fusion_lon": 0.0, "name": "4263578ebd3f54a140ecafecad073e16", "rental_uris": {"android": "https://dc.lft.to/lastmile_qr_scan", "ios": "https://dc.lft.to/lastmile_qr_scan"}, "lat": 38.89418966666667, "bike_id": "4263578ebd3f54a140ecafecad073e16", "is_disabled": 0, "lon": -76.9977445, "is_reserved": 0, "fusion_lat": 0.0, "type": "electric_scooter"}, {"fusion_lon": 0.0, "name": "c2ff8691a0f72491eda5253bbfa73488", "rental_uris": {"android": "https://dc.lft.to/lastmile_qr_scan", "ios": "https://dc.lft.to/lastmile_qr_scan"}, "lat": 38.92686916666667, "bike_id": "c2ff8691a0f72491eda5253bbfa73488", "is_disabled": 0, "lon": -77.02961566666667, "is_reserved": 0, "fusion_lat": 0.0, "type": "electric_scooter"}, {"fusion_lon": 0.0, "name": "af74a2af76f77f535ceb8044cd42b45d", "rental_uris": {"android": "https://dc.lft.to/lastmile_qr_scan", "ios": "https://dc.lft.to/lastmile_qr_scan"}, "lat": 38.90260883333333, "bike_id": "af74a2af76f77f535ceb8044cd42b45d", "is_disabled": 0, "lon": -77.03035966666667, "is_reserved": 0, "fusion_lat": 0.0, "type": "electric_scooter"}, {"fusion_lon": 0.0, "name": "7f71dbc396ebd9b5166422a5e4998094", "rental_uris": {"android": "https://dc.lft.to/lastmile_qr_scan", "ios": "https://dc.lft.to/lastmile_qr_scan"}, "lat": 38.924799166666666, "bike_id": "7f71dbc396ebd9b5166422a5e4998094", "is_disabled": 0, "lon": -77.05211333333334, "is_reserved": 0, "fusion_lat": 0.0, "type": "electric_scooter"}, {"fusion_lon": 0.0, "name": "359d6a315294030b5c8b08a89718913e", "rental_uris": {"android": "https://dc.lft.to/lastmile_qr_scan", "ios": "https://dc.lft.to/lastmile_qr_scan"}, "lat": 38.90352133333333, "bike_id": "359d6a315294030b5c8b08a89718913e", "is_disabled": 0, "lon": -77.02587183333333, "is_reserved": 0, "fusion_lat": 0.0, "type": "electric_scooter"}, {"fusion_lon": 0.0, "name": "6ce9fd405214451c9a071ac1f66ee144", "rental_uris": {"android": "https://dc.lft.to/lastmile_qr_scan", "ios": "https://dc.lft.to/lastmile_qr_scan"}, "lat": 38.8749535, "bike_id": "6ce9fd405214451c9a071ac1f66ee144", "is_disabled": 0, "lon": -76.99793516666666, "is_reserved": 0, "fusion_lat": 0.0, "type": "electric_scooter"}, {"fusion_lon": 0.0, "name": "d4c367e496ecfec1814ee0a9482a170e", "rental_uris": {"android": "https://dc.lft.to/lastmile_qr_scan", "ios": "https://dc.lft.to/lastmile_qr_scan"}, "lat": 38.92420033333333, "bike_id": "d4c367e496ecfec1814ee0a9482a170e", "is_disabled": 0, "lon": -77.01945516666666, "is_reserved": 0, "fusion_lat": 0.0, "type": "electric_scooter"}, {"fusion_lon": 0.0, "name": "2272a48cfe3d42ea712d1cb9817c7a85", "rental_uris": {"android": "https://dc.lft.to/lastmile_qr_scan", "ios": "https://dc.lft.to/lastmile_qr_scan"}, "lat": 38.89220183333333, "bike_id": "2272a48cfe3d42ea712d1cb9817c7a85", "is_disabled": 0, "lon": -77.0487095, "is_reserved": 0, "fusion_lat": 0.0, "type": "electric_scooter"}, {"fusion_lon": 0.0, "name": "a87d9a23e0d5649987e09b4ad4772c53", "rental_uris": {"android": "https://dc.lft.to/lastmile_qr_scan", "ios": "https://dc.lft.to/lastmile_qr_scan"}, "lat": 38.9083505, "bike_id": "a87d9a23e0d5649987e09b4ad4772c53", "is_disabled": 0, "lon": -77.03843083333334, "is_reserved": 0, "fusion_lat": 0.0, "type": "electric_scooter"}, {"fusion_lon": 0.0, "name": "2c7323a94cdfdcfefb3fc207c1ebb2e6", "rental_uris": {"android": "https://dc.lft.to/lastmile_qr_scan", "ios": "https://dc.lft.to/lastmile_qr_scan"}, "lat": 38.923907166666666, "bike_id": "2c7323a94cdfdcfefb3fc207c1ebb2e6", "is_disabled": 0, "lon": -77.03416933333334, "is_reserved": 0, "fusion_lat": 0.0, "type": "electric_scooter"}, {"fusion_lon": 0.0, "name": "c19be3bd05a0672b2a7ebeb42beab1e2", "rental_uris": {"android": "https://dc.lft.to/lastmile_qr_scan", "ios": "https://dc.lft.to/lastmile_qr_scan"}, "lat": 38.884729666666665, "bike_id": "c19be3bd05a0672b2a7ebeb42beab1e2", "is_disabled": 0, "lon": -77.0218795, "is_reserved": 0, "fusion_lat": 0.0, "type": "electric_scooter"}, {"fusion_lon": 0.0, "name": "4fba34bf3e7b82d2f74244d1b9b9ed45", "rental_uris": {"android": "https://dc.lft.to/lastmile_qr_scan", "ios": "https://dc.lft.to/lastmile_qr_scan"}, "lat": 38.898272166666665, "bike_id": "4fba34bf3e7b82d2f74244d1b9b9ed45", "is_disabled": 0, "lon": -77.0304415, "is_reserved": 0, "fusion_lat": 0.0, "type": "electric_scooter"}, {"fusion_lon": 0.0, "name": "6292abbff69d64a9d24c147fdb4b225a", "rental_uris": {"android": "https://dc.lft.to/lastmile_qr_scan", "ios": "https://dc.lft.to/lastmile_qr_scan"}, "lat": 38.88257316666667, "bike_id": "6292abbff69d64a9d24c147fdb4b225a", "is_disabled": 0, "lon": -77.1117795, "is_reserved": 0, "fusion_lat": 0.0, "type": "electric_bike"}, {"fusion_lon": 0.0, "name": "35a5603d342e520003862c05cdc17e62", "rental_uris": {"android": "https://dc.lft.to/lastmile_qr_scan", "ios": "https://dc.lft.to/lastmile_qr_scan"}, "lat": 38.9205935, "bike_id": "35a5603d342e520003862c05cdc17e62", "is_disabled": 0, "lon": -77.03470933333334, "is_reserved": 0, "fusion_lat": 0.0, "type": "electric_scooter"}, {"fusion_lon": 0.0, "name": "815ea45fbf787c7a6a73cd4700e80c0a", "rental_uris": {"android": "https://dc.lft.to/lastmile_qr_scan", "ios": "https://dc.lft.to/lastmile_qr_scan"}, "lat": 38.9247765, "bike_id": "815ea45fbf787c7a6a73cd4700e80c0a", "is_disabled": 0, "lon": -77.0314535, "is_reserved": 0, "fusion_lat": 0.0, "type": "electric_scooter"}, {"fusion_lon": 0.0, "name": "c03517ebd97bf96aa9ed8322c70ceef8", "rental_uris": {"android": "https://dc.lft.to/lastmile_qr_scan", "ios": "https://dc.lft.to/lastmile_qr_scan"}, "lat": 38.904665333333334, "bike_id": "c03517ebd97bf96aa9ed8322c70ceef8", "is_disabled": 0, "lon": -77.04180183333334, "is_reserved": 0, "fusion_lat": 0.0, "type": "electric_scooter"}, {"fusion_lon": 0.0, "name": "5da6b32a3d919b908d75412c6d5e1c70", "rental_uris": {"android": "https://dc.lft.to/lastmile_qr_scan", "ios": "https://dc.lft.to/lastmile_qr_scan"}, "lat": 38.92308233333333, "bike_id": "5da6b32a3d919b908d75412c6d5e1c70", "is_disabled": 0, "lon": -77.028974, "is_reserved": 0, "fusion_lat": 0.0, "type": "electric_scooter"}, {"fusion_lon": 0.0, "name": "83badb10d925de6d04104a07a748c1b4", "rental_uris": {"android": "https://dc.lft.to/lastmile_qr_scan", "ios": "https://dc.lft.to/lastmile_qr_scan"}, "lat": 38.964090166666665, "bike_id": "83badb10d925de6d04104a07a748c1b4", "is_disabled": 0, "lon": -77.03291083333333, "is_reserved": 0, "fusion_lat": 0.0, "type": "electric_scooter"}, {"fusion_lon": 0.0, "name": "b2ddf880bf348d051f56ce9340292a13", "rental_uris": {"android": "https://dc.lft.to/lastmile_qr_scan", "ios": "https://dc.lft.to/lastmile_qr_scan"}, "lat": 38.92975283333333, "bike_id": "b2ddf880bf348d051f56ce9340292a13", "is_disabled": 0, "lon": -77.0323225, "is_reserved": 0, "fusion_lat": 0.0, "type": "electric_scooter"}, {"fusion_lon": 0.0, "name": "b59cf58dd6558a4984499352a135c396", "rental_uris": {"android": "https://dc.lft.to/lastmile_qr_scan", "ios": "https://dc.lft.to/lastmile_qr_scan"}, "lat": 38.900165666666666, "bike_id": "b59cf58dd6558a4984499352a135c396", "is_disabled": 0, "lon": -77.02587583333333, "is_reserved": 0, "fusion_lat": 0.0, "type": "electric_scooter"}, {"fusion_lon": 0.0, "name": "9314a36059d2a95fba51900d934596f1", "rental_uris": {"android": "https://dc.lft.to/lastmile_qr_scan", "ios": "https://dc.lft.to/lastmile_qr_scan"}, "lat": 38.906706166666666, "bike_id": "9314a36059d2a95fba51900d934596f1", "is_disabled": 0, "lon": -77.05009333333334, "is_reserved": 0, "fusion_lat": 0.0, "type": "electric_scooter"}, {"fusion_lon": 0.0, "name": "0e63412133bc5eadcb619f5f48a4b337", "rental_uris": {"android": "https://dc.lft.to/lastmile_qr_scan", "ios": "https://dc.lft.to/lastmile_qr_scan"}, "lat": 38.951069333333336, "bike_id": "0e63412133bc5eadcb619f5f48a4b337", "is_disabled": 0, "lon": -77.0131255, "is_reserved": 0, "fusion_lat": 0.0, "type": "electric_scooter"}, {"fusion_lon": 0.0, "name": "e40871acb5cd5a76595536e2df50c30d", "rental_uris": {"android": "https://dc.lft.to/lastmile_qr_scan", "ios": "https://dc.lft.to/lastmile_qr_scan"}, "lat": 38.90139, "bike_id": "e40871acb5cd5a76595536e2df50c30d", "is_disabled": 0, "lon": -77.04158316666667, "is_reserved": 0, "fusion_lat": 0.0, "type": "electric_scooter"}, {"fusion_lon": 0.0, "name": "d319e88ef174613105e72d753f38699a", "rental_uris": {"android": "https://dc.lft.to/lastmile_qr_scan", "ios": "https://dc.lft.to/lastmile_qr_scan"}, "lat": 38.89850916666666, "bike_id": "d319e88ef174613105e72d753f38699a", "is_disabled": 0, "lon": -77.03985233333333, "is_reserved": 0, "fusion_lat": 0.0, "type": "electric_bike"}, {"fusion_lon": 0.0, "name": "aa268ca65f7d27992695b2bb154aa617", "rental_uris": {"android": "https://dc.lft.to/lastmile_qr_scan", "ios": "https://dc.lft.to/lastmile_qr_scan"}, "lat": 38.9148405, "bike_id": "aa268ca65f7d27992695b2bb154aa617", "is_disabled": 0, "lon": -77.00219666666666, "is_reserved": 0, "fusion_lat": 0.0, "type": "electric_scooter"}, {"fusion_lon": 0.0, "name": "2bdc0490e8f8db64d0c4b5f6d35b7599", "rental_uris": {"android": "https://dc.lft.to/lastmile_qr_scan", "ios": "https://dc.lft.to/lastmile_qr_scan"}, "lat": 38.87559433333333, "bike_id": "2bdc0490e8f8db64d0c4b5f6d35b7599", "is_disabled": 0, "lon": -77.00600683333333, "is_reserved": 0, "fusion_lat": 0.0, "type": "electric_scooter"}, {"fusion_lon": 0.0, "name": "bd6b7a4ce72d5a96bdc2f83f5888be4f", "rental_uris": {"android": "https://dc.lft.to/lastmile_qr_scan", "ios": "https://dc.lft.to/lastmile_qr_scan"}, "lat": 38.94313283333334, "bike_id": "bd6b7a4ce72d5a96bdc2f83f5888be4f", "is_disabled": 0, "lon": -77.017287, "is_reserved": 0, "fusion_lat": 0.0, "type": "electric_scooter"}, {"fusion_lon": 0.0, "name": "b7e5a622958b24d10c291efcf2dd1a33", "rental_uris": {"android": "https://dc.lft.to/lastmile_qr_scan", "ios": "https://dc.lft.to/lastmile_qr_scan"}, "lat": 38.9316665, "bike_id": "b7e5a622958b24d10c291efcf2dd1a33", "is_disabled": 0, "lon": -77.0367035, "is_reserved": 0, "fusion_lat": 0.0, "type": "electric_scooter"}, {"fusion_lon": 0.0, "name": "97279da54c02b7f52db7683e7635c8ff", "rental_uris": {"android": "https://dc.lft.to/lastmile_qr_scan", "ios": "https://dc.lft.to/lastmile_qr_scan"}, "lat": 38.90683416666667, "bike_id": "97279da54c02b7f52db7683e7635c8ff", "is_disabled": 0, "lon": -77.03662766666666, "is_reserved": 0, "fusion_lat": 0.0, "type": "electric_scooter"}, {"fusion_lon": 0.0, "name": "7ad94811a6646ecd9fe7bf73d046f5cc", "rental_uris": {"android": "https://dc.lft.to/lastmile_qr_scan", "ios": "https://dc.lft.to/lastmile_qr_scan"}, "lat": 38.887453, "bike_id": "7ad94811a6646ecd9fe7bf73d046f5cc", "is_disabled": 0, "lon": -77.02574833333334, "is_reserved": 0, "fusion_lat": 0.0, "type": "electric_scooter"}, {"fusion_lon": 0.0, "name": "ce8d631af0c988d8db2e70a2e9ab1aab", "rental_uris": {"android": "https://dc.lft.to/lastmile_qr_scan", "ios": "https://dc.lft.to/lastmile_qr_scan"}, "lat": 38.9163035, "bike_id": "ce8d631af0c988d8db2e70a2e9ab1aab", "is_disabled": 0, "lon": -77.04608466666667, "is_reserved": 0, "fusion_lat": 0.0, "type": "electric_scooter"}, {"fusion_lon": 0.0, "name": "bea3c2a4dc8d58be840db6c49a90dba3", "rental_uris": {"android": "https://dc.lft.to/lastmile_qr_scan", "ios": "https://dc.lft.to/lastmile_qr_scan"}, "lat": 38.8910125, "bike_id": "bea3c2a4dc8d58be840db6c49a90dba3", "is_disabled": 0, "lon": -77.002131, "is_reserved": 0, "fusion_lat": 0.0, "type": "electric_scooter"}, {"fusion_lon": 0.0, "name": "8a364f62e4dff6ca60f8b2b11f1ef726", "rental_uris": {"android": "https://dc.lft.to/lastmile_qr_scan", "ios": "https://dc.lft.to/lastmile_qr_scan"}, "lat": 38.9233855, "bike_id": "8a364f62e4dff6ca60f8b2b11f1ef726", "is_disabled": 0, "lon": -77.05088733333334, "is_reserved": 0, "fusion_lat": 0.0, "type": "electric_scooter"}, {"fusion_lon": 0.0, "name": "efcaf1c86430645f01780222614948d0", "rental_uris": {"android": "https://dc.lft.to/lastmile_qr_scan", "ios": "https://dc.lft.to/lastmile_qr_scan"}, "lat": 38.924232, "bike_id": "efcaf1c86430645f01780222614948d0", "is_disabled": 0, "lon": -77.036255, "is_reserved": 0, "fusion_lat": 0.0, "type": "electric_scooter"}, {"fusion_lon": 0.0, "name": "5f93016f653293ed61500c1be19f9d16", "rental_uris": {"android": "https://dc.lft.to/lastmile_qr_scan", "ios": "https://dc.lft.to/lastmile_qr_scan"}, "lat": 38.90332633333333, "bike_id": "5f93016f653293ed61500c1be19f9d16", "is_disabled": 0, "lon": -76.97617516666666, "is_reserved": 0, "fusion_lat": 0.0, "type": "electric_scooter"}, {"fusion_lon": 0.0, "name": "420a3aa94e17a7462d5c0ebc7247ea05", "rental_uris": {"android": "https://dc.lft.to/lastmile_qr_scan", "ios": "https://dc.lft.to/lastmile_qr_scan"}, "lat": 38.893608666666665, "bike_id": "420a3aa94e17a7462d5c0ebc7247ea05", "is_disabled": 0, "lon": -77.00332483333334, "is_reserved": 0, "fusion_lat": 0.0, "type": "electric_scooter"}, {"fusion_lon": 0.0, "name": "20b5c1839b8871589832f538a5b3bce5", "rental_uris": {"android": "https://dc.lft.to/lastmile_qr_scan", "ios": "https://dc.lft.to/lastmile_qr_scan"}, "lat": 38.8382915, "bike_id": "20b5c1839b8871589832f538a5b3bce5", "is_disabled": 0, "lon": -77.07915883333334, "is_reserved": 0, "fusion_lat": 0.0, "type": "electric_bike"}, {"fusion_lon": 0.0, "name": "98e9e0ba99f88afc3c1fb294131768d5", "rental_uris": {"android": "https://dc.lft.to/lastmile_qr_scan", "ios": "https://dc.lft.to/lastmile_qr_scan"}, "lat": 38.955413166666666, "bike_id": "98e9e0ba99f88afc3c1fb294131768d5", "is_disabled": 0, "lon": -76.99572566666667, "is_reserved": 0, "fusion_lat": 0.0, "type": "electric_scooter"}, {"fusion_lon": 0.0, "name": "b260db0de4bf890e0bf778b0b5f2f2b1", "rental_uris": {"android": "https://dc.lft.to/lastmile_qr_scan", "ios": "https://dc.lft.to/lastmile_qr_scan"}, "lat": 38.924234166666665, "bike_id": "b260db0de4bf890e0bf778b0b5f2f2b1", "is_disabled": 0, "lon": -77.01951, "is_reserved": 0, "fusion_lat": 0.0, "type": "electric_scooter"}, {"fusion_lon": 0.0, "name": "76675445052c5ffd6c6d318bac36c078", "rental_uris": {"android": "https://dc.lft.to/lastmile_qr_scan", "ios": "https://dc.lft.to/lastmile_qr_scan"}, "lat": 38.899950833333335, "bike_id": "76675445052c5ffd6c6d318bac36c078", "is_disabled": 0, "lon": -77.027129, "is_reserved": 0, "fusion_lat": 0.0, "type": "electric_scooter"}, {"fusion_lon": 0.0, "name": "91f792e82bb095ac7e04863979ff6c22", "rental_uris": {"android": "https://dc.lft.to/lastmile_qr_scan", "ios": "https://dc.lft.to/lastmile_qr_scan"}, "lat": 38.91893983333333, "bike_id": "91f792e82bb095ac7e04863979ff6c22", "is_disabled": 0, "lon": -77.10175366666667, "is_reserved": 0, "fusion_lat": 0.0, "type": "electric_bike"}, {"fusion_lon": 0.0, "name": "2a65fe3439362a78aa23ca788ac9f859", "rental_uris": {"android": "https://dc.lft.to/lastmile_qr_scan", "ios": "https://dc.lft.to/lastmile_qr_scan"}, "lat": 38.83583016666667, "bike_id": "2a65fe3439362a78aa23ca788ac9f859", "is_disabled": 0, "lon": -76.99031783333334, "is_reserved": 0, "fusion_lat": 0.0, "type": "electric_bike"}, {"fusion_lon": 0.0, "name": "bae55c5bcbb949a234a3d560da1557a8", "rental_uris": {"android": "https://dc.lft.to/lastmile_qr_scan", "ios": "https://dc.lft.to/lastmile_qr_scan"}, "lat": 38.961196, "bike_id": "bae55c5bcbb949a234a3d560da1557a8", "is_disabled": 0, "lon": -77.02801066666666, "is_reserved": 0, "fusion_lat": 0.0, "type": "electric_scooter"}, {"fusion_lon": 0.0, "name": "662117df145b335529e163d13bef2bcc", "rental_uris": {"android": "https://dc.lft.to/lastmile_qr_scan", "ios": "https://dc.lft.to/lastmile_qr_scan"}, "lat": 38.889874, "bike_id": "662117df145b335529e163d13bef2bcc", "is_disabled": 0, "lon": -77.00316066666667, "is_reserved": 0, "fusion_lat": 0.0, "type": "electric_scooter"}, {"fusion_lon": 0.0, "name": "55483d3961f246986d4e0f111f08dc50", "rental_uris": {"android": "https://dc.lft.to/lastmile_qr_scan", "ios": "https://dc.lft.to/lastmile_qr_scan"}, "lat": 38.93059, "bike_id": "55483d3961f246986d4e0f111f08dc50", "is_disabled": 0, "lon": -77.02786216666667, "is_reserved": 0, "fusion_lat": 0.0, "type": "electric_scooter"}, {"fusion_lon": 0.0, "name": "0eb1a067dc0a0542d1b69998a70b2179", "rental_uris": {"android": "https://dc.lft.to/lastmile_qr_scan", "ios": "https://dc.lft.to/lastmile_qr_scan"}, "lat": 38.92152216666667, "bike_id": "0eb1a067dc0a0542d1b69998a70b2179", "is_disabled": 0, "lon": -77.03534083333334, "is_reserved": 0, "fusion_lat": 0.0, "type": "electric_scooter"}, {"fusion_lon": 0.0, "name": "e951b1b34514af5822d42c5f76129f38", "rental_uris": {"android": "https://dc.lft.to/lastmile_qr_scan", "ios": "https://dc.lft.to/lastmile_qr_scan"}, "lat": 38.91996233333333, "bike_id": "e951b1b34514af5822d42c5f76129f38", "is_disabled": 0, "lon": -76.9839775, "is_reserved": 0, "fusion_lat": 0.0, "type": "electric_scooter"}, {"fusion_lon": 0.0, "name": "94982ed2f9f8db3c8842b7fb3439fa53", "rental_uris": {"android": "https://dc.lft.to/lastmile_qr_scan", "ios": "https://dc.lft.to/lastmile_qr_scan"}, "lat": 38.89957483333333, "bike_id": "94982ed2f9f8db3c8842b7fb3439fa53", "is_disabled": 0, "lon": -77.01511533333333, "is_reserved": 0, "fusion_lat": 0.0, "type": "electric_scooter"}, {"fusion_lon": 0.0, "name": "b7c54a84c3be62f7341c063427321be3", "rental_uris": {"android": "https://dc.lft.to/lastmile_qr_scan", "ios": "https://dc.lft.to/lastmile_qr_scan"}, "lat": 38.90425166666667, "bike_id": "b7c54a84c3be62f7341c063427321be3", "is_disabled": 0, "lon": -77.05024633333333, "is_reserved": 0, "fusion_lat": 0.0, "type": "electric_scooter"}, {"fusion_lon": 0.0, "name": "378ddb81e387b366fddd350a6ba25dbd", "rental_uris": {"android": "https://dc.lft.to/lastmile_qr_scan", "ios": "https://dc.lft.to/lastmile_qr_scan"}, "lat": 38.90162266666667, "bike_id": "378ddb81e387b366fddd350a6ba25dbd", "is_disabled": 0, "lon": -76.97695366666667, "is_reserved": 0, "fusion_lat": 0.0, "type": "electric_bike"}, {"fusion_lon": 0.0, "name": "13f76367ed78d4896f5591f38db42429", "rental_uris": {"android": "https://dc.lft.to/lastmile_qr_scan", "ios": "https://dc.lft.to/lastmile_qr_scan"}, "lat": 38.90655866666667, "bike_id": "13f76367ed78d4896f5591f38db42429", "is_disabled": 0, "lon": -77.07125166666667, "is_reserved": 0, "fusion_lat": 0.0, "type": "electric_scooter"}, {"fusion_lon": 0.0, "name": "e66411638ba3c7bbad77225f4e5421b5", "rental_uris": {"android": "https://dc.lft.to/lastmile_qr_scan", "ios": "https://dc.lft.to/lastmile_qr_scan"}, "lat": 38.8312105, "bike_id": "e66411638ba3c7bbad77225f4e5421b5", "is_disabled": 0, "lon": -77.00144566666667, "is_reserved": 0, "fusion_lat": 0.0, "type": "electric_scooter"}, {"fusion_lon": 0.0, "name": "a4c8614c788983c1443cd72e1a3a7b34", "rental_uris": {"android": "https://dc.lft.to/lastmile_qr_scan", "ios": "https://dc.lft.to/lastmile_qr_scan"}, "lat": 38.84626933333333, "bike_id": "a4c8614c788983c1443cd72e1a3a7b34", "is_disabled": 0, "lon": -76.98124183333333, "is_reserved": 0, "fusion_lat": 0.0, "type": "electric_scooter"}, {"fusion_lon": 0.0, "name": "152a074ef4f45adb9ac1ebf4657f5054", "rental_uris": {"android": "https://dc.lft.to/lastmile_qr_scan", "ios": "https://dc.lft.to/lastmile_qr_scan"}, "lat": 38.8967695, "bike_id": "152a074ef4f45adb9ac1ebf4657f5054", "is_disabled": 0, "lon": -77.04477483333334, "is_reserved": 0, "fusion_lat": 0.0, "type": "electric_scooter"}, {"fusion_lon": 0.0, "name": "07d684d64134b1639c7b74174b3172f9", "rental_uris": {"android": "https://dc.lft.to/lastmile_qr_scan", "ios": "https://dc.lft.to/lastmile_qr_scan"}, "lat": 38.91499016666667, "bike_id": "07d684d64134b1639c7b74174b3172f9", "is_disabled": 0, "lon": -76.98368416666666, "is_reserved": 0, "fusion_lat": 0.0, "type": "electric_scooter"}, {"fusion_lon": 0.0, "name": "b30fd62f98ee258a741f19b555392bd7", "rental_uris": {"android": "https://dc.lft.to/lastmile_qr_scan", "ios": "https://dc.lft.to/lastmile_qr_scan"}, "lat": 38.93336766666667, "bike_id": "b30fd62f98ee258a741f19b555392bd7", "is_disabled": 0, "lon": -77.02851666666666, "is_reserved": 0, "fusion_lat": 0.0, "type": "electric_scooter"}, {"fusion_lon": 0.0, "name": "d611d49cf7dc24881dda4ba07e909e9a", "rental_uris": {"android": "https://dc.lft.to/lastmile_qr_scan", "ios": "https://dc.lft.to/lastmile_qr_scan"}, "lat": 38.88502616666667, "bike_id": "d611d49cf7dc24881dda4ba07e909e9a", "is_disabled": 0, "lon": -77.0159435, "is_reserved": 0, "fusion_lat": 0.0, "type": "electric_scooter"}, {"fusion_lon": 0.0, "name": "18e10e45b784ecf478cd76a2ed1fe3ee", "rental_uris": {"android": "https://dc.lft.to/lastmile_qr_scan", "ios": "https://dc.lft.to/lastmile_qr_scan"}, "lat": 38.9003195, "bike_id": "18e10e45b784ecf478cd76a2ed1fe3ee", "is_disabled": 0, "lon": -76.98839066666666, "is_reserved": 0, "fusion_lat": 0.0, "type": "electric_scooter"}, {"fusion_lon": 0.0, "name": "845df49e4681a517edad552abb6ab2da", "rental_uris": {"android": "https://dc.lft.to/lastmile_qr_scan", "ios": "https://dc.lft.to/lastmile_qr_scan"}, "lat": 38.911188833333334, "bike_id": "845df49e4681a517edad552abb6ab2da", "is_disabled": 0, "lon": -77.0436385, "is_reserved": 0, "fusion_lat": 0.0, "type": "electric_scooter"}, {"fusion_lon": 0.0, "name": "9ef65f4815ad2c74fe69326a942df297", "rental_uris": {"android": "https://dc.lft.to/lastmile_qr_scan", "ios": "https://dc.lft.to/lastmile_qr_scan"}, "lat": 38.894573, "bike_id": "9ef65f4815ad2c74fe69326a942df297", "is_disabled": 0, "lon": -77.03377066666667, "is_reserved": 0, "fusion_lat": 0.0, "type": "electric_scooter"}, {"fusion_lon": 0.0, "name": "4d4b3ff4c145d89690d25f94be9daa24", "rental_uris": {"android": "https://dc.lft.to/lastmile_qr_scan", "ios": "https://dc.lft.to/lastmile_qr_scan"}, "lat": 38.94444633333333, "bike_id": "4d4b3ff4c145d89690d25f94be9daa24", "is_disabled": 0, "lon": -77.02341966666667, "is_reserved": 0, "fusion_lat": 0.0, "type": "electric_scooter"}, {"fusion_lon": 0.0, "name": "253641deecc797ce0fe98e512012862c", "rental_uris": {"android": "https://dc.lft.to/lastmile_qr_scan", "ios": "https://dc.lft.to/lastmile_qr_scan"}, "lat": 38.9034465, "bike_id": "253641deecc797ce0fe98e512012862c", "is_disabled": 0, "lon": -77.06195816666667, "is_reserved": 0, "fusion_lat": 0.0, "type": "electric_scooter"}, {"fusion_lon": 0.0, "name": "a8348439d539522fce54f5a267303951", "rental_uris": {"android": "https://dc.lft.to/lastmile_qr_scan", "ios": "https://dc.lft.to/lastmile_qr_scan"}, "lat": 38.91816166666667, "bike_id": "a8348439d539522fce54f5a267303951", "is_disabled": 0, "lon": -77.037304, "is_reserved": 0, "fusion_lat": 0.0, "type": "electric_scooter"}, {"fusion_lon": 0.0, "name": "56af20633e5cfd2ada960552dbf6d8b8", "rental_uris": {"android": "https://dc.lft.to/lastmile_qr_scan", "ios": "https://dc.lft.to/lastmile_qr_scan"}, "lat": 38.896937333333334, "bike_id": "56af20633e5cfd2ada960552dbf6d8b8", "is_disabled": 0, "lon": -77.0433755, "is_reserved": 0, "fusion_lat": 0.0, "type": "electric_scooter"}, {"fusion_lon": 0.0, "name": "f5150a2b54a38e600535a4dbae8c26ae", "rental_uris": {"android": "https://dc.lft.to/lastmile_qr_scan", "ios": "https://dc.lft.to/lastmile_qr_scan"}, "lat": 38.914029666666664, "bike_id": "f5150a2b54a38e600535a4dbae8c26ae", "is_disabled": 0, "lon": -77.01845366666667, "is_reserved": 0, "fusion_lat": 0.0, "type": "electric_scooter"}, {"fusion_lon": 0.0, "name": "f662b7084c4cb705104e783bed39083d", "rental_uris": {"android": "https://dc.lft.to/lastmile_qr_scan", "ios": "https://dc.lft.to/lastmile_qr_scan"}, "lat": 38.926105666666665, "bike_id": "f662b7084c4cb705104e783bed39083d", "is_disabled": 0, "lon": -77.02160983333333, "is_reserved": 0, "fusion_lat": 0.0, "type": "electric_scooter"}, {"fusion_lon": 0.0, "name": "1831a14a8312f52495d41c5f82ea99f3", "rental_uris": {"android": "https://dc.lft.to/lastmile_qr_scan", "ios": "https://dc.lft.to/lastmile_qr_scan"}, "lat": 38.924675666666666, "bike_id": "1831a14a8312f52495d41c5f82ea99f3", "is_disabled": 0, "lon": -77.0523935, "is_reserved": 0, "fusion_lat": 0.0, "type": "electric_scooter"}, {"fusion_lon": 0.0, "name": "c1b1b034c3d0066a2c06622371b1eac5", "rental_uris": {"android": "https://dc.lft.to/lastmile_qr_scan", "ios": "https://dc.lft.to/lastmile_qr_scan"}, "lat": 38.93292, "bike_id": "c1b1b034c3d0066a2c06622371b1eac5", "is_disabled": 0, "lon": -77.08529666666666, "is_reserved": 0, "fusion_lat": 0.0, "type": "electric_scooter"}, {"fusion_lon": 0.0, "name": "0031248426d65d0ea03801d8a0ce7446", "rental_uris": {"android": "https://dc.lft.to/lastmile_qr_scan", "ios": "https://dc.lft.to/lastmile_qr_scan"}, "lat": 38.894544333333336, "bike_id": "0031248426d65d0ea03801d8a0ce7446", "is_disabled": 0, "lon": -77.02111666666667, "is_reserved": 0, "fusion_lat": 0.0, "type": "electric_scooter"}, {"fusion_lon": 0.0, "name": "a4960afc8a1083d8076d2bd8579541e5", "rental_uris": {"android": "https://dc.lft.to/lastmile_qr_scan", "ios": "https://dc.lft.to/lastmile_qr_scan"}, "lat": 38.92450083333333, "bike_id": "a4960afc8a1083d8076d2bd8579541e5", "is_disabled": 0, "lon": -77.02021233333333, "is_reserved": 0, "fusion_lat": 0.0, "type": "electric_scooter"}, {"fusion_lon": 0.0, "name": "e2b092af71430c8765a5dfd6b18d5794", "rental_uris": {"android": "https://dc.lft.to/lastmile_qr_scan", "ios": "https://dc.lft.to/lastmile_qr_scan"}, "lat": 38.92510766666667, "bike_id": "e2b092af71430c8765a5dfd6b18d5794", "is_disabled": 0, "lon": -76.9957425, "is_reserved": 0, "fusion_lat": 0.0, "type": "electric_scooter"}, {"fusion_lon": 0.0, "name": "513b57d145315c271b7818ecf7da69e5", "rental_uris": {"android": "https://dc.lft.to/lastmile_qr_scan", "ios": "https://dc.lft.to/lastmile_qr_scan"}, "lat": 38.906978, "bike_id": "513b57d145315c271b7818ecf7da69e5", "is_disabled": 0, "lon": -77.02700883333333, "is_reserved": 0, "fusion_lat": 0.0, "type": "electric_scooter"}, {"fusion_lon": 0.0, "name": "61de6d1a117f377abb159fe76c5913de", "rental_uris": {"android": "https://dc.lft.to/lastmile_qr_scan", "ios": "https://dc.lft.to/lastmile_qr_scan"}, "lat": 38.904367666666666, "bike_id": "61de6d1a117f377abb159fe76c5913de", "is_disabled": 0, "lon": -77.04664366666667, "is_reserved": 0, "fusion_lat": 0.0, "type": "electric_scooter"}, {"fusion_lon": 0.0, "name": "ef520a105d763b016c9891983f9c5acf", "rental_uris": {"android": "https://dc.lft.to/lastmile_qr_scan", "ios": "https://dc.lft.to/lastmile_qr_scan"}, "lat": 38.928504333333336, "bike_id": "ef520a105d763b016c9891983f9c5acf", "is_disabled": 0, "lon": -77.0542885, "is_reserved": 0, "fusion_lat": 0.0, "type": "electric_scooter"}, {"fusion_lon": 0.0, "name": "c1bf44155f8b0dc10f12345092ca7ca7", "rental_uris": {"android": "https://dc.lft.to/lastmile_qr_scan", "ios": "https://dc.lft.to/lastmile_qr_scan"}, "lat": 38.87658866666666, "bike_id": "c1bf44155f8b0dc10f12345092ca7ca7", "is_disabled": 0, "lon": -76.99324383333334, "is_reserved": 0, "fusion_lat": 0.0, "type": "electric_scooter"}, {"fusion_lon": 0.0, "name": "0796f39fd425b9e7cce22ff1b20bf899", "rental_uris": {"android": "https://dc.lft.to/lastmile_qr_scan", "ios": "https://dc.lft.to/lastmile_qr_scan"}, "lat": 38.88602816666667, "bike_id": "0796f39fd425b9e7cce22ff1b20bf899", "is_disabled": 0, "lon": -77.045095, "is_reserved": 0, "fusion_lat": 0.0, "type": "electric_scooter"}, {"fusion_lon": 0.0, "name": "8e57e8bb3cf9e83de9307ab40a88dcd1", "rental_uris": {"android": "https://dc.lft.to/lastmile_qr_scan", "ios": "https://dc.lft.to/lastmile_qr_scan"}, "lat": 38.95775366666667, "bike_id": "8e57e8bb3cf9e83de9307ab40a88dcd1", "is_disabled": 0, "lon": -77.02465433333333, "is_reserved": 0, "fusion_lat": 0.0, "type": "electric_scooter"}, {"fusion_lon": 0.0, "name": "673c43cba8cad87917763fc60fd907a8", "rental_uris": {"android": "https://dc.lft.to/lastmile_qr_scan", "ios": "https://dc.lft.to/lastmile_qr_scan"}, "lat": 38.89714716666667, "bike_id": "673c43cba8cad87917763fc60fd907a8", "is_disabled": 0, "lon": -77.03152683333333, "is_reserved": 0, "fusion_lat": 0.0, "type": "electric_scooter"}, {"fusion_lon": 0.0, "name": "90ef0e07e0fe729d1399d89607a668a9", "rental_uris": {"android": "https://dc.lft.to/lastmile_qr_scan", "ios": "https://dc.lft.to/lastmile_qr_scan"}, "lat": 38.89848416666667, "bike_id": "90ef0e07e0fe729d1399d89607a668a9", "is_disabled": 0, "lon": -77.02215216666667, "is_reserved": 0, "fusion_lat": 0.0, "type": "electric_scooter"}, {"fusion_lon": 0.0, "name": "c4b7638b62d41d7f89180522e0046eb6", "rental_uris": {"android": "https://dc.lft.to/lastmile_qr_scan", "ios": "https://dc.lft.to/lastmile_qr_scan"}, "lat": 38.8632955, "bike_id": "c4b7638b62d41d7f89180522e0046eb6", "is_disabled": 0, "lon": -76.98696166666667, "is_reserved": 0, "fusion_lat": 0.0, "type": "electric_bike"}, {"fusion_lon": 0.0, "name": "7cc1b97d4f194a960a73e4fea8b4c478", "rental_uris": {"android": "https://dc.lft.to/lastmile_qr_scan", "ios": "https://dc.lft.to/lastmile_qr_scan"}, "lat": 38.9186065, "bike_id": "7cc1b97d4f194a960a73e4fea8b4c478", "is_disabled": 0, "lon": -77.0318745, "is_reserved": 0, "fusion_lat": 0.0, "type": "electric_scooter"}, {"fusion_lon": 0.0, "name": "a59b0e04bf72384696a2b5062818f77a", "rental_uris": {"android": "https://dc.lft.to/lastmile_qr_scan", "ios": "https://dc.lft.to/lastmile_qr_scan"}, "lat": 38.92389516666667, "bike_id": "a59b0e04bf72384696a2b5062818f77a", "is_disabled": 0, "lon": -77.02133, "is_reserved": 0, "fusion_lat": 0.0, "type": "electric_scooter"}, {"fusion_lon": 0.0, "name": "c1cf524484595deb92b5087641782a86", "rental_uris": {"android": "https://dc.lft.to/lastmile_qr_scan", "ios": "https://dc.lft.to/lastmile_qr_scan"}, "lat": 38.887252, "bike_id": "c1cf524484595deb92b5087641782a86", "is_disabled": 0, "lon": -76.98377483333333, "is_reserved": 0, "fusion_lat": 0.0, "type": "electric_scooter"}, {"fusion_lon": 0.0, "name": "09081e8cd2017e3035d90605ce6c6415", "rental_uris": {"android": "https://dc.lft.to/lastmile_qr_scan", "ios": "https://dc.lft.to/lastmile_qr_scan"}, "lat": 38.97254783333333, "bike_id": "09081e8cd2017e3035d90605ce6c6415", "is_disabled": 0, "lon": -76.99281683333334, "is_reserved": 0, "fusion_lat": 0.0, "type": "electric_bike"}, {"fusion_lon": 0.0, "name": "677b1ae0aa3e4fca3a856f370b1afd3f", "rental_uris": {"android": "https://dc.lft.to/lastmile_qr_scan", "ios": "https://dc.lft.to/lastmile_qr_scan"}, "lat": 38.894851, "bike_id": "677b1ae0aa3e4fca3a856f370b1afd3f", "is_disabled": 0, "lon": -77.01909566666667, "is_reserved": 0, "fusion_lat": 0.0, "type": "electric_scooter"}, {"fusion_lon": 0.0, "name": "97aa6961f5b281447511bdb58927795a", "rental_uris": {"android": "https://dc.lft.to/lastmile_qr_scan", "ios": "https://dc.lft.to/lastmile_qr_scan"}, "lat": 38.915216666666666, "bike_id": "97aa6961f5b281447511bdb58927795a", "is_disabled": 0, "lon": -77.02193583333333, "is_reserved": 0, "fusion_lat": 0.0, "type": "electric_scooter"}, {"fusion_lon": 0.0, "name": "1e281b66b906105da7e2d5cd6bd8f3bc", "rental_uris": {"android": "https://dc.lft.to/lastmile_qr_scan", "ios": "https://dc.lft.to/lastmile_qr_scan"}, "lat": 38.9006905, "bike_id": "1e281b66b906105da7e2d5cd6bd8f3bc", "is_disabled": 0, "lon": -77.0491095, "is_reserved": 0, "fusion_lat": 0.0, "type": "electric_scooter"}, {"fusion_lon": 0.0, "name": "d0bdf2a04d66f6fe1ea9fbf8841ba4eb", "rental_uris": {"android": "https://dc.lft.to/lastmile_qr_scan", "ios": "https://dc.lft.to/lastmile_qr_scan"}, "lat": 38.90880683333334, "bike_id": "d0bdf2a04d66f6fe1ea9fbf8841ba4eb", "is_disabled": 0, "lon": -77.07530733333333, "is_reserved": 0, "fusion_lat": 0.0, "type": "electric_scooter"}, {"fusion_lon": 0.0, "name": "055d7faa18a1a2ccfa13e6d5c5c11ee1", "rental_uris": {"android": "https://dc.lft.to/lastmile_qr_scan", "ios": "https://dc.lft.to/lastmile_qr_scan"}, "lat": 38.92025, "bike_id": "055d7faa18a1a2ccfa13e6d5c5c11ee1", "is_disabled": 0, "lon": -77.0181265, "is_reserved": 0, "fusion_lat": 0.0, "type": "electric_scooter"}, {"fusion_lon": 0.0, "name": "72ad1ddd56a4d803ff5291711134bb3e", "rental_uris": {"android": "https://dc.lft.to/lastmile_qr_scan", "ios": "https://dc.lft.to/lastmile_qr_scan"}, "lat": 38.9244215, "bike_id": "72ad1ddd56a4d803ff5291711134bb3e", "is_disabled": 0, "lon": -77.0202475, "is_reserved": 0, "fusion_lat": 0.0, "type": "electric_scooter"}, {"fusion_lon": 0.0, "name": "792d85871e77e17972116001249c4b16", "rental_uris": {"android": "https://dc.lft.to/lastmile_qr_scan", "ios": "https://dc.lft.to/lastmile_qr_scan"}, "lat": 38.84216083333333, "bike_id": "792d85871e77e17972116001249c4b16", "is_disabled": 0, "lon": -76.94900133333333, "is_reserved": 0, "fusion_lat": 0.0, "type": "electric_bike"}, {"fusion_lon": 0.0, "name": "982b167f292430b721cdcaf1947b7730", "rental_uris": {"android": "https://dc.lft.to/lastmile_qr_scan", "ios": "https://dc.lft.to/lastmile_qr_scan"}, "lat": 38.900909666666664, "bike_id": "982b167f292430b721cdcaf1947b7730", "is_disabled": 0, "lon": -77.0270655, "is_reserved": 0, "fusion_lat": 0.0, "type": "electric_scooter"}, {"fusion_lon": 0.0, "name": "2089552488003c2b7a41a9c809ed2a6b", "rental_uris": {"android": "https://dc.lft.to/lastmile_qr_scan", "ios": "https://dc.lft.to/lastmile_qr_scan"}, "lat": 38.9035245, "bike_id": "2089552488003c2b7a41a9c809ed2a6b", "is_disabled": 0, "lon": -77.05034883333333, "is_reserved": 0, "fusion_lat": 0.0, "type": "electric_scooter"}, {"fusion_lon": 0.0, "name": "08a635a539865286f8961e0322f4f2eb", "rental_uris": {"android": "https://dc.lft.to/lastmile_qr_scan", "ios": "https://dc.lft.to/lastmile_qr_scan"}, "lat": 38.949649, "bike_id": "08a635a539865286f8961e0322f4f2eb", "is_disabled": 0, "lon": -77.02345766666667, "is_reserved": 0, "fusion_lat": 0.0, "type": "electric_scooter"}, {"fusion_lon": 0.0, "name": "a4b986e9395a1f3ebb7bd83dd25cd771", "rental_uris": {"android": "https://dc.lft.to/lastmile_qr_scan", "ios": "https://dc.lft.to/lastmile_qr_scan"}, "lat": 38.926198, "bike_id": "a4b986e9395a1f3ebb7bd83dd25cd771", "is_disabled": 0, "lon": -77.03298733333334, "is_reserved": 0, "fusion_lat": 0.0, "type": "electric_scooter"}, {"fusion_lon": 0.0, "name": "a5f2e82359abe4874bf8f4803c7fe5de", "rental_uris": {"android": "https://dc.lft.to/lastmile_qr_scan", "ios": "https://dc.lft.to/lastmile_qr_scan"}, "lat": 38.91567883333333, "bike_id": "a5f2e82359abe4874bf8f4803c7fe5de", "is_disabled": 0, "lon": -77.01972816666667, "is_reserved": 0, "fusion_lat": 0.0, "type": "electric_scooter"}, {"fusion_lon": 0.0, "name": "b236722b986d73e82f2dd85c8c1af03a", "rental_uris": {"android": "https://dc.lft.to/lastmile_qr_scan", "ios": "https://dc.lft.to/lastmile_qr_scan"}, "lat": 38.901031, "bike_id": "b236722b986d73e82f2dd85c8c1af03a", "is_disabled": 0, "lon": -77.03983883333333, "is_reserved": 0, "fusion_lat": 0.0, "type": "electric_scooter"}, {"fusion_lon": 0.0, "name": "0e2088ce8c9b7e8beee1dd52a8525199", "rental_uris": {"android": "https://dc.lft.to/lastmile_qr_scan", "ios": "https://dc.lft.to/lastmile_qr_scan"}, "lat": 38.96618866666667, "bike_id": "0e2088ce8c9b7e8beee1dd52a8525199", "is_disabled": 0, "lon": -77.03431183333333, "is_reserved": 0, "fusion_lat": 0.0, "type": "electric_bike"}, {"fusion_lon": 0.0, "name": "145cbc9940427de4235c1fca79c41128", "rental_uris": {"android": "https://dc.lft.to/lastmile_qr_scan", "ios": "https://dc.lft.to/lastmile_qr_scan"}, "lat": 38.905588, "bike_id": "145cbc9940427de4235c1fca79c41128", "is_disabled": 0, "lon": -77.04200833333333, "is_reserved": 0, "fusion_lat": 0.0, "type": "electric_scooter"}, {"fusion_lon": 0.0, "name": "b9223d86dff8504ad1a2e180c587ec9b", "rental_uris": {"android": "https://dc.lft.to/lastmile_qr_scan", "ios": "https://dc.lft.to/lastmile_qr_scan"}, "lat": 38.924451833333336, "bike_id": "b9223d86dff8504ad1a2e180c587ec9b", "is_disabled": 0, "lon": -77.01952916666667, "is_reserved": 0, "fusion_lat": 0.0, "type": "electric_scooter"}, {"fusion_lon": 0.0, "name": "6ac86631ae80061601c102790bef5592", "rental_uris": {"android": "https://dc.lft.to/lastmile_qr_scan", "ios": "https://dc.lft.to/lastmile_qr_scan"}, "lat": 38.89733733333333, "bike_id": "6ac86631ae80061601c102790bef5592", "is_disabled": 0, "lon": -77.0459415, "is_reserved": 0, "fusion_lat": 0.0, "type": "electric_scooter"}, {"fusion_lon": 0.0, "name": "164c39d4eafb481b6b965198b45a2d2c", "rental_uris": {"android": "https://dc.lft.to/lastmile_qr_scan", "ios": "https://dc.lft.to/lastmile_qr_scan"}, "lat": 38.893980666666664, "bike_id": "164c39d4eafb481b6b965198b45a2d2c", "is_disabled": 0, "lon": -77.03162783333333, "is_reserved": 0, "fusion_lat": 0.0, "type": "electric_scooter"}, {"fusion_lon": 0.0, "name": "896de36b28060cd371c45e7a4a490b71", "rental_uris": {"android": "https://dc.lft.to/lastmile_qr_scan", "ios": "https://dc.lft.to/lastmile_qr_scan"}, "lat": 38.90035916666667, "bike_id": "896de36b28060cd371c45e7a4a490b71", "is_disabled": 0, "lon": -76.99839566666667, "is_reserved": 0, "fusion_lat": 0.0, "type": "electric_scooter"}, {"fusion_lon": 0.0, "name": "e5d84fe0bd41feb8ff849256c136c3ee", "rental_uris": {"android": "https://dc.lft.to/lastmile_qr_scan", "ios": "https://dc.lft.to/lastmile_qr_scan"}, "lat": 38.89171966666667, "bike_id": "e5d84fe0bd41feb8ff849256c136c3ee", "is_disabled": 0, "lon": -76.94259, "is_reserved": 0, "fusion_lat": 0.0, "type": "electric_scooter"}, {"fusion_lon": 0.0, "name": "34c6e1259c85df1cd39254f8207627cc", "rental_uris": {"android": "https://dc.lft.to/lastmile_qr_scan", "ios": "https://dc.lft.to/lastmile_qr_scan"}, "lat": 38.894813166666665, "bike_id": "34c6e1259c85df1cd39254f8207627cc", "is_disabled": 0, "lon": -76.9958145, "is_reserved": 0, "fusion_lat": 0.0, "type": "electric_scooter"}, {"fusion_lon": 0.0, "name": "4e68821bfce0e8b4a831aa1903e1a194", "rental_uris": {"android": "https://dc.lft.to/lastmile_qr_scan", "ios": "https://dc.lft.to/lastmile_qr_scan"}, "lat": 38.923706333333335, "bike_id": "4e68821bfce0e8b4a831aa1903e1a194", "is_disabled": 0, "lon": -77.01954966666666, "is_reserved": 0, "fusion_lat": 0.0, "type": "electric_scooter"}, {"fusion_lon": 0.0, "name": "38e931128df894743ceb2e91e03d50ff", "rental_uris": {"android": "https://dc.lft.to/lastmile_qr_scan", "ios": "https://dc.lft.to/lastmile_qr_scan"}, "lat": 38.935222833333334, "bike_id": "38e931128df894743ceb2e91e03d50ff", "is_disabled": 0, "lon": -77.0326285, "is_reserved": 0, "fusion_lat": 0.0, "type": "electric_scooter"},