{"data": {"bikes": [{"lon": -77.043159, "bike_id": "19aebe85fdf0bc5f165fe09ca0b1342c", "lat": 38.91881566666667, "fusion_lon": 0.0, "fusion_lat": 0.0, "type": "electric_scooter", "name": "19aebe85fdf0bc5f165fe09ca0b1342c", "is_disabled": 0, "rental_uris": {"ios": "https://dc.lft.to/lastmile_qr_scan", "android": "https://dc.lft.to/lastmile_qr_scan"}, "is_reserved": 0}, {"lon": -77.038951, "bike_id": "3a7151df391ae3a03125709a5e62fb05", "lat": 38.907007666666665, "fusion_lon": 0.0, "fusion_lat": 0.0, "type": "electric_scooter", "name": "3a7151df391ae3a03125709a5e62fb05", "is_disabled": 0, "rental_uris": {"ios": "https://dc.lft.to/lastmile_qr_scan", "android": "https://dc.lft.to/lastmile_qr_scan"}, "is_reserved": 0}, {"lon": -77.02382983333334, "bike_id": "9406b28a8634cf328df01de76dc6042a", "lat": 38.9063825, "fusion_lon": 0.0, "fusion_lat": 0.0, "type": "electric_scooter", "name": "9406b28a8634cf328df01de76dc6042a", "is_disabled": 0, "rental_uris": {"ios": "https://dc.lft.to/lastmile_qr_scan", "android": "https://dc.lft.to/lastmile_qr_scan"}, "is_reserved": 0}, {"lon": -77.01980783333333, "bike_id": "3343ad567f2912502fd69ab92677d680", "lat": 38.89528033333333, "fusion_lon": 0.0, "fusion_lat": 0.0, "type": "electric_scooter", "name": "3343ad567f2912502fd69ab92677d680", "is_disabled": 0, "rental_uris": {"ios": "https://dc.lft.to/lastmile_qr_scan", "android": "https://dc.lft.to/lastmile_qr_scan"}, "is_reserved": 0}, {"lon": -76.98509166666666, "bike_id": "b0fc9acc00fed876420b922a2dfdcd7d", "lat": 38.9034165, "fusion_lon": 0.0, "fusion_lat": 0.0, "type": "electric_scooter", "name": "b0fc9acc00fed876420b922a2dfdcd7d", "is_disabled": 0, "rental_uris": {"ios": "https://dc.lft.to/lastmile_qr_scan", "android": "https://dc.lft.to/lastmile_qr_scan"}, "is_reserved": 0}, {"lon": -77.02446183333333, "bike_id": "f520187f530364080ee172a47664a7d3", "lat": 38.937122333333335, "fusion_lon": 0.0, "fusion_lat": 0.0, "type": "electric_scooter", "name": "f520187f530364080ee172a47664a7d3", "is_disabled": 0, "rental_uris": {"ios": "https://dc.lft.to/lastmile_qr_scan", "android": "https://dc.lft.to/lastmile_qr_scan"}, "is_reserved": 0}, {"lon": -77.020919, "bike_id": "28a93bf1346072e5ef4feb7ba5fe22a9", "lat": 38.88186833333334, "fusion_lon": 0.0, "fusion_lat": 0.0, "type": "electric_scooter", "name": "28a93bf1346072e5ef4feb7ba5fe22a9", "is_disabled": 0, "rental_uris": {"ios": "https://dc.lft.to/lastmile_qr_scan", "android": "https://dc.lft.to/lastmile_qr_scan"}, "is_reserved": 0}, {"lon": -77.02483916666667, "bike_id": "615dae1b1e9dfa093cc3fb6a30496127", "lat": 38.88012666666667, "fusion_lon": 0.0, "fusion_lat": 0.0, "type": "electric_scooter", "name": "615dae1b1e9dfa093cc3fb6a30496127", "is_disabled": 0, "rental_uris": {"ios": "https://dc.lft.to/lastmile_qr_scan", "android": "https://dc.lft.to/lastmile_qr_scan"}, "is_reserved": 0}, {"lon": -77.0404225, "bike_id": "35915d50aa686253fd014c69352a90a2", "lat": 38.91265416666667, "fusion_lon": 0.0, "fusion_lat": 0.0, "type": "electric_scooter", "name": "35915d50aa686253fd014c69352a90a2", "is_disabled": 0, "rental_uris": {"ios": "https://dc.lft.to/lastmile_qr_scan", "android": "https://dc.lft.to/lastmile_qr_scan"}, "is_reserved": 0}, {"lon": -77.0346295, "bike_id": "4bae189e62dd43542e94479ad605bd0e", "lat": 38.91667016666667, "fusion_lon": 0.0, "fusion_lat": 0.0, "type": "electric_scooter", "name": "4bae189e62dd43542e94479ad605bd0e", "is_disabled": 0, "rental_uris": {"ios": "https://dc.lft.to/lastmile_qr_scan", "android": "https://dc.lft.to/lastmile_qr_scan"}, "is_reserved": 0}, {"lon": -77.02315166666666, "bike_id": "277e6949559717e7cd4e557ae8dd5a08", "lat": 38.955233, "fusion_lon": 0.0, "fusion_lat": 0.0, "type": "electric_scooter", "name": "277e6949559717e7cd4e557ae8dd5a08", "is_disabled": 0, "rental_uris": {"ios": "https://dc.lft.to/lastmile_qr_scan", "android": "https://dc.lft.to/lastmile_qr_scan"}, "is_reserved": 0}, {"lon": -76.94571516666667, "bike_id": "c95d6e4ed6ffdb62427230c9c15e2de6", "lat": 38.93747, "fusion_lon": 0.0, "fusion_lat": 0.0, "type": "electric_bike", "name": "c95d6e4ed6ffdb62427230c9c15e2de6", "is_disabled": 0, "rental_uris": {"ios": "https://dc.lft.to/lastmile_qr_scan", "android": "https://dc.lft.to/lastmile_qr_scan"}, "is_reserved": 0}, {"lon": -77.03330783333334, "bike_id": "b0640fa40ffa651c387121fb4b876a9c", "lat": 38.94717083333333, "fusion_lon": 0.0, "fusion_lat": 0.0, "type": "electric_scooter", "name": "b0640fa40ffa651c387121fb4b876a9c", "is_disabled": 0, "rental_uris": {"ios": "https://dc.lft.to/lastmile_qr_scan", "android": "https://dc.lft.to/lastmile_qr_scan"}, "is_reserved": 0}, {"lon": -77.0052905, "bike_id": "42bd829e5b6cb17f1c2acd0e167f01e2", "lat": 38.879309666666664, "fusion_lon": 0.0, "fusion_lat": 0.0, "type": "electric_scooter", "name": "42bd829e5b6cb17f1c2acd0e167f01e2", "is_disabled": 0, "rental_uris": {"ios": "https://dc.lft.to/lastmile_qr_scan", "android": "https://dc.lft.to/lastmile_qr_scan"}, "is_reserved": 0}, {"lon": -77.01136916666667, "bike_id": "21d3d2295c18921f9f9e5a47497bfb2d", "lat": 38.91247166666667, "fusion_lon": 0.0, "fusion_lat": 0.0, "type": "electric_scooter", "name": "21d3d2295c18921f9f9e5a47497bfb2d", "is_disabled": 0, "rental_uris": {"ios": "https://dc.lft.to/lastmile_qr_scan", "android": "https://dc.lft.to/lastmile_qr_scan"}, "is_reserved": 0}, {"lon": -76.95194833333333, "bike_id": "7916e6798750353797fd877277a56c08", "lat": 38.90003216666667, "fusion_lon": 0.0, "fusion_lat": 0.0, "type": "electric_scooter", "name": "7916e6798750353797fd877277a56c08", "is_disabled": 0, "rental_uris": {"ios": "https://dc.lft.to/lastmile_qr_scan", "android": "https://dc.lft.to/lastmile_qr_scan"}, "is_reserved": 0}, {"lon": -77.00505133333333, "bike_id": "27409955d4daf7216520d2af55afa244", "lat": 38.91688833333333, "fusion_lon": 0.0, "fusion_lat": 0.0, "type": "electric_scooter", "name": "27409955d4daf7216520d2af55afa244", "is_disabled": 0, "rental_uris": {"ios": "https://dc.lft.to/lastmile_qr_scan", "android": "https://dc.lft.to/lastmile_qr_scan"}, "is_reserved": 0}, {"lon": -77.041881, "bike_id": "9f509749ed16ef60c0a66c3db2082dea", "lat": 38.926195666666665, "fusion_lon": 0.0, "fusion_lat": 0.0, "type": "electric_scooter", "name": "9f509749ed16ef60c0a66c3db2082dea", "is_disabled": 0, "rental_uris": {"ios": "https://dc.lft.to/lastmile_qr_scan", "android": "https://dc.lft.to/lastmile_qr_scan"}, "is_reserved": 0}, {"lon": -76.93372116666667, "bike_id": "9f03bf310ebef00c049b3ee7b212d229", "lat": 38.899116666666664, "fusion_lon": 0.0, "fusion_lat": 0.0, "type": "electric_scooter", "name": "9f03bf310ebef00c049b3ee7b212d229", "is_disabled": 0, "rental_uris": {"ios": "https://dc.lft.to/lastmile_qr_scan", "android": "https://dc.lft.to/lastmile_qr_scan"}, "is_reserved": 0}, {"lon": -77.04833816666667, "bike_id": "07955d1a79e9ee42650d56647a10edfe", "lat": 38.9188435, "fusion_lon": 0.0, "fusion_lat": 0.0, "type": "electric_scooter", "name": "07955d1a79e9ee42650d56647a10edfe", "is_disabled": 0, "rental_uris": {"ios": "https://dc.lft.to/lastmile_qr_scan", "android": "https://dc.lft.to/lastmile_qr_scan"}, "is_reserved": 0}, {"lon": -77.04125133333334, "bike_id": "1d020a5f56f3a24553bf9e6d30016904", "lat": 38.92539633333333, "fusion_lon": 0.0, "fusion_lat": 0.0, "type": "electric_scooter", "name": "1d020a5f56f3a24553bf9e6d30016904", "is_disabled": 0, "rental_uris": {"ios": "https://dc.lft.to/lastmile_qr_scan", "android": "https://dc.lft.to/lastmile_qr_scan"}, "is_reserved": 0}, {"lon": -77.041056, "bike_id": "930c3f5b271fd9d287e1753170cd6e86", "lat": 38.91853616666667, "fusion_lon": 0.0, "fusion_lat": 0.0, "type": "electric_scooter", "name": "930c3f5b271fd9d287e1753170cd6e86", "is_disabled": 0, "rental_uris": {"ios": "https://dc.lft.to/lastmile_qr_scan", "android": "https://dc.lft.to/lastmile_qr_scan"}, "is_reserved": 0}, {"lon": -77.02372333333334, "bike_id": "8141b5873eef5d47318c2030f6ab0e71", "lat": 38.918245166666665, "fusion_lon": 0.0, "fusion_lat": 0.0, "type": "electric_scooter", "name": "8141b5873eef5d47318c2030f6ab0e71", "is_disabled": 0, "rental_uris": {"ios": "https://dc.lft.to/lastmile_qr_scan", "android": "https://dc.lft.to/lastmile_qr_scan"}, "is_reserved": 0}, {"lon": -77.02965283333333, "bike_id": "bf565a0a2755741ade19d47f0052ce0e", "lat": 38.925676, "fusion_lon": 0.0, "fusion_lat": 0.0, "type": "electric_scooter", "name": "bf565a0a2755741ade19d47f0052ce0e", "is_disabled": 0, "rental_uris": {"ios": "https://dc.lft.to/lastmile_qr_scan", "android": "https://dc.lft.to/lastmile_qr_scan"}, "is_reserved": 0}, {"lon": -76.99840683333333, "bike_id": "12bf0e3b23fa64165166ca02578865f1", "lat": 38.90237916666667, "fusion_lon": 0.0, "fusion_lat": 0.0, "type": "electric_scooter", "name": "12bf0e3b23fa64165166ca02578865f1", "is_disabled": 0, "rental_uris": {"ios": "https://dc.lft.to/lastmile_qr_scan", "android": "https://dc.lft.to/lastmile_qr_scan"}, "is_reserved": 0}, {"lon": -77.03833616666667, "bike_id": "9b73f1c10c81315addc97108bc53579a", "lat": 38.90788533333333, "fusion_lon": 0.0, "fusion_lat": 0.0, "type": "electric_scooter", "name": "9b73f1c10c81315addc97108bc53579a", "is_disabled": 0, "rental_uris": {"ios": "https://dc.lft.to/lastmile_qr_scan", "android": "https://dc.lft.to/lastmile_qr_scan"}, "is_reserved": 0}, {"lon": -77.00542466666667, "bike_id": "8d879b6839a24dcf35fa7ec67a60a8b9", "lat": 38.87862716666667, "fusion_lon": 0.0, "fusion_lat": 0.0, "type": "electric_scooter", "name": "8d879b6839a24dcf35fa7ec67a60a8b9", "is_disabled": 0, "rental_uris": {"ios": "https://dc.lft.to/lastmile_qr_scan", "android": "https://dc.lft.to/lastmile_qr_scan"}, "is_reserved": 0}, {"lon": -77.034835, "bike_id": "bd535ac33fafc596c228923488b1138d", "lat": 38.928682, "fusion_lon": 0.0, "fusion_lat": 0.0, "type": "electric_scooter", "name": "bd535ac33fafc596c228923488b1138d", "is_disabled": 0, "rental_uris": {"ios": "https://dc.lft.to/lastmile_qr_scan", "android": "https://dc.lft.to/lastmile_qr_scan"}, "is_reserved": 0}, {"lon": -76.93175616666667, "bike_id": "2d93488aa146fe2578a1ba2c482e303a", "lat": 38.898832666666664, "fusion_lon": 0.0, "fusion_lat": 0.0, "type": "electric_scooter", "name": "2d93488aa146fe2578a1ba2c482e303a", "is_disabled": 0, "rental_uris": {"ios": "https://dc.lft.to/lastmile_qr_scan", "android": "https://dc.lft.to/lastmile_qr_scan"}, "is_reserved": 0}, {"lon": -76.94959766666666, "bike_id": "661d0ece4da4ed5ba84f307890acbd3f", "lat": 38.89438416666667, "fusion_lon": 0.0, "fusion_lat": 0.0, "type": "electric_scooter", "name": "661d0ece4da4ed5ba84f307890acbd3f", "is_disabled": 0, "rental_uris": {"ios": "https://dc.lft.to/lastmile_qr_scan", "android": "https://dc.lft.to/lastmile_qr_scan"}, "is_reserved": 0}, {"lon": -76.994714, "bike_id": "0c2af36410593f647862c32eafaffdc8", "lat": 38.862150166666666, "fusion_lon": 0.0, "fusion_lat": 0.0, "type": "electric_scooter", "name": "0c2af36410593f647862c32eafaffdc8", "is_disabled": 0, "rental_uris": {"ios": "https://dc.lft.to/lastmile_qr_scan", "android": "https://dc.lft.to/lastmile_qr_scan"}, "is_reserved": 0}, {"lon": -77.04721233333333, "bike_id": "2a1bedae6da4e5c6b428016627c29391", "lat": 38.922274333333334, "fusion_lon": 0.0, "fusion_lat": 0.0, "type": "electric_scooter", "name": "2a1bedae6da4e5c6b428016627c29391", "is_disabled": 0, "rental_uris": {"ios": "https://dc.lft.to/lastmile_qr_scan", "android": "https://dc.lft.to/lastmile_qr_scan"}, "is_reserved": 0}, {"lon": -76.98089816666666, "bike_id": "2d5e3e57a9ff3bb550b7396a4240c9e5", "lat": 38.881333166666664, "fusion_lon": 0.0, "fusion_lat": 0.0, "type": "electric_bike", "name": "2d5e3e57a9ff3bb550b7396a4240c9e5", "is_disabled": 0, "rental_uris": {"ios": "https://dc.lft.to/lastmile_qr_scan", "android": "https://dc.lft.to/lastmile_qr_scan"}, "is_reserved": 0}, {"lon": -77.04651333333334, "bike_id": "72fa6d81d64bcd6f0b965a577294e66b", "lat": 38.9096785, "fusion_lon": 0.0, "fusion_lat": 0.0, "type": "electric_scooter", "name": "72fa6d81d64bcd6f0b965a577294e66b", "is_disabled": 0, "rental_uris": {"ios": "https://dc.lft.to/lastmile_qr_scan", "android": "https://dc.lft.to/lastmile_qr_scan"}, "is_reserved": 0}, {"lon": -76.93734083333334, "bike_id": "d52dd6e869b097ef3217335a0bdb8327", "lat": 38.89002966666666, "fusion_lon": 0.0, "fusion_lat": 0.0, "type": "electric_scooter", "name": "d52dd6e869b097ef3217335a0bdb8327", "is_disabled": 0, "rental_uris": {"ios": "https://dc.lft.to/lastmile_qr_scan", "android": "https://dc.lft.to/lastmile_qr_scan"}, "is_reserved": 0}, {"lon": -77.00106116666667, "bike_id": "62ac505a8a1a1aed9dfd02df7e17c62f", "lat": 38.90010316666667, "fusion_lon": 0.0, "fusion_lat": 0.0, "type": "electric_scooter", "name": "62ac505a8a1a1aed9dfd02df7e17c62f", "is_disabled": 0, "rental_uris": {"ios": "https://dc.lft.to/lastmile_qr_scan", "android": "https://dc.lft.to/lastmile_qr_scan"}, "is_reserved": 0}, {"lon": -77.02589616666667, "bike_id": "775856bcbfbf4278549212beb3426ce3", "lat": 38.90011283333333, "fusion_lon": 0.0, "fusion_lat": 0.0, "type": "electric_scooter", "name": "775856bcbfbf4278549212beb3426ce3", "is_disabled": 0, "rental_uris": {"ios": "https://dc.lft.to/lastmile_qr_scan", "android": "https://dc.lft.to/lastmile_qr_scan"}, "is_reserved": 0}, {"lon": -76.99495466666667, "bike_id": "28ab6ddc6ba41fd9a5bc8deaf44187b8", "lat": 38.922664166666664, "fusion_lon": 0.0, "fusion_lat": 0.0, "type": "electric_scooter", "name": "28ab6ddc6ba41fd9a5bc8deaf44187b8", "is_disabled": 0, "rental_uris": {"ios": "https://dc.lft.to/lastmile_qr_scan", "android": "https://dc.lft.to/lastmile_qr_scan"}, "is_reserved": 0}, {"lon": -77.00750883333333, "bike_id": "a0366b55098bad985baa44e65508d906", "lat": 38.89730983333333, "fusion_lon": 0.0, "fusion_lat": 0.0, "type": "electric_scooter", "name": "a0366b55098bad985baa44e65508d906", "is_disabled": 0, "rental_uris": {"ios": "https://dc.lft.to/lastmile_qr_scan", "android": "https://dc.lft.to/lastmile_qr_scan"}, "is_reserved": 0}, {"lon": -77.0647185, "bike_id": "b00ad852452a6d9d3e1a2036e13fd96b", "lat": 38.946504166666664, "fusion_lon": 0.0, "fusion_lat": 0.0, "type": "electric_scooter", "name": "b00ad852452a6d9d3e1a2036e13fd96b", "is_disabled": 0, "rental_uris": {"ios": "https://dc.lft.to/lastmile_qr_scan", "android": "https://dc.lft.to/lastmile_qr_scan"}, "is_reserved": 0}, {"lon": -77.02827933333333, "bike_id": "8d9c0e7961f964a3073ef5309550dc21", "lat": 38.88735116666667, "fusion_lon": 0.0, "fusion_lat": 0.0, "type": "electric_scooter", "name": "8d9c0e7961f964a3073ef5309550dc21", "is_disabled": 0, "rental_uris": {"ios": "https://dc.lft.to/lastmile_qr_scan", "android": "https://dc.lft.to/lastmile_qr_scan"}, "is_reserved": 0}, {"lon": -76.97606216666667, "bike_id": "a256adc70cfa9494fa24e06108a8a56a", "lat": 38.905691166666664, "fusion_lon": 0.0, "fusion_lat": 0.0, "type": "electric_scooter", "name": "a256adc70cfa9494fa24e06108a8a56a", "is_disabled": 0, "rental_uris": {"ios": "https://dc.lft.to/lastmile_qr_scan", "android": "https://dc.lft.to/lastmile_qr_scan"}, "is_reserved": 0}, {"lon": -76.98694066666667, "bike_id": "ae1408dc0eeb7967c9bab38bad8edfdd", "lat": 38.86254133333333, "fusion_lon": 0.0, "fusion_lat": 0.0, "type": "electric_scooter", "name": "ae1408dc0eeb7967c9bab38bad8edfdd", "is_disabled": 0, "rental_uris": {"ios": "https://dc.lft.to/lastmile_qr_scan", "android": "https://dc.lft.to/lastmile_qr_scan"}, "is_reserved": 0}, {"lon": -77.02465283333333, "bike_id": "e175ad31bc53534a8ac06217dd1a370b", "lat": 38.9388105, "fusion_lon": 0.0, "fusion_lat": 0.0, "type": "electric_scooter", "name": "e175ad31bc53534a8ac06217dd1a370b", "is_disabled": 0, "rental_uris": {"ios": "https://dc.lft.to/lastmile_qr_scan", "android": "https://dc.lft.to/lastmile_qr_scan"}, "is_reserved": 0}, {"lon": -77.03442016666666, "bike_id": "62489905268ed71053ebc29216c05955", "lat": 38.9174485, "fusion_lon": 0.0, "fusion_lat": 0.0, "type": "electric_scooter", "name": "62489905268ed71053ebc29216c05955", "is_disabled": 0, "rental_uris": {"ios": "https://dc.lft.to/lastmile_qr_scan", "android": "https://dc.lft.to/lastmile_qr_scan"}, "is_reserved": 0}, {"lon": -77.00210916666667, "bike_id": "a9ff315d4e0c361f5f2d9d7987a17006", "lat": 38.89538266666667, "fusion_lon": 0.0, "fusion_lat": 0.0, "type": "electric_scooter", "name": "a9ff315d4e0c361f5f2d9d7987a17006", "is_disabled": 0, "rental_uris": {"ios": "https://dc.lft.to/lastmile_qr_scan", "android": "https://dc.lft.to/lastmile_qr_scan"}, "is_reserved": 0}, {"lon": -77.00535416666666, "bike_id": "cd82141c59d345df3368a8c325968e55", "lat": 38.9297275, "fusion_lon": 0.0, "fusion_lat": 0.0, "type": "electric_scooter", "name": "cd82141c59d345df3368a8c325968e55", "is_disabled": 0, "rental_uris": {"ios": "https://dc.lft.to/lastmile_qr_scan", "android": "https://dc.lft.to/lastmile_qr_scan"}, "is_reserved": 0}, {"lon": -77.0218775, "bike_id": "466b55cc4cd8236c1dd3773e104bcdb8", "lat": 38.91288483333334, "fusion_lon": 0.0, "fusion_lat": 0.0, "type": "electric_scooter", "name": "466b55cc4cd8236c1dd3773e104bcdb8", "is_disabled": 0, "rental_uris": {"ios": "https://dc.lft.to/lastmile_qr_scan", "android": "https://dc.lft.to/lastmile_qr_scan"}, "is_reserved": 0}, {"lon": -76.99604783333334, "bike_id": "1369a0e4710d20983884270bf726b231", "lat": 38.95072283333333, "fusion_lon": 0.0, "fusion_lat": 0.0, "type": "electric_bike", "name": "1369a0e4710d20983884270bf726b231", "is_disabled": 0, "rental_uris": {"ios": "https://dc.lft.to/lastmile_qr_scan", "android": "https://dc.lft.to/lastmile_qr_scan"}, "is_reserved": 0}, {"lon": -77.032947, "bike_id": "c47516dce732f27acbd2da31a5851001", "lat": 38.934358833333334, "fusion_lon": 0.0, "fusion_lat": 0.0, "type": "electric_scooter", "name": "c47516dce732f27acbd2da31a5851001", "is_disabled": 0, "rental_uris": {"ios": "https://dc.lft.to/lastmile_qr_scan", "android": "https://dc.lft.to/lastmile_qr_scan"}, "is_reserved": 0}, {"lon": -77.0187955, "bike_id": "535cbb3d7d4364f444d38c814e2fb224", "lat": 38.91412733333333, "fusion_lon": 0.0, "fusion_lat": 0.0, "type": "electric_scooter", "name": "535cbb3d7d4364f444d38c814e2fb224", "is_disabled": 0, "rental_uris": {"ios": "https://dc.lft.to/lastmile_qr_scan", "android": "https://dc.lft.to/lastmile_qr_scan"}, "is_reserved": 0}, {"lon": -77.03179433333334, "bike_id": "40a699fab855b0a3f16c861ffb9b9206", "lat": 38.93600466666667, "fusion_lon": 0.0, "fusion_lat": 0.0, "type": "electric_scooter", "name": "40a699fab855b0a3f16c861ffb9b9206", "is_disabled": 0, "rental_uris": {"ios": "https://dc.lft.to/lastmile_qr_scan", "android": "https://dc.lft.to/lastmile_qr_scan"}, "is_reserved": 0}, {"lon": -77.03544866666667, "bike_id": "36babae0c3bbd2a5f61eb03fe6a3f7a2", "lat": 38.924095666666666, "fusion_lon": 0.0, "fusion_lat": 0.0, "type": "electric_scooter", "name": "36babae0c3bbd2a5f61eb03fe6a3f7a2", "is_disabled": 0, "rental_uris": {"ios": "https://dc.lft.to/lastmile_qr_scan", "android": "https://dc.lft.to/lastmile_qr_scan"}, "is_reserved": 0}, {"lon": -77.03718883333333, "bike_id": "da58fd95c1a315c0a691039d00e2c008", "lat": 38.926373166666664, "fusion_lon": 0.0, "fusion_lat": 0.0, "type": "electric_scooter", "name": "da58fd95c1a315c0a691039d00e2c008", "is_disabled": 0, "rental_uris": {"ios": "https://dc.lft.to/lastmile_qr_scan", "android": "https://dc.lft.to/lastmile_qr_scan"}, "is_reserved": 0}, {"lon": -77.0045535, "bike_id": "9e70dc3ed8b6401a4b9dbf6caece0716", "lat": 38.8774565, "fusion_lon": 0.0, "fusion_lat": 0.0, "type": "electric_scooter", "name": "9e70dc3ed8b6401a4b9dbf6caece0716", "is_disabled": 0, "rental_uris": {"ios": "https://dc.lft.to/lastmile_qr_scan", "android": "https://dc.lft.to/lastmile_qr_scan"}, "is_reserved": 0}, {"lon": -77.07599733333333, "bike_id": "34a2136969af34e2723b38149c9721ee", "lat": 38.91216216666667, "fusion_lon": 0.0, "fusion_lat": 0.0, "type": "electric_scooter", "name": "34a2136969af34e2723b38149c9721ee", "is_disabled": 0, "rental_uris": {"ios": "https://dc.lft.to/lastmile_qr_scan", "android": "https://dc.lft.to/lastmile_qr_scan"}, "is_reserved": 0}, {"lon": -77.03172283333333, "bike_id": "fdbd893eafc5de6673c74521f150dc86", "lat": 38.92098266666667, "fusion_lon": 0.0, "fusion_lat": 0.0, "type": "electric_bike", "name": "fdbd893eafc5de6673c74521f150dc86", "is_disabled": 0, "rental_uris": {"ios": "https://dc.lft.to/lastmile_qr_scan", "android": "https://dc.lft.to/lastmile_qr_scan"}, "is_reserved": 0}, {"lon": -77.015014, "bike_id": "d772681f780bf09a7d87e0839e9dc298", "lat": 38.917663, "fusion_lon": 0.0, "fusion_lat": 0.0, "type": "electric_scooter", "name": "d772681f780bf09a7d87e0839e9dc298", "is_disabled": 0, "rental_uris": {"ios": "https://dc.lft.to/lastmile_qr_scan", "android": "https://dc.lft.to/lastmile_qr_scan"}, "is_reserved": 0}, {"lon": -77.00574766666666, "bike_id": "e71c0e581590735c6ca656a16c29c140", "lat": 38.9055375, "fusion_lon": 0.0, "fusion_lat": 0.0, "type": "electric_scooter", "name": "e71c0e581590735c6ca656a16c29c140", "is_disabled": 0, "rental_uris": {"ios": "https://dc.lft.to/lastmile_qr_scan", "android": "https://dc.lft.to/lastmile_qr_scan"}, "is_reserved": 0}, {"lon": -76.97751583333333, "bike_id": "18f3e6011dc703ef2f0dd2b031da2800", "lat": 38.8649085, "fusion_lon": 0.0, "fusion_lat": 0.0, "type": "electric_bike", "name": "18f3e6011dc703ef2f0dd2b031da2800", "is_disabled": 0, "rental_uris": {"ios": "https://dc.lft.to/lastmile_qr_scan", "android": "https://dc.lft.to/lastmile_qr_scan"}, "is_reserved": 0}, {"lon": -77.1856245, "bike_id": "4cc2c71983327c2dc5d8ddadab379244", "lat": 39.099771, "fusion_lon": 0.0, "fusion_lat": 0.0, "type": "electric_bike", "name": "4cc2c71983327c2dc5d8ddadab379244", "is_disabled": 0, "rental_uris": {"ios": "https://dc.lft.to/lastmile_qr_scan", "android": "https://dc.lft.to/lastmile_qr_scan"}, "is_reserved": 0}, {"lon": -76.9954525, "bike_id": "3ba5ded4d8e1f00dd3cd7815d2e14fe4", "lat": 38.86261016666667, "fusion_lon": 0.0, "fusion_lat": 0.0, "type": "electric_scooter", "name": "3ba5ded4d8e1f00dd3cd7815d2e14fe4", "is_disabled": 0, "rental_uris": {"ios": "https://dc.lft.to/lastmile_qr_scan", "android": "https://dc.lft.to/lastmile_qr_scan"}, "is_reserved": 0}, {"lon": -76.98711333333333, "bike_id": "933689507d1b219693e59f10d571720a", "lat": 38.9001475, "fusion_lon": 0.0, "fusion_lat": 0.0, "type": "electric_scooter", "name": "933689507d1b219693e59f10d571720a", "is_disabled": 0, "rental_uris": {"ios": "https://dc.lft.to/lastmile_qr_scan", "android": "https://dc.lft.to/lastmile_qr_scan"}, "is_reserved": 0}, {"lon": -77.000493, "bike_id": "8e0365e6c5a4b995a6675ef133916af3", "lat": 38.90871533333333, "fusion_lon": 0.0, "fusion_lat": 0.0, "type": "electric_scooter", "name": "8e0365e6c5a4b995a6675ef133916af3", "is_disabled": 0, "rental_uris": {"ios": "https://dc.lft.to/lastmile_qr_scan", "android": "https://dc.lft.to/lastmile_qr_scan"}, "is_reserved": 0}, {"lon": -77.04825333333334, "bike_id": "c7d5bcc1d727888fd595552a0d3e021c", "lat": 38.9162435, "fusion_lon": 0.0, "fusion_lat": 0.0, "type": "electric_scooter", "name": "c7d5bcc1d727888fd595552a0d3e021c", "is_disabled": 0, "rental_uris": {"ios": "https://dc.lft.to/lastmile_qr_scan", "android": "https://dc.lft.to/lastmile_qr_scan"}, "is_reserved": 0}, {"lon": -76.99123533333334, "bike_id": "f900a3dd1989785eae86f2e2983190b5", "lat": 38.9226735, "fusion_lon": 0.0, "fusion_lat": 0.0, "type": "electric_scooter", "name": "f900a3dd1989785eae86f2e2983190b5", "is_disabled": 0, "rental_uris": {"ios": "https://dc.lft.to/lastmile_qr_scan", "android": "https://dc.lft.to/lastmile_qr_scan"}, "is_reserved": 0}, {"lon": -77.0268475, "bike_id": "aa04117fa56d7eed784fe909849c9356", "lat": 38.9845595, "fusion_lon": 0.0, "fusion_lat": 0.0, "type": "electric_scooter", "name": "aa04117fa56d7eed784fe909849c9356", "is_disabled": 0, "rental_uris": {"ios": "https://dc.lft.to/lastmile_qr_scan", "android": "https://dc.lft.to/lastmile_qr_scan"}, "is_reserved": 0}, {"lon": -77.028132, "bike_id": "c98835cb306e814659343c5078703d3c", "lat": 38.881795333333336, "fusion_lon": 0.0, "fusion_lat": 0.0, "type": "electric_scooter", "name": "c98835cb306e814659343c5078703d3c", "is_disabled": 0, "rental_uris": {"ios": "https://dc.lft.to/lastmile_qr_scan", "android": "https://dc.lft.to/lastmile_qr_scan"}, "is_reserved": 0}, {"lon": -77.023724, "bike_id": "2bd51de90410eee6a554b68c573e0960", "lat": 38.902019, "fusion_lon": 0.0, "fusion_lat": 0.0, "type": "electric_scooter", "name": "2bd51de90410eee6a554b68c573e0960", "is_disabled": 0, "rental_uris": {"ios": "https://dc.lft.to/lastmile_qr_scan", "android": "https://dc.lft.to/lastmile_qr_scan"}, "is_reserved": 0}, {"lon": -77.01999416666666, "bike_id": "4cc99aa498cd48f27b55a7de0ab76cf8", "lat": 38.9044775, "fusion_lon": 0.0, "fusion_lat": 0.0, "type": "electric_scooter", "name": "4cc99aa498cd48f27b55a7de0ab76cf8", "is_disabled": 0, "rental_uris": {"ios": "https://dc.lft.to/lastmile_qr_scan", "android": "https://dc.lft.to/lastmile_qr_scan"}, "is_reserved": 0}, {"lon": -77.0326165, "bike_id": "aa1ae1a6d4d0c0cf0f8e6bbdadf9fa3a", "lat": 38.942703333333334, "fusion_lon": 0.0, "fusion_lat": 0.0, "type": "electric_scooter", "name": "aa1ae1a6d4d0c0cf0f8e6bbdadf9fa3a", "is_disabled": 0, "rental_uris": {"ios": "https://dc.lft.to/lastmile_qr_scan", "android": "https://dc.lft.to/lastmile_qr_scan"}, "is_reserved": 0}, {"lon": -77.03665416666666, "bike_id": "e5ebb85a7473dfef77cde1da1b93ac8b", "lat": 38.93632916666667, "fusion_lon": 0.0, "fusion_lat": 0.0, "type": "electric_bike", "name": "e5ebb85a7473dfef77cde1da1b93ac8b", "is_disabled": 0, "rental_uris": {"ios": "https://dc.lft.to/lastmile_qr_scan", "android": "https://dc.lft.to/lastmile_qr_scan"}, "is_reserved": 0}, {"lon": -77.029798, "bike_id": "dd5ee847c11d43b824ae7fd0b258a6b4", "lat": 38.921978333333335, "fusion_lon": 0.0, "fusion_lat": 0.0, "type": "electric_scooter", "name": "dd5ee847c11d43b824ae7fd0b258a6b4", "is_disabled": 0, "rental_uris": {"ios": "https://dc.lft.to/lastmile_qr_scan", "android": "https://dc.lft.to/lastmile_qr_scan"}, "is_reserved": 0}, {"lon": -77.01219666666667, "bike_id": "c453f42180ae4f73943f3fc30b77731a", "lat": 38.914359833333336, "fusion_lon": 0.0, "fusion_lat": 0.0, "type": "electric_scooter", "name": "c453f42180ae4f73943f3fc30b77731a", "is_disabled": 0, "rental_uris": {"ios": "https://dc.lft.to/lastmile_qr_scan", "android": "https://dc.lft.to/lastmile_qr_scan"}, "is_reserved": 0}, {"lon": -77.03447716666666, "bike_id": "16f588f1fd7652b0f36c08cae180e403", "lat": 38.902854, "fusion_lon": 0.0, "fusion_lat": 0.0, "type": "electric_scooter", "name": "16f588f1fd7652b0f36c08cae180e403", "is_disabled": 0, "rental_uris": {"ios": "https://dc.lft.to/lastmile_qr_scan", "android": "https://dc.lft.to/lastmile_qr_scan"}, "is_reserved": 0}, {"lon": -77.02437133333333, "bike_id": "71db0ab1ce4b4fee5bf4e075523a3982", "lat": 38.924912166666665, "fusion_lon": 0.0, "fusion_lat": 0.0, "type": "electric_scooter", "name": "71db0ab1ce4b4fee5bf4e075523a3982", "is_disabled": 0, "rental_uris": {"ios": "https://dc.lft.to/lastmile_qr_scan", "android": "https://dc.lft.to/lastmile_qr_scan"}, "is_reserved": 0}, {"lon": -76.96384666666667, "bike_id": "7c81c0a150aaba4350ed314293c6a63d", "lat": 38.95178416666667, "fusion_lon": 0.0, "fusion_lat": 0.0, "type": "electric_bike", "name": "7c81c0a150aaba4350ed314293c6a63d", "is_disabled": 0, "rental_uris": {"ios": "https://dc.lft.to/lastmile_qr_scan", "android": "https://dc.lft.to/lastmile_qr_scan"}, "is_reserved": 0}, {"lon": -77.04120533333334, "bike_id": "382f3c76365aae217595fa2553e92c8c", "lat": 38.898534833333336, "fusion_lon": 0.0, "fusion_lat": 0.0, "type": "electric_scooter", "name": "382f3c76365aae217595fa2553e92c8c", "is_disabled": 0, "rental_uris": {"ios": "https://dc.lft.to/lastmile_qr_scan", "android": "https://dc.lft.to/lastmile_qr_scan"}, "is_reserved": 0}, {"lon": -76.93749466666667, "bike_id": "f9e44cfbf7999cf18e41a22bf435d089", "lat": 38.890441, "fusion_lon": 0.0, "fusion_lat": 0.0, "type": "electric_scooter", "name": "f9e44cfbf7999cf18e41a22bf435d089", "is_disabled": 0, "rental_uris": {"ios": "https://dc.lft.to/lastmile_qr_scan", "android": "https://dc.lft.to/lastmile_qr_scan"}, "is_reserved": 0}, {"lon": -76.997804, "bike_id": "df00b88231f52b51c7d374e369ba184d", "lat": 38.84299733333334, "fusion_lon": 0.0, "fusion_lat": 0.0, "type": "electric_scooter", "name": "df00b88231f52b51c7d374e369ba184d", "is_disabled": 0, "rental_uris": {"ios": "https://dc.lft.to/lastmile_qr_scan", "android": "https://dc.lft.to/lastmile_qr_scan"}, "is_reserved": 0}, {"lon": -76.94803683333333, "bike_id": "83e480073ce6b146b13010e5075e61da", "lat": 38.86195266666667, "fusion_lon": 0.0, "fusion_lat": 0.0, "type": "electric_bike", "name": "83e480073ce6b146b13010e5075e61da", "is_disabled": 0, "rental_uris": {"ios": "https://dc.lft.to/lastmile_qr_scan", "android": "https://dc.lft.to/lastmile_qr_scan"}, "is_reserved": 0}, {"lon": -76.9883045, "bike_id": "575e37ba7a4ac096bf19e0e7f70c7bca", "lat": 38.900708333333334, "fusion_lon": 0.0, "fusion_lat": 0.0, "type": "electric_scooter", "name": "575e37ba7a4ac096bf19e0e7f70c7bca", "is_disabled": 0, "rental_uris": {"ios": "https://dc.lft.to/lastmile_qr_scan", "android": "https://dc.lft.to/lastmile_qr_scan"}, "is_reserved": 0}, {"lon": -77.023025, "bike_id": "75d20c3502cbfddb1c6f54d0de47b10e", "lat": 38.92676, "fusion_lon": 0.0, "fusion_lat": 0.0, "type": "electric_scooter", "name": "75d20c3502cbfddb1c6f54d0de47b10e", "is_disabled": 0, "rental_uris": {"ios": "https://dc.lft.to/lastmile_qr_scan", "android": "https://dc.lft.to/lastmile_qr_scan"}, "is_reserved": 0}, {"lon": -77.04213333333334, "bike_id": "d7245f1c8ecdae938eb7973bae9876cd", "lat": 38.8926885, "fusion_lon": 0.0, "fusion_lat": 0.0, "type": "electric_scooter", "name": "d7245f1c8ecdae938eb7973bae9876cd", "is_disabled": 0, "rental_uris": {"ios": "https://dc.lft.to/lastmile_qr_scan", "android": "https://dc.lft.to/lastmile_qr_scan"}, "is_reserved": 0}, {"lon": -77.0338395, "bike_id": "bc84d71d7e547a23c102511f84ed0e8e", "lat": 38.93880733333334, "fusion_lon": 0.0, "fusion_lat": 0.0, "type": "electric_scooter", "name": "bc84d71d7e547a23c102511f84ed0e8e", "is_disabled": 0, "rental_uris": {"ios": "https://dc.lft.to/lastmile_qr_scan", "android": "https://dc.lft.to/lastmile_qr_scan"}, "is_reserved": 0}, {"lon": -77.04518766666666, "bike_id": "f2412e63b1a821af9dc14caf340865d9", "lat": 38.941956833333336, "fusion_lon": 0.0, "fusion_lat": 0.0, "type": "electric_bike", "name": "f2412e63b1a821af9dc14caf340865d9", "is_disabled": 0, "rental_uris": {"ios": "https://dc.lft.to/lastmile_qr_scan", "android": "https://dc.lft.to/lastmile_qr_scan"}, "is_reserved": 0}, {"lon": -77.01157816666667, "bike_id": "eab7fed125a219ffb4d4e63652a67928", "lat": 38.911102, "fusion_lon": 0.0, "fusion_lat": 0.0, "type": "electric_scooter", "name": "eab7fed125a219ffb4d4e63652a67928", "is_disabled": 0, "rental_uris": {"ios": "https://dc.lft.to/lastmile_qr_scan", "android": "https://dc.lft.to/lastmile_qr_scan"}, "is_reserved": 0}, {"lon": -77.03271083333334, "bike_id": "94ceca5fae710b73bd9b71639ae50b6f", "lat": 38.93444933333333, "fusion_lon": 0.0, "fusion_lat": 0.0, "type": "electric_scooter", "name": "94ceca5fae710b73bd9b71639ae50b6f", "is_disabled": 0, "rental_uris": {"ios": "https://dc.lft.to/lastmile_qr_scan", "android": "https://dc.lft.to/lastmile_qr_scan"}, "is_reserved": 0}, {"lon": -77.01552083333333, "bike_id": "5416ca15164fad7a5105faf42bbf905a", "lat": 38.892214333333335, "fusion_lon": 0.0, "fusion_lat": 0.0, "type": "electric_scooter", "name": "5416ca15164fad7a5105faf42bbf905a", "is_disabled": 0, "rental_uris": {"ios": "https://dc.lft.to/lastmile_qr_scan", "android": "https://dc.lft.to/lastmile_qr_scan"}, "is_reserved": 0}, {"lon": -76.99523583333334, "bike_id": "6b26ee7d69c1656eba27b35aec9e3064", "lat": 38.896106333333336, "fusion_lon": 0.0, "fusion_lat": 0.0, "type": "electric_scooter", "name": "6b26ee7d69c1656eba27b35aec9e3064", "is_disabled": 0, "rental_uris": {"ios": "https://dc.lft.to/lastmile_qr_scan", "android": "https://dc.lft.to/lastmile_qr_scan"}, "is_reserved": 0}, {"lon": -77.01778783333333, "bike_id": "e7227edc1e8abdb881d9eb2b80b91f6c", "lat": 38.883239, "fusion_lon": 0.0, "fusion_lat": 0.0, "type": "electric_scooter", "name": "e7227edc1e8abdb881d9eb2b80b91f6c", "is_disabled": 0, "rental_uris": {"ios": "https://dc.lft.to/lastmile_qr_scan", "android": "https://dc.lft.to/lastmile_qr_scan"}, "is_reserved": 0}, {"lon": -77.0467425, "bike_id": "084544852a9a53466d40f5b6c484f339", "lat": 38.909058333333334, "fusion_lon": 0.0, "fusion_lat": 0.0, "type": "electric_scooter", "name": "084544852a9a53466d40f5b6c484f339", "is_disabled": 0, "rental_uris": {"ios": "https://dc.lft.to/lastmile_qr_scan", "android": "https://dc.lft.to/lastmile_qr_scan"}, "is_reserved": 0}, {"lon": -77.00222016666666, "bike_id": "1933742026457c861dd25fef3576c5bb", "lat": 38.90820633333333, "fusion_lon": 0.0, "fusion_lat": 0.0, "type": "electric_scooter", "name": "1933742026457c861dd25fef3576c5bb", "is_disabled": 0, "rental_uris": {"ios": "https://dc.lft.to/lastmile_qr_scan", "android": "https://dc.lft.to/lastmile_qr_scan"}, "is_reserved": 0}, {"lon": -77.049876, "bike_id": "5dcf9d28ea371119f89fdb5235547a9f", "lat": 38.896048, "fusion_lon": 0.0, "fusion_lat": 0.0, "type": "electric_scooter", "name": "5dcf9d28ea371119f89fdb5235547a9f", "is_disabled": 0, "rental_uris": {"ios": "https://dc.lft.to/lastmile_qr_scan", "android": "https://dc.lft.to/lastmile_qr_scan"}, "is_reserved": 0}, {"lon": -76.9917305, "bike_id": "c0754a803bfa7063a4f9aa2de0087b06", "lat": 38.889871, "fusion_lon": 0.0, "fusion_lat": 0.0, "type": "electric_scooter", "name": "c0754a803bfa7063a4f9aa2de0087b06", "is_disabled": 0, "rental_uris": {"ios": "https://dc.lft.to/lastmile_qr_scan", "android": "https://dc.lft.to/lastmile_qr_scan"}, "is_reserved": 0}, {"lon": -77.01620133333333, "bike_id": "c24ee1a82526501db6d835978ea8e77a", "lat": 38.89945933333333, "fusion_lon": 0.0, "fusion_lat": 0.0, "type": "electric_scooter", "name": "c24ee1a82526501db6d835978ea8e77a", "is_disabled": 0, "rental_uris": {"ios": "https://dc.lft.to/lastmile_qr_scan", "android": "https://dc.lft.to/lastmile_qr_scan"}, "is_reserved": 0}, {"lon": -77.05055333333334, "bike_id": "007795157e244d14205f2290b8e51345", "lat": 38.923880833333335, "fusion_lon": 0.0, "fusion_lat": 0.0, "type": "electric_scooter", "name": "007795157e244d14205f2290b8e51345", "is_disabled": 0, "rental_uris": {"ios": "https://dc.lft.to/lastmile_qr_scan", "android": "https://dc.lft.to/lastmile_qr_scan"}, "is_reserved": 0}, {"lon": -76.99649, "bike_id": "aa95014aa2e40633885f871fe689f8d8", "lat": 38.988255, "fusion_lon": 0.0, "fusion_lat": 0.0, "type": "electric_bike", "name": "aa95014aa2e40633885f871fe689f8d8", "is_disabled": 0, "rental_uris": {"ios": "https://dc.lft.to/lastmile_qr_scan", "android": "https://dc.lft.to/lastmile_qr_scan"}, "is_reserved": 0}, {"lon": -77.00970566666666, "bike_id": "554616b304c5442960b149ed206eb37b", "lat": 38.911832833333335, "fusion_lon": 0.0, "fusion_lat": 0.0, "type": "electric_scooter", "name": "554616b304c5442960b149ed206eb37b", "is_disabled": 0, "rental_uris": {"ios": "https://dc.lft.to/lastmile_qr_scan", "android": "https://dc.lft.to/lastmile_qr_scan"}, "is_reserved": 0}, {"lon": -77.03548133333334, "bike_id": "3d4c1088a026c4f04ff3aa3d6239737c", "lat": 38.924138166666665, "fusion_lon": 0.0, "fusion_lat": 0.0, "type": "electric_scooter", "name": "3d4c1088a026c4f04ff3aa3d6239737c", "is_disabled": 0, "rental_uris": {"ios": "https://dc.lft.to/lastmile_qr_scan", "android": "https://dc.lft.to/lastmile_qr_scan"}, "is_reserved": 0}, {"lon": -77.0329385, "bike_id": "fa02f5bdeef49e4d802f1cb901e83617", "lat": 38.90988183333333, "fusion_lon": 0.0, "fusion_lat": 0.0, "type": "electric_scooter", "name": "fa02f5bdeef49e4d802f1cb901e83617", "is_disabled": 0, "rental_uris": {"ios": "https://dc.lft.to/lastmile_qr_scan", "android": "https://dc.lft.to/lastmile_qr_scan"}, "is_reserved": 0}, {"lon": -76.98159283333334, "bike_id": "5e98c83bbe5c59a4597272bb7ff7e431", "lat": 38.92569616666667, "fusion_lon": 0.0, "fusion_lat": 0.0, "type": "electric_scooter", "name": "5e98c83bbe5c59a4597272bb7ff7e431", "is_disabled": 0, "rental_uris": {"ios": "https://dc.lft.to/lastmile_qr_scan", "android": "https://dc.lft.to/lastmile_qr_scan"}, "is_reserved": 0}, {"lon": -77.02591416666667, "bike_id": "cd62b177c7e6993ce35da467cd006c07", "lat": 38.892261500000004, "fusion_lon": 0.0, "fusion_lat": 0.0, "type": "electric_scooter", "name": "cd62b177c7e6993ce35da467cd006c07", "is_disabled": 0, "rental_uris": {"ios": "https://dc.lft.to/lastmile_qr_scan", "android": "https://dc.lft.to/lastmile_qr_scan"}, "is_reserved": 0}, {"lon": -77.02280583333334, "bike_id": "34ec04e0c831b8da3e2a44fcd3f333f8", "lat": 38.926839, "fusion_lon": 0.0, "fusion_lat": 0.0, "type": "electric_scooter", "name": "34ec04e0c831b8da3e2a44fcd3f333f8", "is_disabled": 0, "rental_uris": {"ios": "https://dc.lft.to/lastmile_qr_scan", "android": "https://dc.lft.to/lastmile_qr_scan"}, "is_reserved": 0}, {"lon": -77.00741516666666, "bike_id": "8cd0d7b1b160fce5917a57f76c181f49", "lat": 38.90041883333333, "fusion_lon": 0.0, "fusion_lat": 0.0, "type": "electric_scooter", "name": "8cd0d7b1b160fce5917a57f76c181f49", "is_disabled": 0, "rental_uris": {"ios": "https://dc.lft.to/lastmile_qr_scan", "android": "https://dc.lft.to/lastmile_qr_scan"}, "is_reserved": 0}, {"lon": -77.122212, "bike_id": "d487592cfafc85a80f3e4cba5dbc8be0", "lat": 38.852993166666664, "fusion_lon": 0.0, "fusion_lat": 0.0, "type": "electric_bike", "name": "d487592cfafc85a80f3e4cba5dbc8be0", "is_disabled": 0, "rental_uris": {"ios": "https://dc.lft.to/lastmile_qr_scan", "android": "https://dc.lft.to/lastmile_qr_scan"}, "is_reserved": 0}, {"lon": -77.02598466666667, "bike_id": "f87a3df44ca0ab9debf6c7be8f456c8a", "lat": 38.90507083333333, "fusion_lon": 0.0, "fusion_lat": 0.0, "type": "electric_scooter", "name": "f87a3df44ca0ab9debf6c7be8f456c8a", "is_disabled": 0, "rental_uris": {"ios": "https://dc.lft.to/lastmile_qr_scan", "android": "https://dc.lft.to/lastmile_qr_scan"}, "is_reserved": 0}, {"lon": -77.0604685, "bike_id": "5075d7acd86cff364bad25e2879a69c5", "lat": 38.938265333333334, "fusion_lon": 0.0, "fusion_lat": 0.0, "type": "electric_scooter", "name": "5075d7acd86cff364bad25e2879a69c5", "is_disabled": 0, "rental_uris": {"ios": "https://dc.lft.to/lastmile_qr_scan", "android": "https://dc.lft.to/lastmile_qr_scan"}, "is_reserved": 0}, {"lon": -77.073521, "bike_id": "0eb419fbeb4d21d1d3f2140b491c852f", "lat": 38.91103733333333, "fusion_lon": 0.0, "fusion_lat": 0.0, "type": "electric_scooter", "name": "0eb419fbeb4d21d1d3f2140b491c852f", "is_disabled": 0, "rental_uris": {"ios": "https://dc.lft.to/lastmile_qr_scan", "android": "https://dc.lft.to/lastmile_qr_scan"}, "is_reserved": 0}, {"lon": -77.00023133333333, "bike_id": "724eb032214107d7adf1ca5f4225a9f2", "lat": 38.875252, "fusion_lon": 0.0, "fusion_lat": 0.0, "type": "electric_scooter", "name": "724eb032214107d7adf1ca5f4225a9f2", "is_disabled": 0, "rental_uris": {"ios": "https://dc.lft.to/lastmile_qr_scan", "android": "https://dc.lft.to/lastmile_qr_scan"}, "is_reserved": 0}, {"lon": -76.99847666666666, "bike_id": "ce971fc720fa5aaaf6008489790fd3f3", "lat": 38.907342166666666, "fusion_lon": 0.0, "fusion_lat": 0.0, "type": "electric_scooter", "name": "ce971fc720fa5aaaf6008489790fd3f3", "is_disabled": 0, "rental_uris": {"ios": "https://dc.lft.to/lastmile_qr_scan", "android": "https://dc.lft.to/lastmile_qr_scan"}, "is_reserved": 0}, {"lon": -77.0456215, "bike_id": "02e302b16d87d8fcc88ab142007b6ddf", "lat": 38.9182805, "fusion_lon": 0.0, "fusion_lat": 0.0, "type": "electric_scooter", "name": "02e302b16d87d8fcc88ab142007b6ddf", "is_disabled": 0, "rental_uris": {"ios": "https://dc.lft.to/lastmile_qr_scan", "android": "https://dc.lft.to/lastmile_qr_scan"}, "is_reserved": 0}, {"lon": -77.0216215, "bike_id": "74a8bb3bb03c6f79aba5abab99b7373b", "lat": 38.90200166666666, "fusion_lon": 0.0, "fusion_lat": 0.0, "type": "electric_scooter", "name": "74a8bb3bb03c6f79aba5abab99b7373b", "is_disabled": 0, "rental_uris": {"ios": "https://dc.lft.to/lastmile_qr_scan", "android": "https://dc.lft.to/lastmile_qr_scan"}, "is_reserved": 0}, {"lon": -77.01192583333334, "bike_id": "dc3537f8007d8cf3cdd1b97a39231563", "lat": 38.91552683333333, "fusion_lon": 0.0, "fusion_lat": 0.0, "type": "electric_scooter", "name": "dc3537f8007d8cf3cdd1b97a39231563", "is_disabled": 0, "rental_uris": {"ios": "https://dc.lft.to/lastmile_qr_scan", "android": "https://dc.lft.to/lastmile_qr_scan"}, "is_reserved": 0}, {"lon": -76.91600883333334, "bike_id": "96fd1f647d3803ac5c8cb727283fe231", "lat": 38.879812666666666, "fusion_lon": 0.0, "fusion_lat": 0.0, "type": "electric_bike", "name": "96fd1f647d3803ac5c8cb727283fe231", "is_disabled": 0, "rental_uris": {"ios": "https://dc.lft.to/lastmile_qr_scan", "android": "https://dc.lft.to/lastmile_qr_scan"}, "is_reserved": 0}, {"lon": -77.02481233333333, "bike_id": "ec4c1d9de0fd716dc61a9ff0ce7c21f4", "lat": 38.90398916666667, "fusion_lon": 0.0, "fusion_lat": 0.0, "type": "electric_scooter", "name": "ec4c1d9de0fd716dc61a9ff0ce7c21f4", "is_disabled": 0, "rental_uris": {"ios": "https://dc.lft.to/lastmile_qr_scan", "android": "https://dc.lft.to/lastmile_qr_scan"}, "is_reserved": 0}, {"lon": -77.04177866666667, "bike_id": "2fc7031a0710f0727b75f3c706fe0146", "lat": 38.917712333333334, "fusion_lon": 0.0, "fusion_lat": 0.0, "type": "electric_scooter", "name": "2fc7031a0710f0727b75f3c706fe0146", "is_disabled": 0, "rental_uris": {"ios": "https://dc.lft.to/lastmile_qr_scan", "android": "https://dc.lft.to/lastmile_qr_scan"}, "is_reserved": 0}, {"lon": -77.0156045, "bike_id": "9ba5bb9551ff76e36068931083e65366", "lat": 38.88028666666666, "fusion_lon": 0.0, "fusion_lat": 0.0, "type": "electric_scooter", "name": "9ba5bb9551ff76e36068931083e65366", "is_disabled": 0, "rental_uris": {"ios": "https://dc.lft.to/lastmile_qr_scan", "android": "https://dc.lft.to/lastmile_qr_scan"}, "is_reserved": 0}, {"lon": -76.9905415, "bike_id": "f5be3c533216ddc297fe2febd7953620", "lat": 38.884147, "fusion_lon": 0.0, "fusion_lat": 0.0, "type": "electric_scooter", "name": "f5be3c533216ddc297fe2febd7953620", "is_disabled": 0, "rental_uris": {"ios": "https://dc.lft.to/lastmile_qr_scan", "android": "https://dc.lft.to/lastmile_qr_scan"}, "is_reserved": 0}, {"lon": -76.98229966666666, "bike_id": "dff82e83cfe15690d5c0f6e3c4d6cd29", "lat": 38.866272333333335, "fusion_lon": 0.0, "fusion_lat": 0.0, "type": "electric_scooter", "name": "dff82e83cfe15690d5c0f6e3c4d6cd29", "is_disabled": 0, "rental_uris": {"ios": "https://dc.lft.to/lastmile_qr_scan", "android": "https://dc.lft.to/lastmile_qr_scan"}, "is_reserved": 0}, {"lon": -77.03860916666666, "bike_id": "669135b68eebdd94a29dd7420e685980", "lat": 38.915518, "fusion_lon": 0.0, "fusion_lat": 0.0, "type": "electric_scooter", "name": "669135b68eebdd94a29dd7420e685980", "is_disabled": 0, "rental_uris": {"ios": "https://dc.lft.to/lastmile_qr_scan", "android": "https://dc.lft.to/lastmile_qr_scan"}, "is_reserved": 0}, {"lon": -77.03645716666666, "bike_id": "358be1d2b22f5f103c59b9956007f03f", "lat": 38.90281866666667, "fusion_lon": 0.0, "fusion_lat": 0.0, "type": "electric_scooter", "name": "358be1d2b22f5f103c59b9956007f03f", "is_disabled": 0, "rental_uris": {"ios": "https://dc.lft.to/lastmile_qr_scan", "android": "https://dc.lft.to/lastmile_qr_scan"}, "is_reserved": 0}, {"lon": -76.97730533333333, "bike_id": "3b49efe62d3808327c4d8925d55c063b", "lat": 38.87288816666667, "fusion_lon": 0.0, "fusion_lat": 0.0, "type": "electric_scooter", "name": "3b49efe62d3808327c4d8925d55c063b", "is_disabled": 0, "rental_uris": {"ios": "https://dc.lft.to/lastmile_qr_scan", "android": "https://dc.lft.to/lastmile_qr_scan"}, "is_reserved": 0}, {"lon": -77.03043066666666, "bike_id": "c97d07d59ef05a4278945d88fbcc64e4", "lat": 38.91262833333333, "fusion_lon": 0.0, "fusion_lat": 0.0, "type": "electric_scooter", "name": "c97d07d59ef05a4278945d88fbcc64e4", "is_disabled": 0, "rental_uris": {"ios": "https://dc.lft.to/lastmile_qr_scan", "android": "https://dc.lft.to/lastmile_qr_scan"}, "is_reserved": 0}, {"lon": -77.02797166666667, "bike_id": "a16266fa94ae6ca4eeba460e2d65efc1", "lat": 38.93537883333333, "fusion_lon": 0.0, "fusion_lat": 0.0, "type": "electric_scooter", "name": "a16266fa94ae6ca4eeba460e2d65efc1", "is_disabled": 0, "rental_uris": {"ios": "https://dc.lft.to/lastmile_qr_scan", "android": "https://dc.lft.to/lastmile_qr_scan"}, "is_reserved": 0}, {"lon": -77.032015, "bike_id": "534c982a5f3292b281ad68c2fb00c663", "lat": 38.939650666666665, "fusion_lon": 0.0, "fusion_lat": 0.0, "type": "electric_scooter", "name": "534c982a5f3292b281ad68c2fb00c663", "is_disabled": 0, "rental_uris": {"ios": "https://dc.lft.to/lastmile_qr_scan", "android": "https://dc.lft.to/lastmile_qr_scan"}, "is_reserved": 0}, {"lon": -76.99057733333333, "bike_id": "6dbf4dc57c9723bed7c76b66a2579ea9", "lat": 38.86354816666667, "fusion_lon": 0.0, "fusion_lat": 0.0, "type": "electric_scooter", "name": "6dbf4dc57c9723bed7c76b66a2579ea9", "is_disabled": 0, "rental_uris": {"ios": "https://dc.lft.to/lastmile_qr_scan", "android": "https://dc.lft.to/lastmile_qr_scan"}, "is_reserved": 0}, {"lon": -77.0291935, "bike_id": "07065bc2afc457143642f7ce2966df50", "lat": 38.92370066666667, "fusion_lon": 0.0, "fusion_lat": 0.0, "type": "electric_scooter", "name": "07065bc2afc457143642f7ce2966df50", "is_disabled": 0, "rental_uris": {"ios": "https://dc.lft.to/lastmile_qr_scan", "android": "https://dc.lft.to/lastmile_qr_scan"}, "is_reserved": 0}, {"lon": -77.04422083333333, "bike_id": "2bcd868c0b379745741fdbf1ba569606", "lat": 38.921287666666665, "fusion_lon": 0.0, "fusion_lat": 0.0, "type": "electric_scooter", "name": "2bcd868c0b379745741fdbf1ba569606", "is_disabled": 0, "rental_uris": {"ios": "https://dc.lft.to/lastmile_qr_scan", "android": "https://dc.lft.to/lastmile_qr_scan"}, "is_reserved": 0}, {"lon": -77.014121, "bike_id": "a7e156e59a5f2a550763f176a1b8b536", "lat": 38.9286615, "fusion_lon": 0.0, "fusion_lat": 0.0, "type": "electric_scooter", "name": "a7e156e59a5f2a550763f176a1b8b536", "is_disabled": 0, "rental_uris": {"ios": "https://dc.lft.to/lastmile_qr_scan", "android": "https://dc.lft.to/lastmile_qr_scan"}, "is_reserved": 0}, {"lon": -77.04016133333333, "bike_id": "5be8e65be67ef60894da37d7a561c973", "lat": 38.91009233333333, "fusion_lon": 0.0, "fusion_lat": 0.0, "type": "electric_scooter", "name": "5be8e65be67ef60894da37d7a561c973", "is_disabled": 0, "rental_uris": {"ios": "https://dc.lft.to/lastmile_qr_scan", "android": "https://dc.lft.to/lastmile_qr_scan"}, "is_reserved": 0}, {"lon": -77.02519283333334, "bike_id": "9a9284cc47d95d3e2122683a1cbaeee1", "lat": 38.904257333333334, "fusion_lon": 0.0, "fusion_lat": 0.0, "type": "electric_scooter", "name": "9a9284cc47d95d3e2122683a1cbaeee1", "is_disabled": 0, "rental_uris": {"ios": "https://dc.lft.to/lastmile_qr_scan", "android": "https://dc.lft.to/lastmile_qr_scan"}, "is_reserved": 0}, {"lon": -77.0628105, "bike_id": "b1d3239742d3ede7055d1603e6a9b04a", "lat": 38.9055065, "fusion_lon": 0.0, "fusion_lat": 0.0, "type": "electric_scooter", "name": "b1d3239742d3ede7055d1603e6a9b04a", "is_disabled": 0, "rental_uris": {"ios": "https://dc.lft.to/lastmile_qr_scan", "android": "https://dc.lft.to/lastmile_qr_scan"}, "is_reserved": 0}, {"lon": -77.04442783333333, "bike_id": "5b8be04e130dc60c063fd090623b5ab7", "lat": 38.92164666666667, "fusion_lon": 0.0, "fusion_lat": 0.0, "type": "electric_scooter", "name": "5b8be04e130dc60c063fd090623b5ab7", "is_disabled": 0, "rental_uris": {"ios": "https://dc.lft.to/lastmile_qr_scan", "android": "https://dc.lft.to/lastmile_qr_scan"}, "is_reserved": 0}, {"lon": -77.032995, "bike_id": "dbc276ae55bddfdb066b251088341666", "lat": 38.92556366666667, "fusion_lon": 0.0, "fusion_lat": 0.0, "type": "electric_scooter", "name": "dbc276ae55bddfdb066b251088341666", "is_disabled": 0, "rental_uris": {"ios": "https://dc.lft.to/lastmile_qr_scan", "android": "https://dc.lft.to/lastmile_qr_scan"}, "is_reserved": 0}, {"lon": -77.0382685, "bike_id": "f6523ae529b73ef6c97dd636e9fa50a2", "lat": 38.916946, "fusion_lon": 0.0, "fusion_lat": 0.0, "type": "electric_scooter", "name": "f6523ae529b73ef6c97dd636e9fa50a2", "is_disabled": 0, "rental_uris": {"ios": "https://dc.lft.to/lastmile_qr_scan", "android": "https://dc.lft.to/lastmile_qr_scan"}, "is_reserved": 0}, {"lon": -77.0240515, "bike_id": "50dbc8cb853c0cc2da6228d14ffab310", "lat": 38.90952133333333, "fusion_lon": 0.0, "fusion_lat": 0.0, "type": "electric_scooter", "name": "50dbc8cb853c0cc2da6228d14ffab310", "is_disabled": 0, "rental_uris": {"ios": "https://dc.lft.to/lastmile_qr_scan", "android": "https://dc.lft.to/lastmile_qr_scan"}, "is_reserved": 0}, {"lon": -77.02691916666667, "bike_id": "18ec40f266987cc4a4b9790312644a7c", "lat": 38.9023955, "fusion_lon": 0.0, "fusion_lat": 0.0, "type": "electric_scooter", "name": "18ec40f266987cc4a4b9790312644a7c", "is_disabled": 0, "rental_uris": {"ios": "https://dc.lft.to/lastmile_qr_scan", "android": "https://dc.lft.to/lastmile_qr_scan"}, "is_reserved": 0}, {"lon": -77.03475466666667, "bike_id": "68ebcf5754fc84d68bdd8cfd7cc0b68a", "lat": 38.88487766666667, "fusion_lon": 0.0, "fusion_lat": 0.0, "type": "electric_scooter", "name": "68ebcf5754fc84d68bdd8cfd7cc0b68a", "is_disabled": 0, "rental_uris": {"ios": "https://dc.lft.to/lastmile_qr_scan", "android": "https://dc.lft.to/lastmile_qr_scan"}, "is_reserved": 0}, {"lon": -77.04176633333333, "bike_id": "9c2b79a54cfb013d3fb3940da9bcdae6", "lat": 38.90309716666667, "fusion_lon": 0.0, "fusion_lat": 0.0, "type": "electric_scooter", "name": "9c2b79a54cfb013d3fb3940da9bcdae6", "is_disabled": 0, "rental_uris": {"ios": "https://dc.lft.to/lastmile_qr_scan", "android": "https://dc.lft.to/lastmile_qr_scan"}, "is_reserved": 0}, {"lon": -76.97684333333333, "bike_id": "7c07a4660fd8bc3512f0aef6c537ee0b", "lat": 38.896213833333334, "fusion_lon": 0.0, "fusion_lat": 0.0, "type": "electric_scooter", "name": "7c07a4660fd8bc3512f0aef6c537ee0b", "is_disabled": 0, "rental_uris": {"ios": "https://dc.lft.to/lastmile_qr_scan", "android": "https://dc.lft.to/lastmile_qr_scan"}, "is_reserved": 0}, {"lon": -77.03340016666667, "bike_id": "de4f81bd5b04896c1a32f799b3450696", "lat": 38.90283566666667, "fusion_lon": 0.0, "fusion_lat": 0.0, "type": "electric_scooter", "name": "de4f81bd5b04896c1a32f799b3450696", "is_disabled": 0, "rental_uris": {"ios": "https://dc.lft.to/lastmile_qr_scan", "android": "https://dc.lft.to/lastmile_qr_scan"}, "is_reserved": 0}, {"lon": -76.987408, "bike_id": "08417fefe29ae89eefece2e8b787bc86", "lat": 38.8861125, "fusion_lon": 0.0, "fusion_lat": 0.0, "type": "electric_scooter", "name": "08417fefe29ae89eefece2e8b787bc86", "is_disabled": 0, "rental_uris": {"ios": "https://dc.lft.to/lastmile_qr_scan", "android": "https://dc.lft.to/lastmile_qr_scan"}, "is_reserved": 0}, {"lon": -77.02169283333333, "bike_id": "76dff7b65a0782635650c2f95685319c", "lat": 38.94292083333333, "fusion_lon": 0.0, "fusion_lat": 0.0, "type": "electric_scooter", "name": "76dff7b65a0782635650c2f95685319c", "is_disabled": 0, "rental_uris": {"ios": "https://dc.lft.to/lastmile_qr_scan", "android": "https://dc.lft.to/lastmile_qr_scan"}, "is_reserved": 0}, {"lon": -77.029787, "bike_id": "487a57d0013613f07a0546a6bd419f99", "lat": 38.93066016666667, "fusion_lon": 0.0, "fusion_lat": 0.0, "type": "electric_scooter", "name": "487a57d0013613f07a0546a6bd419f99", "is_disabled": 0, "rental_uris": {"ios": "https://dc.lft.to/lastmile_qr_scan", "android": "https://dc.lft.to/lastmile_qr_scan"}, "is_reserved": 0}, {"lon": -77.02655466666667, "bike_id": "4561d47051e364834d7e02feaaf89fe5", "lat": 38.929733, "fusion_lon": 0.0, "fusion_lat": 0.0, "type": "electric_scooter", "name": "4561d47051e364834d7e02feaaf89fe5", "is_disabled": 0, "rental_uris": {"ios": "https://dc.lft.to/lastmile_qr_scan", "android": "https://dc.lft.to/lastmile_qr_scan"}, "is_reserved": 0}, {"lon": -77.05419816666667, "bike_id": "c5fa2f1f17a1f611ed37297aafa43c75", "lat": 38.90154016666666, "fusion_lon": 0.0, "fusion_lat": 0.0, "type": "electric_scooter", "name": "c5fa2f1f17a1f611ed37297aafa43c75", "is_disabled": 0, "rental_uris": {"ios": "https://dc.lft.to/lastmile_qr_scan", "android": "https://dc.lft.to/lastmile_qr_scan"}, "is_reserved": 0}, {"lon": -77.02998266666667, "bike_id": "ccb8b6d86efd48663a773153713758bb", "lat": 38.9074375, "fusion_lon": 0.0, "fusion_lat": 0.0, "type": "electric_scooter", "name": "ccb8b6d86efd48663a773153713758bb", "is_disabled": 0, "rental_uris": {"ios": "https://dc.lft.to/lastmile_qr_scan", "android": "https://dc.lft.to/lastmile_qr_scan"}, "is_reserved": 0}, {"lon": -77.00043516666666, "bike_id": "a08d0dc28b528d9c71e243dcd4d99531", "lat": 38.9680495, "fusion_lon": 0.0, "fusion_lat": 0.0, "type": "electric_bike", "name": "a08d0dc28b528d9c71e243dcd4d99531", "is_disabled": 0, "rental_uris": {"ios": "https://dc.lft.to/lastmile_qr_scan", "android": "https://dc.lft.to/lastmile_qr_scan"}, "is_reserved": 0}, {"lon": -77.020829, "bike_id": "9b7dd280f6512efb3b4729588af51708", "lat": 38.936351333333334, "fusion_lon": 0.0, "fusion_lat": 0.0, "type": "electric_scooter", "name": "9b7dd280f6512efb3b4729588af51708", "is_disabled": 0, "rental_uris": {"ios": "https://dc.lft.to/lastmile_qr_scan", "android": "https://dc.lft.to/lastmile_qr_scan"}, "is_reserved": 0}, {"lon": -76.98884016666666, "bike_id": "fda0df2ae8d76c579319417c16d85332", "lat": 38.86660633333334, "fusion_lon": 0.0, "fusion_lat": 0.0, "type": "electric_scooter", "name": "fda0df2ae8d76c579319417c16d85332", "is_disabled": 0, "rental_uris": {"ios": "https://dc.lft.to/lastmile_qr_scan", "android": "https://dc.lft.to/lastmile_qr_scan"}, "is_reserved": 0}, {"lon": -77.02159816666666, "bike_id": "eadf1f65f8cc65256e65141a63786306", "lat": 38.89218866666667, "fusion_lon": 0.0, "fusion_lat": 0.0, "type": "electric_scooter", "name": "eadf1f65f8cc65256e65141a63786306", "is_disabled": 0, "rental_uris": {"ios": "https://dc.lft.to/lastmile_qr_scan", "android": "https://dc.lft.to/lastmile_qr_scan"}, "is_reserved": 0}, {"lon": -77.022907, "bike_id": "c89fa415516ad24b9360d00d6ce0ac3a", "lat": 38.9097805, "fusion_lon": 0.0, "fusion_lat": 0.0, "type": "electric_scooter", "name": "c89fa415516ad24b9360d00d6ce0ac3a", "is_disabled": 0, "rental_uris": {"ios": "https://dc.lft.to/lastmile_qr_scan", "android": "https://dc.lft.to/lastmile_qr_scan"}, "is_reserved": 0}, {"lon": -76.9817845, "bike_id": "7bacd63fcf6b5bb47506dc2e8c8e8d29", "lat": 38.8957695, "fusion_lon": 0.0, "fusion_lat": 0.0, "type": "electric_scooter", "name": "7bacd63fcf6b5bb47506dc2e8c8e8d29", "is_disabled": 0, "rental_uris": {"ios": "https://dc.lft.to/lastmile_qr_scan", "android": "https://dc.lft.to/lastmile_qr_scan"}, "is_reserved": 0}, {"lon": -77.043425, "bike_id": "579f6ed80132eb982000a6515e9901cd", "lat": 38.9295955, "fusion_lon": 0.0, "fusion_lat": 0.0, "type": "electric_scooter", "name": "579f6ed80132eb982000a6515e9901cd", "is_disabled": 0, "rental_uris": {"ios": "https://dc.lft.to/lastmile_qr_scan", "android": "https://dc.lft.to/lastmile_qr_scan"}, "is_reserved": 0}, {"lon": -77.026924, "bike_id": "18157f2fdfc47446a9e87d75b644d7e2", "lat": 38.91357333333333, "fusion_lon": 0.0, "fusion_lat": 0.0, "type": "electric_scooter", "name": "18157f2fdfc47446a9e87d75b644d7e2", "is_disabled": 0, "rental_uris": {"ios": "https://dc.lft.to/lastmile_qr_scan", "android": "https://dc.lft.to/lastmile_qr_scan"}, "is_reserved": 0}, {"lon": -77.04872916666666, "bike_id": "13dc289cb3623677fac136293c80bdd7", "lat": 38.90975133333333, "fusion_lon": 0.0, "fusion_lat": 0.0, "type": "electric_scooter", "name": "13dc289cb3623677fac136293c80bdd7", "is_disabled": 0, "rental_uris": {"ios": "https://dc.lft.to/lastmile_qr_scan", "android": "https://dc.lft.to/lastmile_qr_scan"}, "is_reserved": 0}, {"lon": -77.0364005, "bike_id": "736f12da38a592ca6c9248c9c5efa420", "lat": 38.924618, "fusion_lon": 0.0, "fusion_lat": 0.0, "type": "electric_scooter", "name": "736f12da38a592ca6c9248c9c5efa420", "is_disabled": 0, "rental_uris": {"ios": "https://dc.lft.to/lastmile_qr_scan", "android": "https://dc.lft.to/lastmile_qr_scan"}, "is_reserved": 0}, {"lon": -77.02418416666667, "bike_id": "ec3b91c8c5367469d9385fb189a0f4b3", "lat": 38.919170666666666, "fusion_lon": 0.0, "fusion_lat": 0.0, "type": "electric_scooter", "name": "ec3b91c8c5367469d9385fb189a0f4b3", "is_disabled": 0, "rental_uris": {"ios": "https://dc.lft.to/lastmile_qr_scan", "android": "https://dc.lft.to/lastmile_qr_scan"}, "is_reserved": 0}, {"lon": -77.04131466666666, "bike_id": "1efb0090a734001239dd036667624a01", "lat": 38.9209955, "fusion_lon": 0.0, "fusion_lat": 0.0, "type": "electric_scooter", "name": "1efb0090a734001239dd036667624a01", "is_disabled": 0, "rental_uris": {"ios": "https://dc.lft.to/lastmile_qr_scan", "android": "https://dc.lft.to/lastmile_qr_scan"}, "is_reserved": 0}, {"lon": -77.022879, "bike_id": "f647c1b4786dd09535329a63e8402c90", "lat": 38.90957983333333, "fusion_lon": 0.0, "fusion_lat": 0.0, "type": "electric_scooter", "name": "f647c1b4786dd09535329a63e8402c90", "is_disabled": 0, "rental_uris": {"ios": "https://dc.lft.to/lastmile_qr_scan", "android": "https://dc.lft.to/lastmile_qr_scan"}, "is_reserved": 0}, {"lon": -76.93372516666666, "bike_id": "f0a70438cb2809a1e9d60bbaeff2b37b", "lat": 38.899108166666664, "fusion_lon": 0.0, "fusion_lat": 0.0, "type": "electric_scooter", "name": "f0a70438cb2809a1e9d60bbaeff2b37b", "is_disabled": 0, "rental_uris": {"ios": "https://dc.lft.to/lastmile_qr_scan", "android": "https://dc.lft.to/lastmile_qr_scan"}, "is_reserved": 0}, {"lon": -77.03462166666667, "bike_id": "b1c4bc619a0e6308273cd7707ee738c7", "lat": 38.934342, "fusion_lon": 0.0, "fusion_lat": 0.0, "type": "electric_scooter", "name": "b1c4bc619a0e6308273cd7707ee738c7", "is_disabled": 0, "rental_uris": {"ios": "https://dc.lft.to/lastmile_qr_scan", "android": "https://dc.lft.to/lastmile_qr_scan"}, "is_reserved": 0}, {"lon": -77.03448216666666, "bike_id": "2b0d14aa20d1ba02c163037e90e41372", "lat": 38.909499, "fusion_lon": 0.0, "fusion_lat": 0.0, "type": "electric_scooter", "name": "2b0d14aa20d1ba02c163037e90e41372", "is_disabled": 0, "rental_uris": {"ios": "https://dc.lft.to/lastmile_qr_scan", "android": "https://dc.lft.to/lastmile_qr_scan"}, "is_reserved": 0}, {"lon": -76.9967905, "bike_id": "ecfc73934e7b7d2cbcf5c9bcc5d7bf93", "lat": 38.881231, "fusion_lon": 0.0, "fusion_lat": 0.0, "type": "electric_scooter", "name": "ecfc73934e7b7d2cbcf5c9bcc5d7bf93", "is_disabled": 0, "rental_uris": {"ios": "https://dc.lft.to/lastmile_qr_scan", "android": "https://dc.lft.to/lastmile_qr_scan"}, "is_reserved": 0}, {"lon": -77.02002166666666, "bike_id": "a4bdc3a2aa474b1ba4fcdf552b4e2786", "lat": 38.91143483333333, "fusion_lon": 0.0, "fusion_lat": 0.0, "type": "electric_scooter", "name": "a4bdc3a2aa474b1ba4fcdf552b4e2786", "is_disabled": 0, "rental_uris": {"ios": "https://dc.lft.to/lastmile_qr_scan", "android": "https://dc.lft.to/lastmile_qr_scan"}, "is_reserved": 0}, {"lon": -77.02975816666667, "bike_id": "4bcdedd1f3b5934096b6c3e23a579212", "lat": 38.921941333333336, "fusion_lon": 0.0, "fusion_lat": 0.0, "type": "electric_scooter", "name": "4bcdedd1f3b5934096b6c3e23a579212", "is_disabled": 0, "rental_uris": {"ios": "https://dc.lft.to/lastmile_qr_scan", "android": "https://dc.lft.to/lastmile_qr_scan"}, "is_reserved": 0}, {"lon": -77.07583116666666, "bike_id": "83fedb05a231d0abaa91336d4aa278e0", "lat": 38.91264533333333, "fusion_lon": 0.0, "fusion_lat": 0.0, "type": "electric_scooter", "name": "83fedb05a231d0abaa91336d4aa278e0", "is_disabled": 0, "rental_uris": {"ios": "https://dc.lft.to/lastmile_qr_scan", "android": "https://dc.lft.to/lastmile_qr_scan"}, "is_reserved": 0}, {"lon": -77.01249, "bike_id": "a00a66bfe1da8ad8a8417fc4eca28918", "lat": 38.91574416666667, "fusion_lon": 0.0, "fusion_lat": 0.0, "type": "electric_scooter", "name": "a00a66bfe1da8ad8a8417fc4eca28918", "is_disabled": 0, "rental_uris": {"ios": "https://dc.lft.to/lastmile_qr_scan", "android": "https://dc.lft.to/lastmile_qr_scan"}, "is_reserved": 0}, {"lon": -77.0482945, "bike_id": "0bece95d3541cb2d69387b05b058fc2c", "lat": 38.89738066666666, "fusion_lon": 0.0, "fusion_lat": 0.0, "type": "electric_scooter", "name": "0bece95d3541cb2d69387b05b058fc2c", "is_disabled": 0, "rental_uris": {"ios": "https://dc.lft.to/lastmile_qr_scan", "android": "https://dc.lft.to/lastmile_qr_scan"}, "is_reserved": 0}, {"lon": -77.0218245, "bike_id": "4011942fc928610132b5603e0a84e015", "lat": 38.9105415, "fusion_lon": 0.0, "fusion_lat": 0.0, "type": "electric_scooter", "name": "4011942fc928610132b5603e0a84e015", "is_disabled": 0, "rental_uris": {"ios": "https://dc.lft.to/lastmile_qr_scan", "android": "https://dc.lft.to/lastmile_qr_scan"}, "is_reserved": 0}, {"lon": -77.011922, "bike_id": "4d10bffcb710a97172160a94dc4cb607", "lat": 38.9001945, "fusion_lon": 0.0, "fusion_lat": 0.0, "type": "electric_scooter", "name": "4d10bffcb710a97172160a94dc4cb607", "is_disabled": 0, "rental_uris": {"ios": "https://dc.lft.to/lastmile_qr_scan", "android": "https://dc.lft.to/lastmile_qr_scan"}, "is_reserved": 0}, {"lon": -77.02380733333334, "bike_id": "9719e2b3091af97e63bf984d360dc15f", "lat": 38.909608, "fusion_lon": 0.0, "fusion_lat": 0.0, "type": "electric_scooter", "name": "9719e2b3091af97e63bf984d360dc15f", "is_disabled": 0, "rental_uris": {"ios": "https://dc.lft.to/lastmile_qr_scan", "android": "https://dc.lft.to/lastmile_qr_scan"}, "is_reserved": 0}, {"lon": -77.03849033333333, "bike_id": "745155de2caa1bd080b7e1884154bfdb", "lat": 38.91749883333333, "fusion_lon": 0.0, "fusion_lat": 0.0, "type": "electric_scooter", "name": "745155de2caa1bd080b7e1884154bfdb", "is_disabled": 0, "rental_uris": {"ios": "https://dc.lft.to/lastmile_qr_scan", "android": "https://dc.lft.to/lastmile_qr_scan"}, "is_reserved": 0}, {"lon": -77.0342545, "bike_id": "d9a8f25101ee32f339b9403146504032", "lat": 38.96532033333333, "fusion_lon": 0.0, "fusion_lat": 0.0, "type": "electric_bike", "name": "d9a8f25101ee32f339b9403146504032", "is_disabled": 0, "rental_uris": {"ios": "https://dc.lft.to/lastmile_qr_scan", "android": "https://dc.lft.to/lastmile_qr_scan"}, "is_reserved": 0}, {"lon": -77.049074, "bike_id": "0813f19c0f5060376b62d65b41c0eecd", "lat": 38.915978333333335, "fusion_lon": 0.0, "fusion_lat": 0.0, "type": "electric_scooter", "name": "0813f19c0f5060376b62d65b41c0eecd", "is_disabled": 0, "rental_uris": {"ios": "https://dc.lft.to/lastmile_qr_scan", "android": "https://dc.lft.to/lastmile_qr_scan"}, "is_reserved": 0}, {"lon": -77.02583833333334, "bike_id": "3fb3cd8b36f0f4c5c5d346b18df3566b", "lat": 38.91408633333333, "fusion_lon": 0.0, "fusion_lat": 0.0, "type": "electric_scooter", "name": "3fb3cd8b36f0f4c5c5d346b18df3566b", "is_disabled": 0, "rental_uris": {"ios": "https://dc.lft.to/lastmile_qr_scan", "android": "https://dc.lft.to/lastmile_qr_scan"}, "is_reserved": 0}, {"lon": -76.97206833333334, "bike_id": "5f81c30fdc3d0eb48034e413db5d90c3", "lat": 38.892899, "fusion_lon": 0.0, "fusion_lat": 0.0, "type": "electric_bike", "name": "5f81c30fdc3d0eb48034e413db5d90c3", "is_disabled": 0, "rental_uris": {"ios": "https://dc.lft.to/lastmile_qr_scan", "android": "https://dc.lft.to/lastmile_qr_scan"}, "is_reserved": 0}, {"lon": -77.05311033333334, "bike_id": "e3d776d90bfb94db785656f8ee72f0ab", "lat": 38.900712166666665, "fusion_lon": 0.0, "fusion_lat": 0.0, "type": "electric_scooter", "name": "e3d776d90bfb94db785656f8ee72f0ab", "is_disabled": 0, "rental_uris": {"ios": "https://dc.lft.to/lastmile_qr_scan", "android": "https://dc.lft.to/lastmile_qr_scan"}, "is_reserved": 0}, {"lon": -77.02803166666666, "bike_id": "a10bb96a9cd33803a5e599e4f9b3e87b", "lat": 38.906657333333335, "fusion_lon": 0.0, "fusion_lat": 0.0, "type": "electric_scooter", "name": "a10bb96a9cd33803a5e599e4f9b3e87b", "is_disabled": 0, "rental_uris": {"ios": "https://dc.lft.to/lastmile_qr_scan", "android": "https://dc.lft.to/lastmile_qr_scan"}, "is_reserved": 0}, {"lon": -77.055778, "bike_id": "4233ba3d601d8abeb7a61bf124baa07b", "lat": 38.897250166666666, "fusion_lon": 0.0, "fusion_lat": 0.0, "type": "electric_scooter", "name": "4233ba3d601d8abeb7a61bf124baa07b", "is_disabled": 0, "rental_uris": {"ios": "https://dc.lft.to/lastmile_qr_scan", "android": "https://dc.lft.to/lastmile_qr_scan"}, "is_reserved": 0}, {"lon": -76.9954855, "bike_id": "fb31aecc37f686cdb2b64d076de1e80d", "lat": 38.861965833333336, "fusion_lon": 0.0, "fusion_lat": 0.0, "type": "electric_scooter", "name": "fb31aecc37f686cdb2b64d076de1e80d", "is_disabled": 0, "rental_uris": {"ios": "https://dc.lft.to/lastmile_qr_scan", "android": "https://dc.lft.to/lastmile_qr_scan"}, "is_reserved": 0}, {"lon": -76.94652283333333, "bike_id": "e57cb102dcdd10b6911a640172fda295", "lat": 38.898225, "fusion_lon": 0.0, "fusion_lat": 0.0, "type": "electric_scooter", "name": "e57cb102dcdd10b6911a640172fda295", "is_disabled": 0, "rental_uris": {"ios": "https://dc.lft.to/lastmile_qr_scan", "android": "https://dc.lft.to/lastmile_qr_scan"}, "is_reserved": 0}, {"lon": -76.98230233333334, "bike_id": "923dbaff3eae2a27761154cee4c35040", "lat": 38.86471266666667, "fusion_lon": 0.0, "fusion_lat": 0.0, "type": "electric_scooter", "name": "923dbaff3eae2a27761154cee4c35040", "is_disabled": 0, "rental_uris": {"ios": "https://dc.lft.to/lastmile_qr_scan", "android": "https://dc.lft.to/lastmile_qr_scan"}, "is_reserved": 0}, {"lon": -77.0177115, "bike_id": "b53ed559d273eabc1f456241deb7b65d", "lat": 38.9004075, "fusion_lon": 0.0, "fusion_lat": 0.0, "type": "electric_scooter", "name": "b53ed559d273eabc1f456241deb7b65d", "is_disabled": 0, "rental_uris": {"ios": "https://dc.lft.to/lastmile_qr_scan", "android": "https://dc.lft.to/lastmile_qr_scan"}, "is_reserved": 0}, {"lon": -76.99033966666667, "bike_id": "a28bf7e1cf1860167a29b998f7523378", "lat": 38.89601566666666, "fusion_lon": 0.0, "fusion_lat": 0.0, "type": "electric_scooter", "name": "a28bf7e1cf1860167a29b998f7523378", "is_disabled": 0, "rental_uris": {"ios": "https://dc.lft.to/lastmile_qr_scan", "android": "https://dc.lft.to/lastmile_qr_scan"}, "is_reserved": 0}, {"lon": -77.13927483333333, "bike_id": "2fde04e14f4e6c0c5abb7b31c311c4e7", "lat": 38.872939333333335, "fusion_lon": 0.0, "fusion_lat": 0.0, "type": "electric_bike", "name": "2fde04e14f4e6c0c5abb7b31c311c4e7", "is_disabled": 0, "rental_uris": {"ios": "https://dc.lft.to/lastmile_qr_scan", "android": "https://dc.lft.to/lastmile_qr_scan"}, "is_reserved": 0}, {"lon": -77.029676, "bike_id": "13d492d8b123bef4570b42e6fe0965d9", "lat": 38.916787666666664, "fusion_lon": 0.0, "fusion_lat": 0.0, "type": "electric_scooter", "name": "13d492d8b123bef4570b42e6fe0965d9", "is_disabled": 0, "rental_uris": {"ios": "https://dc.lft.to/lastmile_qr_scan", "android": "https://dc.lft.to/lastmile_qr_scan"}, "is_reserved": 0}, {"lon": -77.03187116666666, "bike_id": "757fd0c060974bedda4948e613a07f4c", "lat": 38.915090166666666, "fusion_lon": 0.0, "fusion_lat": 0.0, "type": "electric_scooter", "name": "757fd0c060974bedda4948e613a07f4c", "is_disabled": 0, "rental_uris": {"ios": "https://dc.lft.to/lastmile_qr_scan", "android": "https://dc.lft.to/lastmile_qr_scan"}, "is_reserved": 0}, {"lon": -77.02262716666667, "bike_id": "8a5def8e67f7380661a3238370d721db", "lat": 38.927414666666664, "fusion_lon": 0.0, "fusion_lat": 0.0, "type": "electric_scooter", "name": "8a5def8e67f7380661a3238370d721db", "is_disabled": 0, "rental_uris": {"ios": "https://dc.lft.to/lastmile_qr_scan", "android": "https://dc.lft.to/lastmile_qr_scan"}, "is_reserved": 0}, {"lon": -77.0431415, "bike_id": "d1f02a790f300a813ae49e528ec8c0ed", "lat": 38.91879733333333, "fusion_lon": 0.0, "fusion_lat": 0.0, "type": "electric_scooter", "name": "d1f02a790f300a813ae49e528ec8c0ed", "is_disabled": 0, "rental_uris": {"ios": "https://dc.lft.to/lastmile_qr_scan", "android": "https://dc.lft.to/lastmile_qr_scan"}, "is_reserved": 0}, {"lon": -77.00103866666667, "bike_id": "5a98e7caf46f6e8da574cadf258d10ab", "lat": 38.89476666666667, "fusion_lon": 0.0, "fusion_lat": 0.0, "type": "electric_scooter", "name": "5a98e7caf46f6e8da574cadf258d10ab", "is_disabled": 0, "rental_uris": {"ios": "https://dc.lft.to/lastmile_qr_scan", "android": "https://dc.lft.to/lastmile_qr_scan"}, "is_reserved": 0}, {"lon": -77.065245, "bike_id": "db8fd747a47f03b034110d6ae5ebb0d5", "lat": 38.947343833333335, "fusion_lon": 0.0, "fusion_lat": 0.0, "type": "electric_scooter", "name": "db8fd747a47f03b034110d6ae5ebb0d5", "is_disabled": 0, "rental_uris": {"ios": "https://dc.lft.to/lastmile_qr_scan", "android": "https://dc.lft.to/lastmile_qr_scan"}, "is_reserved": 0}, {"lon": -77.0524215, "bike_id": "6954357088725dbcf8eeca2b90c5bd2d", "lat": 38.9001055, "fusion_lon": 0.0, "fusion_lat": 0.0, "type": "electric_scooter", "name": "6954357088725dbcf8eeca2b90c5bd2d", "is_disabled": 0, "rental_uris": {"ios": "https://dc.lft.to/lastmile_qr_scan", "android": "https://dc.lft.to/lastmile_qr_scan"}, "is_reserved": 0}, {"lon": -77.03393033333333, "bike_id": "1b48d7c08d97d3cbeed13506ddefeb62", "lat": 38.96030716666667, "fusion_lon": 0.0, "fusion_lat": 0.0, "type": "electric_bike", "name": "1b48d7c08d97d3cbeed13506ddefeb62", "is_disabled": 0, "rental_uris": {"ios": "https://dc.lft.to/lastmile_qr_scan", "android": "https://dc.lft.to/lastmile_qr_scan"}, "is_reserved": 0}, {"lon": -77.03667883333334, "bike_id": "700185d10c05e8919a468aa7eb76935a", "lat": 38.91293683333333, "fusion_lon": 0.0, "fusion_lat": 0.0, "type": "electric_scooter", "name": "700185d10c05e8919a468aa7eb76935a", "is_disabled": 0, "rental_uris": {"ios": "https://dc.lft.to/lastmile_qr_scan", "android": "https://dc.lft.to/lastmile_qr_scan"}, "is_reserved": 0}, {"lon": -76.99883066666666, "bike_id": "e4aa231fd8276df033b24e20b7fe6f06", "lat": 38.92053683333334, "fusion_lon": 0.0, "fusion_lat": 0.0, "type": "electric_scooter", "name": "e4aa231fd8276df033b24e20b7fe6f06", "is_disabled": 0, "rental_uris": {"ios": "https://dc.lft.to/lastmile_qr_scan", "android": "https://dc.lft.to/lastmile_qr_scan"}, "is_reserved": 0}, {"lon": -76.98486033333333, "bike_id": "56429eaf281a41b6cc2d5aa08937c308", "lat": 38.89898616666667, "fusion_lon": 0.0, "fusion_lat": 0.0, "type": "electric_scooter", "name": "56429eaf281a41b6cc2d5aa08937c308", "is_disabled": 0, "rental_uris": {"ios": "https://dc.lft.to/lastmile_qr_scan", "android": "https://dc.lft.to/lastmile_qr_scan"}, "is_reserved": 0}, {"lon": -77.0036595, "bike_id": "9501991b785c72df38ad08776a8432cc", "lat": 38.915522333333335, "fusion_lon": 0.0, "fusion_lat": 0.0, "type": "electric_scooter", "name": "9501991b785c72df38ad08776a8432cc", "is_disabled": 0, "rental_uris": {"ios": "https://dc.lft.to/lastmile_qr_scan", "android": "https://dc.lft.to/lastmile_qr_scan"}, "is_reserved": 0}, {"lon": -77.00917683333333, "bike_id": "5b062cf6133d6fb2bcf61bf5ec1f7da6", "lat": 38.89549483333333, "fusion_lon": 0.0, "fusion_lat": 0.0, "type": "electric_scooter", "name": "5b062cf6133d6fb2bcf61bf5ec1f7da6", "is_disabled": 0, "rental_uris": {"ios": "https://dc.lft.to/lastmile_qr_scan", "android": "https://dc.lft.to/lastmile_qr_scan"}, "is_reserved": 0}, {"lon": -77.04219966666666, "bike_id": "e2ede4c6778cc754ada18cff80f8412b", "lat": 38.911187, "fusion_lon": 0.0, "fusion_lat": 0.0, "type": "electric_scooter", "name": "e2ede4c6778cc754ada18cff80f8412b", "is_disabled": 0, "rental_uris": {"ios": "https://dc.lft.to/lastmile_qr_scan", "android": "https://dc.lft.to/lastmile_qr_scan"}, "is_reserved": 0}, {"lon": -76.9658835, "bike_id": "9a29a1c90dd7bd37da1db5492aed67e4", "lat": 38.871335, "fusion_lon": 0.0, "fusion_lat": 0.0, "type": "electric_scooter", "name": "9a29a1c90dd7bd37da1db5492aed67e4", "is_disabled": 0, "rental_uris": {"ios": "https://dc.lft.to/lastmile_qr_scan", "android": "https://dc.lft.to/lastmile_qr_scan"}, "is_reserved": 0}, {"lon": -76.99778866666666, "bike_id": "f8f84fbfdaf2f05d89e2645bb6950470", "lat": 38.8443015, "fusion_lon": 0.0, "fusion_lat": 0.0, "type": "electric_scooter", "name": "f8f84fbfdaf2f05d89e2645bb6950470", "is_disabled": 0, "rental_uris": {"ios": "https://dc.lft.to/lastmile_qr_scan", "android": "https://dc.lft.to/lastmile_qr_scan"}, "is_reserved": 0}, {"lon": -77.00286483333333, "bike_id": "ea5d5540ae6e5558af4ad02d87233422", "lat": 38.95696983333333, "fusion_lon": 0.0, "fusion_lat": 0.0, "type": "electric_bike", "name": "ea5d5540ae6e5558af4ad02d87233422", "is_disabled": 0, "rental_uris": {"ios": "https://dc.lft.to/lastmile_qr_scan", "android": "https://dc.lft.to/lastmile_qr_scan"}, "is_reserved": 0}, {"lon": -76.99767016666667, "bike_id": "d7e4040c2cac396eb8fc0fbdfdc7d46f", "lat": 38.92447883333333, "fusion_lon": 0.0, "fusion_lat": 0.0, "type": "electric_scooter", "name": "d7e4040c2cac396eb8fc0fbdfdc7d46f", "is_disabled": 0, "rental_uris": {"ios": "https://dc.lft.to/lastmile_qr_scan", "android": "https://dc.lft.to/lastmile_qr_scan"}, "is_reserved": 0}, {"lon": -77.02305916666667, "bike_id": "7b0451ebde76714caa0d0b533fc1f03c", "lat": 38.909596666666665, "fusion_lon": 0.0, "fusion_lat": 0.0, "type": "electric_scooter", "name": "7b0451ebde76714caa0d0b533fc1f03c", "is_disabled": 0, "rental_uris": {"ios": "https://dc.lft.to/lastmile_qr_scan", "android": "https://dc.lft.to/lastmile_qr_scan"}, "is_reserved": 0}, {"lon": -77.05129433333333, "bike_id": "e3b0710f32b519df6efc659221f9a011", "lat": 38.92362416666667, "fusion_lon": 0.0, "fusion_lat": 0.0, "type": "electric_scooter", "name": "e3b0710f32b519df6efc659221f9a011", "is_disabled": 0, "rental_uris": {"ios": "https://dc.lft.to/lastmile_qr_scan", "android": "https://dc.lft.to/lastmile_qr_scan"}, "is_reserved": 0}, {"lon": -77.05867383333333, "bike_id": "374b1ee4222ec83a6fe4cd8f85b957bb", "lat": 38.93607183333334, "fusion_lon": 0.0, "fusion_lat": 0.0, "type": "electric_scooter", "name": "374b1ee4222ec83a6fe4cd8f85b957bb", "is_disabled": 0, "rental_uris": {"ios": "https://dc.lft.to/lastmile_qr_scan", "android": "https://dc.lft.to/lastmile_qr_scan"}, "is_reserved": 0}, {"lon": -77.003409, "bike_id": "0c6a629eca0a317fa7c71fc05e8acfcd", "lat": 38.89522083333333, "fusion_lon": 0.0, "fusion_lat": 0.0, "type": "electric_scooter", "name": "0c6a629eca0a317fa7c71fc05e8acfcd", "is_disabled": 0, "rental_uris": {"ios": "https://dc.lft.to/lastmile_qr_scan", "android": "https://dc.lft.to/lastmile_qr_scan"}, "is_reserved": 0}, {"lon": -77.02109733333333, "bike_id": "a4d7e016679cbe0a4ac7365e5d8618a8", "lat": 38.930027833333334, "fusion_lon": 0.0, "fusion_lat": 0.0, "type": "electric_scooter", "name": "a4d7e016679cbe0a4ac7365e5d8618a8", "is_disabled": 0, "rental_uris": {"ios": "https://dc.lft.to/lastmile_qr_scan", "android": "https://dc.lft.to/lastmile_qr_scan"}, "is_reserved": 0}, {"lon": -77.03070366666667, "bike_id": "e8428a2ae71ccacffa1676bae9b5d740", "lat": 38.885847166666665, "fusion_lon": 0.0, "fusion_lat": 0.0, "type": "electric_scooter", "name": "e8428a2ae71ccacffa1676bae9b5d740", "is_disabled": 0, "rental_uris": {"ios": "https://dc.lft.to/lastmile_qr_scan", "android": "https://dc.lft.to/lastmile_qr_scan"}, "is_reserved": 0}, {"lon": -77.050111, "bike_id": "5b3b1adbf5c672c36cf4fed1956b944e", "lat": 38.897798, "fusion_lon": 0.0, "fusion_lat": 0.0, "type": "electric_scooter", "name": "5b3b1adbf5c672c36cf4fed1956b944e", "is_disabled": 0, "rental_uris": {"ios": "https://dc.lft.to/lastmile_qr_scan", "android": "https://dc.lft.to/lastmile_qr_scan"}, "is_reserved": 0}, {"lon": -77.04746583333333, "bike_id": "22d0fb9f6cc05767831258dfeca6d5d8", "lat": 38.909805666666664, "fusion_lon": 0.0, "fusion_lat": 0.0, "type": "electric_scooter", "name": "22d0fb9f6cc05767831258dfeca6d5d8", "is_disabled": 0, "rental_uris": {"ios": "https://dc.lft.to/lastmile_qr_scan", "android": "https://dc.lft.to/lastmile_qr_scan"}, "is_reserved": 0}, {"lon": -77.00040933333334, "bike_id": "3ecee9eb2e7596fdb82ddabdca4e0430", "lat": 38.900138, "fusion_lon": 0.0, "fusion_lat": 0.0, "type": "electric_scooter", "name": "3ecee9eb2e7596fdb82ddabdca4e0430", "is_disabled": 0, "rental_uris": {"ios": "https://dc.lft.to/lastmile_qr_scan", "android": "https://dc.lft.to/lastmile_qr_scan"}, "is_reserved": 0}, {"lon": -77.02990766666667, "bike_id": "4186eb0ad0e7d86c244e1d23c186f0b6", "lat": 38.974405833333336, "fusion_lon": 0.0, "fusion_lat": 0.0, "type": "electric_bike", "name": "4186eb0ad0e7d86c244e1d23c186f0b6", "is_disabled": 0, "rental_uris": {"ios": "https://dc.lft.to/lastmile_qr_scan", "android": "https://dc.lft.to/lastmile_qr_scan"}, "is_reserved": 0}, {"lon": -77.04867966666667, "bike_id": "eb91e41a82865b1ef38c8cc2883a9da7", "lat": 38.89218666666667, "fusion_lon": 0.0, "fusion_lat": 0.0, "type": "electric_scooter", "name": "eb91e41a82865b1ef38c8cc2883a9da7", "is_disabled": 0, "rental_uris": {"ios": "https://dc.lft.to/lastmile_qr_scan", "android": "https://dc.lft.to/lastmile_qr_scan"}, "is_reserved": 0}, {"lon": -77.018861, "bike_id": "4011ed4da55855bd8aac7ba102e055ff", "lat": 38.914868, "fusion_lon": 0.0, "fusion_lat": 0.0, "type": "electric_scooter", "name": "4011ed4da55855bd8aac7ba102e055ff", "is_disabled": 0, "rental_uris": {"ios": "https://dc.lft.to/lastmile_qr_scan", "android": "https://dc.lft.to/lastmile_qr_scan"}, "is_reserved": 0}, {"lon": -76.9938065, "bike_id": "d07aae2034f339952e7fc812a1189e97", "lat": 38.923985333333334, "fusion_lon": 0.0, "fusion_lat": 0.0, "type": "electric_scooter", "name": "d07aae2034f339952e7fc812a1189e97", "is_disabled": 0, "rental_uris": {"ios": "https://dc.lft.to/lastmile_qr_scan", "android": "https://dc.lft.to/lastmile_qr_scan"}, "is_reserved": 0}, {"lon": -77.02171683333333, "bike_id": "e403836eab150c78ffc7124b23adf318", "lat": 38.887459, "fusion_lon": 0.0, "fusion_lat": 0.0, "type": "electric_scooter", "name": "e403836eab150c78ffc7124b23adf318", "is_disabled": 0, "rental_uris": {"ios": "https://dc.lft.to/lastmile_qr_scan", "android": "https://dc.lft.to/lastmile_qr_scan"}, "is_reserved": 0}, {"lon": -77.0298625, "bike_id": "d70a9fd5d26a8854e56099b4170cd657", "lat": 38.907355, "fusion_lon": 0.0, "fusion_lat": 0.0, "type": "electric_scooter", "name": "d70a9fd5d26a8854e56099b4170cd657", "is_disabled": 0, "rental_uris": {"ios": "https://dc.lft.to/lastmile_qr_scan", "android": "https://dc.lft.to/lastmile_qr_scan"}, "is_reserved": 0}, {"lon": -77.03122033333334, "bike_id": "36b96cf0198d51843ffa04a6c0006f97", "lat": 38.959218166666666, "fusion_lon": 0.0, "fusion_lat": 0.0, "type": "electric_bike", "name": "36b96cf0198d51843ffa04a6c0006f97", "is_disabled": 0, "rental_uris": {"ios": "https://dc.lft.to/lastmile_qr_scan", "android": "https://dc.lft.to/lastmile_qr_scan"}, "is_reserved": 0}, {"lon": -77.00489666666667, "bike_id": "a85d254287ed0c6dd9ae552fa06bf67c", "lat": 38.896900333333335, "fusion_lon": 0.0, "fusion_lat": 0.0, "type": "electric_scooter", "name": "a85d254287ed0c6dd9ae552fa06bf67c", "is_disabled": 0, "rental_uris": {"ios": "https://dc.lft.to/lastmile_qr_scan", "android": "https://dc.lft.to/lastmile_qr_scan"}, "is_reserved": 0}, {"lon": -77.00894666666667, "bike_id": "74bbc0d166b542e1d695ecbcbec66fdb", "lat": 38.92485766666667, "fusion_lon": 0.0, "fusion_lat": 0.0, "type": "electric_scooter", "name": "74bbc0d166b542e1d695ecbcbec66fdb", "is_disabled": 0, "rental_uris": {"ios": "https://dc.lft.to/lastmile_qr_scan", "android": "https://dc.lft.to/lastmile_qr_scan"}, "is_reserved": 0}, {"lon": -77.0484305, "bike_id": "147aa6820bcafa31d3e5087cf6cb0b40", "lat": 38.903825, "fusion_lon": 0.0, "fusion_lat": 0.0, "type": "electric_scooter", "name": "147aa6820bcafa31d3e5087cf6cb0b40", "is_disabled": 0, "rental_uris": {"ios": "https://dc.lft.to/lastmile_qr_scan", "android": "https://dc.lft.to/lastmile_qr_scan"}, "is_reserved": 0}, {"lon": -76.9793025, "bike_id": "f73741e2e9f54e12b2eff135dd45f202", "lat": 38.9066395, "fusion_lon": 0.0, "fusion_lat": 0.0, "type": "electric_bike", "name": "f73741e2e9f54e12b2eff135dd45f202", "is_disabled": 0, "rental_uris": {"ios": "https://dc.lft.to/lastmile_qr_scan", "android": "https://dc.lft.to/lastmile_qr_scan"}, "is_reserved": 0}, {"lon": -77.0215235, "bike_id": "b5d56f549231833103a8d4d970610cd9", "lat": 38.931301166666664, "fusion_lon": 0.0, "fusion_lat": 0.0, "type": "electric_scooter", "name": "b5d56f549231833103a8d4d970610cd9", "is_disabled": 0, "rental_uris": {"ios": "https://dc.lft.to/lastmile_qr_scan", "android": "https://dc.lft.to/lastmile_qr_scan"}, "is_reserved": 0}, {"lon": -77.0341265, "bike_id": "ba2b361735567dfd7676347ad9afc602", "lat": 38.9111025, "fusion_lon": 0.0, "fusion_lat": 0.0, "type": "electric_scooter", "name": "ba2b361735567dfd7676347ad9afc602", "is_disabled": 0, "rental_uris": {"ios": "https://dc.lft.to/lastmile_qr_scan", "android": "https://dc.lft.to/lastmile_qr_scan"}, "is_reserved": 0}, {"lon": -77.0432825, "bike_id": "3003d1c85bc3812e79f4b295c3b74276", "lat": 38.918813666666665, "fusion_lon": 0.0, "fusion_lat": 0.0, "type": "electric_scooter", "name": "3003d1c85bc3812e79f4b295c3b74276", "is_disabled": 0, "rental_uris": {"ios": "https://dc.lft.to/lastmile_qr_scan", "android": "https://dc.lft.to/lastmile_qr_scan"}, "is_reserved": 0}, {"lon": -76.985375, "bike_id": "26fe468ff72a43e3507367ab532c4b50", "lat": 38.91020433333333, "fusion_lon": 0.0, "fusion_lat": 0.0, "type": "electric_scooter", "name": "26fe468ff72a43e3507367ab532c4b50", "is_disabled": 0, "rental_uris": {"ios": "https://dc.lft.to/lastmile_qr_scan", "android": "https://dc.lft.to/lastmile_qr_scan"}, "is_reserved": 0}, {"lon": -77.03662783333333, "bike_id": "5b68556c8099040470b2b96769a787f6", "lat": 38.9210475, "fusion_lon": 0.0, "fusion_lat": 0.0, "type": "electric_scooter", "name": "5b68556c8099040470b2b96769a787f6", "is_disabled": 0, "rental_uris": {"ios": "https://dc.lft.to/lastmile_qr_scan", "android": "https://dc.lft.to/lastmile_qr_scan"}, "is_reserved": 0}, {"lon": -77.0269475, "bike_id": "de8df07517bcd24d2f8851c1539e5447", "lat": 38.948828166666665, "fusion_lon": 0.0, "fusion_lat": 0.0, "type": "electric_scooter", "name": "de8df07517bcd24d2f8851c1539e5447", "is_disabled": 0, "rental_uris": {"ios": "https://dc.lft.to/lastmile_qr_scan", "android": "https://dc.lft.to/lastmile_qr_scan"}, "is_reserved": 0}, {"lon": -77.02683583333334, "bike_id": "e6754d6ab6bd26b8d5f2069a1a706f55", "lat": 38.9848845, "fusion_lon": 0.0, "fusion_lat": 0.0, "type": "electric_scooter", "name": "e6754d6ab6bd26b8d5f2069a1a706f55", "is_disabled": 0, "rental_uris": {"ios": "https://dc.lft.to/lastmile_qr_scan", "android": "https://dc.lft.to/lastmile_qr_scan"}, "is_reserved": 0}, {"lon": -77.04263066666667, "bike_id": "b3a9e18a5e4c7b4fd49a2f9dabe9f771", "lat": 38.91705666666667, "fusion_lon": 0.0, "fusion_lat": 0.0, "type": "electric_scooter", "name": "b3a9e18a5e4c7b4fd49a2f9dabe9f771", "is_disabled": 0, "rental_uris": {"ios": "https://dc.lft.to/lastmile_qr_scan", "android": "https://dc.lft.to/lastmile_qr_scan"}, "is_reserved": 0}, {"lon": -77.015521, "bike_id": "8d0d9ac8ddc0dfd675f88258dd3689ee", "lat": 38.88318366666667, "fusion_lon": 0.0, "fusion_lat": 0.0, "type": "electric_scooter", "name": "8d0d9ac8ddc0dfd675f88258dd3689ee", "is_disabled": 0, "rental_uris": {"ios": "https://dc.lft.to/lastmile_qr_scan", "android": "https://dc.lft.to/lastmile_qr_scan"}, "is_reserved": 0}, {"lon": -77.0450225, "bike_id": "4050991fa1d82ea7bf52591173aeb46d", "lat": 38.907159166666666, "fusion_lon": 0.0, "fusion_lat": 0.0, "type": "electric_scooter", "name": "4050991fa1d82ea7bf52591173aeb46d", "is_disabled": 0, "rental_uris": {"ios": "https://dc.lft.to/lastmile_qr_scan", "android": "https://dc.lft.to/lastmile_qr_scan"}, "is_reserved": 0}, {"lon": -77.00224833333333, "bike_id": "68002dd24eb6e5e3e205f8781ea0b1e9", "lat": 38.891980333333336, "fusion_lon": 0.0, "fusion_lat": 0.0, "type": "electric_scooter", "name": "68002dd24eb6e5e3e205f8781ea0b1e9", "is_disabled": 0, "rental_uris": {"ios": "https://dc.lft.to/lastmile_qr_scan", "android": "https://dc.lft.to/lastmile_qr_scan"}, "is_reserved": 0}, {"lon": -77.02716383333333, "bike_id": "28d68e21fb2d60ca20ce790279e37c48", "lat": 38.906683666666666, "fusion_lon": 0.0, "fusion_lat": 0.0, "type": "electric_scooter", "name": "28d68e21fb2d60ca20ce790279e37c48", "is_disabled": 0, "rental_uris": {"ios": "https://dc.lft.to/lastmile_qr_scan", "android": "https://dc.lft.to/lastmile_qr_scan"}, "is_reserved": 0}, {"lon": -77.0148885, "bike_id": "3093b1419e03b921a827efb35b290478", "lat": 38.926906333333335, "fusion_lon": 0.0, "fusion_lat": 0.0, "type": "electric_scooter", "name": "3093b1419e03b921a827efb35b290478", "is_disabled": 0, "rental_uris": {"ios": "https://dc.lft.to/lastmile_qr_scan", "android": "https://dc.lft.to/lastmile_qr_scan"}, "is_reserved": 0}, {"lon": -77.02154316666666, "bike_id": "194caef7c7a1d9534b74816a84befd4d", "lat": 38.925998666666665, "fusion_lon": 0.0, "fusion_lat": 0.0, "type": "electric_scooter", "name": "194caef7c7a1d9534b74816a84befd4d", "is_disabled": 0, "rental_uris": {"ios": "https://dc.lft.to/lastmile_qr_scan", "android": "https://dc.lft.to/lastmile_qr_scan"}, "is_reserved": 0}, {"lon": -77.06359816666667, "bike_id": "d6ea611410d15b6deabd8254939d9afe", "lat": 38.94439833333333, "fusion_lon": 0.0, "fusion_lat": 0.0, "type": "electric_scooter", "name": "d6ea611410d15b6deabd8254939d9afe", "is_disabled": 0, "rental_uris": {"ios": "https://dc.lft.to/lastmile_qr_scan", "android": "https://dc.lft.to/lastmile_qr_scan"}, "is_reserved": 0}, {"lon": -77.032212, "bike_id": "5894cef3727a44381ffd6bc44e9c6569", "lat": 38.91403233333333, "fusion_lon": 0.0, "fusion_lat": 0.0, "type": "electric_scooter", "name": "5894cef3727a44381ffd6bc44e9c6569", "is_disabled": 0, "rental_uris": {"ios": "https://dc.lft.to/lastmile_qr_scan", "android": "https://dc.lft.to/lastmile_qr_scan"}, "is_reserved": 0}, {"lon": -77.04468766666666, "bike_id": "28d731df4c07f1e7a3b60dccdb4f9d7e", "lat": 38.900541, "fusion_lon": 0.0, "fusion_lat": 0.0, "type": "electric_scooter", "name": "28d731df4c07f1e7a3b60dccdb4f9d7e", "is_disabled": 0, "rental_uris": {"ios": "https://dc.lft.to/lastmile_qr_scan", "android": "https://dc.lft.to/lastmile_qr_scan"}, "is_reserved": 0}, {"lon": -77.03179133333333, "bike_id": "648f16b165c49cb6020f29f1e8f799a8", "lat": 38.8840705, "fusion_lon": 0.0, "fusion_lat": 0.0, "type": "electric_scooter", "name": "648f16b165c49cb6020f29f1e8f799a8", "is_disabled": 0, "rental_uris": {"ios": "https://dc.lft.to/lastmile_qr_scan", "android": "https://dc.lft.to/lastmile_qr_scan"}, "is_reserved": 0}, {"lon": -77.021699, "bike_id": "8ef07f3618c2e43d5091ed8aae127561", "lat": 38.94291233333333, "fusion_lon": 0.0, "fusion_lat": 0.0, "type": "electric_scooter", "name": "8ef07f3618c2e43d5091ed8aae127561", "is_disabled": 0, "rental_uris": {"ios": "https://dc.lft.to/lastmile_qr_scan", "android": "https://dc.lft.to/lastmile_qr_scan"}, "is_reserved": 0}, {"lon": -77.03267666666666, "bike_id": "81981f0882c15d90c12bbf220d3b65e1", "lat": 38.897334, "fusion_lon": 0.0, "fusion_lat": 0.0, "type": "electric_bike", "name": "81981f0882c15d90c12bbf220d3b65e1", "is_disabled": 0, "rental_uris": {"ios": "https://dc.lft.to/lastmile_qr_scan", "android": "https://dc.lft.to/lastmile_qr_scan"}, "is_reserved": 0}, {"lon": -76.98613166666667, "bike_id": "ac2c430cc04bb4b4709c4b5ea032c956", "lat": 38.905852833333334, "fusion_lon": 0.0, "fusion_lat": 0.0, "type": "electric_scooter", "name": "ac2c430cc04bb4b4709c4b5ea032c956", "is_disabled": 0, "rental_uris": {"ios": "https://dc.lft.to/lastmile_qr_scan", "android": "https://dc.lft.to/lastmile_qr_scan"}, "is_reserved": 0}, {"lon": -77.00141166666667, "bike_id": "4bc58dafaccfb9ae3e5137ac8c94eb3c", "lat": 38.84282066666667, "fusion_lon": 0.0, "fusion_lat": 0.0, "type": "electric_scooter", "name": "4bc58dafaccfb9ae3e5137ac8c94eb3c", "is_disabled": 0, "rental_uris": {"ios": "https://dc.lft.to/lastmile_qr_scan", "android": "https://dc.lft.to/lastmile_qr_scan"}, "is_reserved": 0}, {"lon": -76.93179166666667, "bike_id": "3fe4fd20d68d213aec9964163fc0ea8e", "lat": 38.898838166666664, "fusion_lon": 0.0, "fusion_lat": 0.0, "type": "electric_scooter", "name": "3fe4fd20d68d213aec9964163fc0ea8e", "is_disabled": 0, "rental_uris": {"ios": "https://dc.lft.to/lastmile_qr_scan", "android": "https://dc.lft.to/lastmile_qr_scan"}, "is_reserved": 0}, {"lon": -76.950177, "bike_id": "2a61835bb3bb03dc00de03609fee9ad7", "lat": 38.893998333333336, "fusion_lon": 0.0, "fusion_lat": 0.0, "type": "electric_scooter", "name": "2a61835bb3bb03dc00de03609fee9ad7", "is_disabled": 0, "rental_uris": {"ios": "https://dc.lft.to/lastmile_qr_scan", "android": "https://dc.lft.to/lastmile_qr_scan"}, "is_reserved": 0}, {"lon": -77.07672933333333, "bike_id": "033018353915e533c6448b1a76b31d30", "lat": 38.94322716666667, "fusion_lon": 0.0, "fusion_lat": 0.0, "type": "electric_scooter", "name": "033018353915e533c6448b1a76b31d30", "is_disabled": 0, "rental_uris": {"ios": "https://dc.lft.to/lastmile_qr_scan", "android": "https://dc.lft.to/lastmile_qr_scan"}, "is_reserved": 0}, {"lon": -77.03945366666666, "bike_id": "2186caff555bd1693aa9444073a053dc", "lat": 38.91940666666667, "fusion_lon": 0.0, "fusion_lat": 0.0, "type": "electric_scooter", "name": "2186caff555bd1693aa9444073a053dc", "is_disabled": 0, "rental_uris": {"ios": "https://dc.lft.to/lastmile_qr_scan", "android": "https://dc.lft.to/lastmile_qr_scan"}, "is_reserved": 0}, {"lon": -76.99850266666667, "bike_id": "9e116fc64ddef59ba284aad90386c032", "lat": 38.90766566666667, "fusion_lon": 0.0, "fusion_lat": 0.0, "type": "electric_scooter", "name": "9e116fc64ddef59ba284aad90386c032", "is_disabled": 0, "rental_uris": {"ios": "https://dc.lft.to/lastmile_qr_scan", "android": "https://dc.lft.to/lastmile_qr_scan"}, "is_reserved": 0}, {"lon": -77.0561285, "bike_id": "cc863a1eba5dff0a8802ad6038490465", "lat": 38.923496, "fusion_lon": 0.0, "fusion_lat": 0.0, "type": "electric_scooter", "name": "cc863a1eba5dff0a8802ad6038490465", "is_disabled": 0, "rental_uris": {"ios": "https://dc.lft.to/lastmile_qr_scan", "android": "https://dc.lft.to/lastmile_qr_scan"}, "is_reserved": 0}, {"lon": -77.02347266666666, "bike_id": "811607a57b350588c64b603e883f122a", "lat": 38.92250883333333, "fusion_lon": 0.0, "fusion_lat": 0.0, "type": "electric_scooter", "name": "811607a57b350588c64b603e883f122a", "is_disabled": 0, "rental_uris": {"ios": "https://dc.lft.to/lastmile_qr_scan", "android": "https://dc.lft.to/lastmile_qr_scan"}, "is_reserved": 0}, {"lon": -76.96535983333334, "bike_id": "83c8b452137aaf8bb685f7d28aa326a9", "lat": 38.87477916666667, "fusion_lon": 0.0, "fusion_lat": 0.0, "type": "electric_scooter", "name": "83c8b452137aaf8bb685f7d28aa326a9", "is_disabled": 0, "rental_uris": {"ios": "https://dc.lft.to/lastmile_qr_scan", "android": "https://dc.lft.to/lastmile_qr_scan"}, "is_reserved": 0}, {"lon": -77.0425465, "bike_id": "3b4152505307948449c178567a6f29f9", "lat": 38.906569833333336, "fusion_lon": 0.0, "fusion_lat": 0.0, "type": "electric_scooter", "name": "3b4152505307948449c178567a6f29f9", "is_disabled": 0, "rental_uris": {"ios": "https://dc.lft.to/lastmile_qr_scan", "android": "https://dc.lft.to/lastmile_qr_scan"}, "is_reserved": 0}, {"lon": -76.992058, "bike_id": "85e804cba63b3e221f3cb4749fe4de01", "lat": 38.898289, "fusion_lon": 0.0, "fusion_lat": 0.0, "type": "electric_scooter", "name": "85e804cba63b3e221f3cb4749fe4de01", "is_disabled": 0, "rental_uris": {"ios": "https://dc.lft.to/lastmile_qr_scan", "android": "https://dc.lft.to/lastmile_qr_scan"}, "is_reserved": 0}, {"lon": -77.00931733333333, "bike_id": "f369914045b462fe817c6e93131080ad", "lat": 38.89646916666667, "fusion_lon": 0.0, "fusion_lat": 0.0, "type": "electric_scooter", "name": "f369914045b462fe817c6e93131080ad", "is_disabled": 0, "rental_uris": {"ios": "https://dc.lft.to/lastmile_qr_scan", "android": "https://dc.lft.to/lastmile_qr_scan"}, "is_reserved": 0}, {"lon": -77.04557216666667, "bike_id": "ab59fd798a9e666fd8e114d850e9191e", "lat": 38.919221666666665, "fusion_lon": 0.0, "fusion_lat": 0.0, "type": "electric_scooter", "name": "ab59fd798a9e666fd8e114d850e9191e", "is_disabled": 0, "rental_uris": {"ios": "https://dc.lft.to/lastmile_qr_scan", "android": "https://dc.lft.to/lastmile_qr_scan"}, "is_reserved": 0}, {"lon": -77.0422545, "bike_id": "a11a14c44160bc92b670b6994c795705", "lat": 38.91120033333333, "fusion_lon": 0.0, "fusion_lat": 0.0, "type": "electric_scooter", "name": "a11a14c44160bc92b670b6994c795705", "is_disabled": 0, "rental_uris": {"ios": "https://dc.lft.to/lastmile_qr_scan", "android": "https://dc.lft.to/lastmile_qr_scan"}, "is_reserved": 0}, {"lon": -77.01814333333333, "bike_id": "7e8e4bf9d610d6a4a40f2d99bbf051c7", "lat": 38.920237166666666, "fusion_lon": 0.0, "fusion_lat": 0.0, "type": "electric_scooter", "name": "7e8e4bf9d610d6a4a40f2d99bbf051c7", "is_disabled": 0, "rental_uris": {"ios": "https://dc.lft.to/lastmile_qr_scan", "android": "https://dc.lft.to/lastmile_qr_scan"}, "is_reserved": 0}, {"lon": -77.02320433333334, "bike_id": "a6db207136cee8227373906eb2be522d", "lat": 38.907304, "fusion_lon": 0.0, "fusion_lat": 0.0, "type": "electric_scooter", "name": "a6db207136cee8227373906eb2be522d", "is_disabled": 0, "rental_uris": {"ios": "https://dc.lft.to/lastmile_qr_scan", "android": "https://dc.lft.to/lastmile_qr_scan"}, "is_reserved": 0}, {"lon": -77.00454883333333, "bike_id": "c944954a7760bbfcc24f29918cdcf712", "lat": 38.91177233333333, "fusion_lon": 0.0, "fusion_lat": 0.0, "type": "electric_scooter", "name": "c944954a7760bbfcc24f29918cdcf712", "is_disabled": 0, "rental_uris": {"ios": "https://dc.lft.to/lastmile_qr_scan", "android": "https://dc.lft.to/lastmile_qr_scan"}, "is_reserved": 0}, {"lon": -76.94634266666667, "bike_id": "3829a5aed35d705b336988ad4cab8895", "lat": 38.8983135, "fusion_lon": 0.0, "fusion_lat": 0.0, "type": "electric_scooter", "name": "3829a5aed35d705b336988ad4cab8895", "is_disabled": 0, "rental_uris": {"ios": "https://dc.lft.to/lastmile_qr_scan", "android": "https://dc.lft.to/lastmile_qr_scan"}, "is_reserved": 0}, {"lon": -77.02172366666667, "bike_id": "0510905b0e4356cb1cd3af216df8e587", "lat": 38.94291716666667, "fusion_lon": 0.0, "fusion_lat": 0.0, "type": "electric_scooter", "name": "0510905b0e4356cb1cd3af216df8e587", "is_disabled": 0, "rental_uris": {"ios": "https://dc.lft.to/lastmile_qr_scan", "android": "https://dc.lft.to/lastmile_qr_scan"}, "is_reserved": 0}, {"lon": -77.0336295, "bike_id": "c2afc1acc7170d5ab92dee87fbf7ac70", "lat": 38.935789166666666, "fusion_lon": 0.0, "fusion_lat": 0.0, "type": "electric_scooter", "name": "c2afc1acc7170d5ab92dee87fbf7ac70", "is_disabled": 0, "rental_uris": {"ios": "https://dc.lft.to/lastmile_qr_scan", "android": "https://dc.lft.to/lastmile_qr_scan"}, "is_reserved": 0}, {"lon": -76.99611583333333, "bike_id": "d1988ea7d7ebf336a2259b371d9b7c86", "lat": 38.89465883333333, "fusion_lon": 0.0, "fusion_lat": 0.0, "type": "electric_scooter", "name": "d1988ea7d7ebf336a2259b371d9b7c86", "is_disabled": 0, "rental_uris": {"ios": "https://dc.lft.to/lastmile_qr_scan", "android": "https://dc.lft.to/lastmile_qr_scan"}, "is_reserved": 0}, {"lon": -77.0411625, "bike_id": "0c0c59f6bc80f078db540d859928262d", "lat": 38.9346795, "fusion_lon": 0.0, "fusion_lat": 0.0, "type": "electric_scooter", "name": "0c0c59f6bc80f078db540d859928262d", "is_disabled": 0, "rental_uris": {"ios": "https://dc.lft.to/lastmile_qr_scan", "android": "https://dc.lft.to/lastmile_qr_scan"}, "is_reserved": 0}, {"lon": -77.02649066666666, "bike_id": "bd6e77032297291e36df172ceb3c4b99", "lat": 38.97812316666667, "fusion_lon": 0.0, "fusion_lat": 0.0, "type": "electric_scooter", "name": "bd6e77032297291e36df172ceb3c4b99", "is_disabled": 0, "rental_uris": {"ios": "https://dc.lft.to/lastmile_qr_scan", "android": "https://dc.lft.to/lastmile_qr_scan"}, "is_reserved": 0}, {"lon": -76.977147, "bike_id": "af5e761a9f99cc418b7f98872ed05ad3", "lat": 38.887766, "fusion_lon": 0.0, "fusion_lat": 0.0, "type": "electric_scooter", "name": "af5e761a9f99cc418b7f98872ed05ad3", "is_disabled": 0, "rental_uris": {"ios": "https://dc.lft.to/lastmile_qr_scan", "android": "https://dc.lft.to/lastmile_qr_scan"}, "is_reserved": 0}, {"lon": -76.9787105, "bike_id": "aa0a2df941c140941495986d34e38789", "lat": 38.88303366666667, "fusion_lon": 0.0, "fusion_lat": 0.0, "type": "electric_scooter", "name": "aa0a2df941c140941495986d34e38789", "is_disabled": 0, "rental_uris": {"ios": "https://dc.lft.to/lastmile_qr_scan", "android": "https://dc.lft.to/lastmile_qr_scan"}, "is_reserved": 0}, {"lon": -77.04470166666667, "bike_id": "f4ba7d47d71772e47f87b6cdbbdaf8e1", "lat": 38.918952166666664, "fusion_lon": 0.0, "fusion_lat": 0.0, "type": "electric_scooter", "name": "f4ba7d47d71772e47f87b6cdbbdaf8e1", "is_disabled": 0, "rental_uris": {"ios": "https://dc.lft.to/lastmile_qr_scan", "android": "https://dc.lft.to/lastmile_qr_scan"}, "is_reserved": 0}, {"lon": -77.0135605, "bike_id": "008d29b107015de2d7ec4634639f5c67", "lat": 38.89713016666666, "fusion_lon": 0.0, "fusion_lat": 0.0, "type": "electric_scooter", "name": "008d29b107015de2d7ec4634639f5c67", "is_disabled": 0, "rental_uris": {"ios": "https://dc.lft.to/lastmile_qr_scan", "android": "https://dc.lft.to/lastmile_qr_scan"}, "is_reserved": 0}, {"lon": -77.0451145, "bike_id": "5d18c59c6922bdfe04d217ad6bbe7ed8", "lat": 38.9034685, "fusion_lon": 0.0, "fusion_lat": 0.0, "type": "electric_scooter", "name": "5d18c59c6922bdfe04d217ad6bbe7ed8", "is_disabled": 0, "rental_uris": {"ios": "https://dc.lft.to/lastmile_qr_scan", "android": "https://dc.lft.to/lastmile_qr_scan"}, "is_reserved": 0}, {"lon": -77.08774216666667, "bike_id": "d31899800ab6baf7049aa1996217c05e", "lat": 38.83901383333333, "fusion_lon": 0.0, "fusion_lat": 0.0, "type": "electric_bike", "name": "d31899800ab6baf7049aa1996217c05e", "is_disabled": 0, "rental_uris": {"ios": "https://dc.lft.to/lastmile_qr_scan", "android": "https://dc.lft.to/lastmile_qr_scan"}, "is_reserved": 0}, {"lon": -77.00794216666667, "bike_id": "2b6a5dd4e6dc9a5f8d25dee15d86b8a0", "lat": 38.89644083333334, "fusion_lon": 0.0, "fusion_lat": 0.0, "type": "electric_scooter", "name": "2b6a5dd4e6dc9a5f8d25dee15d86b8a0", "is_disabled": 0, "rental_uris": {"ios": "https://dc.lft.to/lastmile_qr_scan", "android": "https://dc.lft.to/lastmile_qr_scan"}, "is_reserved": 0}, {"lon": -77.02847633333333, "bike_id": "53ea12d553c0f1c1764f4c83c94a9d2a", "lat": 38.92763216666667, "fusion_lon": 0.0, "fusion_lat": 0.0, "type": "electric_scooter", "name": "53ea12d553c0f1c1764f4c83c94a9d2a", "is_disabled": 0, "rental_uris": {"ios": "https://dc.lft.to/lastmile_qr_scan", "android": "https://dc.lft.to/lastmile_qr_scan"}, "is_reserved": 0}, {"lon": -76.9834405, "bike_id": "d121a3c0a2f2be1a71e25a727bcf6c29", "lat": 38.904560000000004, "fusion_lon": 0.0, "fusion_lat": 0.0, "type": "electric_scooter", "name": "d121a3c0a2f2be1a71e25a727bcf6c29", "is_disabled": 0, "rental_uris": {"ios": "https://dc.lft.to/lastmile_qr_scan", "android": "https://dc.lft.to/lastmile_qr_scan"}, "is_reserved": 0}, {"lon": -77.02693466666666, "bike_id": "f0d209c85accd9c499bf54d3fbed6ada", "lat": 38.907763833333334, "fusion_lon": 0.0, "fusion_lat": 0.0, "type": "electric_scooter", "name": "f0d209c85accd9c499bf54d3fbed6ada", "is_disabled": 0, "rental_uris": {"ios": "https://dc.lft.to/lastmile_qr_scan", "android": "https://dc.lft.to/lastmile_qr_scan"}, "is_reserved": 0}, {"lon": -76.99193416666667, "bike_id": "752cda32261e51ed3b1feca0fea74489", "lat": 38.882661666666664, "fusion_lon": 0.0, "fusion_lat": 0.0, "type": "electric_scooter", "name": "752cda32261e51ed3b1feca0fea74489", "is_disabled": 0, "rental_uris": {"ios": "https://dc.lft.to/lastmile_qr_scan", "android": "https://dc.lft.to/lastmile_qr_scan"}, "is_reserved": 0}, {"lon": -77.01135533333333, "bike_id": "dd16c8a276debaa435c0dece4f3ce4a0", "lat": 38.907305666666666, "fusion_lon": 0.0, "fusion_lat": 0.0, "type": "electric_scooter", "name": "dd16c8a276debaa435c0dece4f3ce4a0", "is_disabled": 0, "rental_uris": {"ios": "https://dc.lft.to/lastmile_qr_scan", "android": "https://dc.lft.to/lastmile_qr_scan"}, "is_reserved": 0}, {"lon": -77.005655, "bike_id": "e22864c9ca7b42100ec97f7b365c31a2", "lat": 38.90569883333333, "fusion_lon": 0.0, "fusion_lat": 0.0, "type": "electric_scooter", "name": "e22864c9ca7b42100ec97f7b365c31a2", "is_disabled": 0, "rental_uris": {"ios": "https://dc.lft.to/lastmile_qr_scan", "android": "https://dc.lft.to/lastmile_qr_scan"}, "is_reserved": 0},