{"data": {"bikes": [{"fusion_lat": 0.0, "name": "bb39db91033b6fa8e760fcbd738ff791", "is_disabled": 0, "rental_uris": {"android": "https://dc.lft.to/lastmile_qr_scan", "ios": "https://dc.lft.to/lastmile_qr_scan"}, "fusion_lon": 0.0, "lat": 38.931966833333334, "bike_id": "bb39db91033b6fa8e760fcbd738ff791", "type": "electric_bike", "is_reserved": 0, "lon": -77.2292245}, {"fusion_lat": 0.0, "name": "c3b50339ffef73cf21a0bc71b1ba1d53", "is_disabled": 0, "rental_uris": {"android": "https://dc.lft.to/lastmile_qr_scan", "ios": "https://dc.lft.to/lastmile_qr_scan"}, "fusion_lon": 0.0, "lat": 38.81331433333333, "bike_id": "c3b50339ffef73cf21a0bc71b1ba1d53", "type": "electric_bike", "is_reserved": 0, "lon": -77.050923}, {"fusion_lat": 0.0, "name": "c38af0f030e3a9921d5cc77ac9c1ae1c", "is_disabled": 0, "rental_uris": {"android": "https://dc.lft.to/lastmile_qr_scan", "ios": "https://dc.lft.to/lastmile_qr_scan"}, "fusion_lon": 0.0, "lat": 38.924777666666664, "bike_id": "c38af0f030e3a9921d5cc77ac9c1ae1c", "type": "electric_scooter", "is_reserved": 0, "lon": -77.02627166666667}, {"fusion_lat": 0.0, "name": "7a5f1031eca6dc76c0638ec8eb912a9f", "is_disabled": 0, "rental_uris": {"android": "https://dc.lft.to/lastmile_qr_scan", "ios": "https://dc.lft.to/lastmile_qr_scan"}, "fusion_lon": 0.0, "lat": 38.900446, "bike_id": "7a5f1031eca6dc76c0638ec8eb912a9f", "type": "electric_scooter", "is_reserved": 0, "lon": -77.001933}, {"fusion_lat": 0.0, "name": "56918d47ec8dfd6ad573a28287638c5c", "is_disabled": 0, "rental_uris": {"android": "https://dc.lft.to/lastmile_qr_scan", "ios": "https://dc.lft.to/lastmile_qr_scan"}, "fusion_lon": 0.0, "lat": 38.89258866666667, "bike_id": "56918d47ec8dfd6ad573a28287638c5c", "type": "electric_scooter", "is_reserved": 0, "lon": -77.02582333333334}, {"fusion_lat": 0.0, "name": "74a9b421379bbbe404e2705980aaf939", "is_disabled": 0, "rental_uris": {"android": "https://dc.lft.to/lastmile_qr_scan", "ios": "https://dc.lft.to/lastmile_qr_scan"}, "fusion_lon": 0.0, "lat": 38.935126, "bike_id": "74a9b421379bbbe404e2705980aaf939", "type": "electric_scooter", "is_reserved": 0, "lon": -77.0326075}, {"fusion_lat": 0.0, "name": "0de6adfc836be56d2ec91d35d450c122", "is_disabled": 0, "rental_uris": {"android": "https://dc.lft.to/lastmile_qr_scan", "ios": "https://dc.lft.to/lastmile_qr_scan"}, "fusion_lon": 0.0, "lat": 38.9225155, "bike_id": "0de6adfc836be56d2ec91d35d450c122", "type": "electric_scooter", "is_reserved": 0, "lon": -77.07467933333334}, {"fusion_lat": 0.0, "name": "d8945e4543d8cc00ff59c99b2d4dc341", "is_disabled": 0, "rental_uris": {"android": "https://dc.lft.to/lastmile_qr_scan", "ios": "https://dc.lft.to/lastmile_qr_scan"}, "fusion_lon": 0.0, "lat": 38.9206375, "bike_id": "d8945e4543d8cc00ff59c99b2d4dc341", "type": "electric_scooter", "is_reserved": 0, "lon": -77.0424985}, {"fusion_lat": 0.0, "name": "1b7ef8d00aea357842a1ab73681c01a0", "is_disabled": 0, "rental_uris": {"android": "https://dc.lft.to/lastmile_qr_scan", "ios": "https://dc.lft.to/lastmile_qr_scan"}, "fusion_lon": 0.0, "lat": 38.8833255, "bike_id": "1b7ef8d00aea357842a1ab73681c01a0", "type": "electric_scooter", "is_reserved": 0, "lon": -77.01773866666667}, {"fusion_lat": 0.0, "name": "3d731264456a352caf9d472891086e94", "is_disabled": 0, "rental_uris": {"android": "https://dc.lft.to/lastmile_qr_scan", "ios": "https://dc.lft.to/lastmile_qr_scan"}, "fusion_lon": 0.0, "lat": 38.898292833333336, "bike_id": "3d731264456a352caf9d472891086e94", "type": "electric_scooter", "is_reserved": 0, "lon": -77.02843233333333}, {"fusion_lat": 0.0, "name": "0af952375c75f5ee10e8de4518a672b3", "is_disabled": 0, "rental_uris": {"android": "https://dc.lft.to/lastmile_qr_scan", "ios": "https://dc.lft.to/lastmile_qr_scan"}, "fusion_lon": 0.0, "lat": 38.9239745, "bike_id": "0af952375c75f5ee10e8de4518a672b3", "type": "electric_scooter", "is_reserved": 0, "lon": -77.0363835}, {"fusion_lat": 0.0, "name": "4c56fb719e3e3e8cf64fb7bb6a35d0a9", "is_disabled": 0, "rental_uris": {"android": "https://dc.lft.to/lastmile_qr_scan", "ios": "https://dc.lft.to/lastmile_qr_scan"}, "fusion_lon": 0.0, "lat": 38.92359166666667, "bike_id": "4c56fb719e3e3e8cf64fb7bb6a35d0a9", "type": "electric_scooter", "is_reserved": 0, "lon": -77.01952183333333}, {"fusion_lat": 0.0, "name": "949d943238562b1736ec6d73f041b750", "is_disabled": 0, "rental_uris": {"android": "https://dc.lft.to/lastmile_qr_scan", "ios": "https://dc.lft.to/lastmile_qr_scan"}, "fusion_lon": 0.0, "lat": 39.01079166666667, "bike_id": "949d943238562b1736ec6d73f041b750", "type": "electric_bike", "is_reserved": 0, "lon": -76.9106415}, {"fusion_lat": 0.0, "name": "e7276c05cb50245ca8f32ebd02dd2b45", "is_disabled": 0, "rental_uris": {"android": "https://dc.lft.to/lastmile_qr_scan", "ios": "https://dc.lft.to/lastmile_qr_scan"}, "fusion_lon": 0.0, "lat": 38.9097965, "bike_id": "e7276c05cb50245ca8f32ebd02dd2b45", "type": "electric_bike", "is_reserved": 0, "lon": -77.04495266666666}, {"fusion_lat": 0.0, "name": "39be439e10288000d394f3c9fd41356c", "is_disabled": 0, "rental_uris": {"android": "https://dc.lft.to/lastmile_qr_scan", "ios": "https://dc.lft.to/lastmile_qr_scan"}, "fusion_lon": 0.0, "lat": 38.944754833333334, "bike_id": "39be439e10288000d394f3c9fd41356c", "type": "electric_scooter", "is_reserved": 0, "lon": -77.02355183333333}, {"fusion_lat": 0.0, "name": "ca8039dbf44e8f6f71efdc081bf94b52", "is_disabled": 0, "rental_uris": {"android": "https://dc.lft.to/lastmile_qr_scan", "ios": "https://dc.lft.to/lastmile_qr_scan"}, "fusion_lon": 0.0, "lat": 38.920211333333334, "bike_id": "ca8039dbf44e8f6f71efdc081bf94b52", "type": "electric_scooter", "is_reserved": 0, "lon": -77.0280485}, {"fusion_lat": 0.0, "name": "abfbb8eb37b567066e9edf26e8c94e3e", "is_disabled": 0, "rental_uris": {"android": "https://dc.lft.to/lastmile_qr_scan", "ios": "https://dc.lft.to/lastmile_qr_scan"}, "fusion_lon": 0.0, "lat": 38.92107416666666, "bike_id": "abfbb8eb37b567066e9edf26e8c94e3e", "type": "electric_scooter", "is_reserved": 0, "lon": -77.04681833333333}, {"fusion_lat": 0.0, "name": "db540754ae76d57b056f9bcf97a845f5", "is_disabled": 0, "rental_uris": {"android": "https://dc.lft.to/lastmile_qr_scan", "ios": "https://dc.lft.to/lastmile_qr_scan"}, "fusion_lon": 0.0, "lat": 38.93386533333333, "bike_id": "db540754ae76d57b056f9bcf97a845f5", "type": "electric_scooter", "is_reserved": 0, "lon": -77.0264405}, {"fusion_lat": 0.0, "name": "2a89b63451885a28f2e1f7c6af897791", "is_disabled": 0, "rental_uris": {"android": "https://dc.lft.to/lastmile_qr_scan", "ios": "https://dc.lft.to/lastmile_qr_scan"}, "fusion_lon": 0.0, "lat": 38.89731116666667, "bike_id": "2a89b63451885a28f2e1f7c6af897791", "type": "electric_scooter", "is_reserved": 0, "lon": -77.02201116666667}, {"fusion_lat": 0.0, "name": "5121e2784f93d4e0e6561dd5485eb37b", "is_disabled": 0, "rental_uris": {"android": "https://dc.lft.to/lastmile_qr_scan", "ios": "https://dc.lft.to/lastmile_qr_scan"}, "fusion_lon": 0.0, "lat": 38.948453666666666, "bike_id": "5121e2784f93d4e0e6561dd5485eb37b", "type": "electric_scooter", "is_reserved": 0, "lon": -77.02569483333333}, {"fusion_lat": 0.0, "name": "766bdbfd858dc410fd5c74d4c12c1c91", "is_disabled": 0, "rental_uris": {"android": "https://dc.lft.to/lastmile_qr_scan", "ios": "https://dc.lft.to/lastmile_qr_scan"}, "fusion_lon": 0.0, "lat": 38.93804, "bike_id": "766bdbfd858dc410fd5c74d4c12c1c91", "type": "electric_scooter", "is_reserved": 0, "lon": -77.0685915}, {"fusion_lat": 0.0, "name": "c34a970093f7624d0f2e50c33b589037", "is_disabled": 0, "rental_uris": {"android": "https://dc.lft.to/lastmile_qr_scan", "ios": "https://dc.lft.to/lastmile_qr_scan"}, "fusion_lon": 0.0, "lat": 38.90403166666667, "bike_id": "c34a970093f7624d0f2e50c33b589037", "type": "electric_bike", "is_reserved": 0, "lon": -77.02200133333334}, {"fusion_lat": 0.0, "name": "cbf993ffadeac0299278df3488fb3b8b", "is_disabled": 0, "rental_uris": {"android": "https://dc.lft.to/lastmile_qr_scan", "ios": "https://dc.lft.to/lastmile_qr_scan"}, "fusion_lon": 0.0, "lat": 38.924214666666664, "bike_id": "cbf993ffadeac0299278df3488fb3b8b", "type": "electric_scooter", "is_reserved": 0, "lon": -77.02013716666667}, {"fusion_lat": 0.0, "name": "c92c041da1ca12f98469e6018a9f6b80", "is_disabled": 0, "rental_uris": {"android": "https://dc.lft.to/lastmile_qr_scan", "ios": "https://dc.lft.to/lastmile_qr_scan"}, "fusion_lon": 0.0, "lat": 38.91107616666667, "bike_id": "c92c041da1ca12f98469e6018a9f6b80", "type": "electric_scooter", "is_reserved": 0, "lon": -77.04394116666667}, {"fusion_lat": 0.0, "name": "e8d9d027110b0a01685393938627e6e3", "is_disabled": 0, "rental_uris": {"android": "https://dc.lft.to/lastmile_qr_scan", "ios": "https://dc.lft.to/lastmile_qr_scan"}, "fusion_lon": 0.0, "lat": 38.928559666666665, "bike_id": "e8d9d027110b0a01685393938627e6e3", "type": "electric_scooter", "is_reserved": 0, "lon": -76.99770333333333}, {"fusion_lat": 0.0, "name": "c76e063c423539ab826241175b7de1b4", "is_disabled": 0, "rental_uris": {"android": "https://dc.lft.to/lastmile_qr_scan", "ios": "https://dc.lft.to/lastmile_qr_scan"}, "fusion_lon": 0.0, "lat": 38.922259, "bike_id": "c76e063c423539ab826241175b7de1b4", "type": "electric_scooter", "is_reserved": 0, "lon": -77.04129566666667}, {"fusion_lat": 0.0, "name": "30e2d717f6fdfcd630bd77ad521c7e8c", "is_disabled": 0, "rental_uris": {"android": "https://dc.lft.to/lastmile_qr_scan", "ios": "https://dc.lft.to/lastmile_qr_scan"}, "fusion_lon": 0.0, "lat": 38.87648866666667, "bike_id": "30e2d717f6fdfcd630bd77ad521c7e8c", "type": "electric_scooter", "is_reserved": 0, "lon": -77.001131}, {"fusion_lat": 0.0, "name": "61ba0eba3d8f1a5a8010db5dc907d0e2", "is_disabled": 0, "rental_uris": {"android": "https://dc.lft.to/lastmile_qr_scan", "ios": "https://dc.lft.to/lastmile_qr_scan"}, "fusion_lon": 0.0, "lat": 38.95731166666667, "bike_id": "61ba0eba3d8f1a5a8010db5dc907d0e2", "type": "electric_scooter", "is_reserved": 0, "lon": -77.02402816666667}, {"fusion_lat": 0.0, "name": "8e5d59d388df203444c6768e83822e0e", "is_disabled": 0, "rental_uris": {"android": "https://dc.lft.to/lastmile_qr_scan", "ios": "https://dc.lft.to/lastmile_qr_scan"}, "fusion_lon": 0.0, "lat": 38.91820716666667, "bike_id": "8e5d59d388df203444c6768e83822e0e", "type": "electric_scooter", "is_reserved": 0, "lon": -77.02391033333333}, {"fusion_lat": 0.0, "name": "bfe926ddfd0cfdf4d864135ee8963428", "is_disabled": 0, "rental_uris": {"android": "https://dc.lft.to/lastmile_qr_scan", "ios": "https://dc.lft.to/lastmile_qr_scan"}, "fusion_lon": 0.0, "lat": 38.897435333333334, "bike_id": "bfe926ddfd0cfdf4d864135ee8963428", "type": "electric_scooter", "is_reserved": 0, "lon": -77.0000205}, {"fusion_lat": 0.0, "name": "b44907027c5e2035ba8d033c94f7dafe", "is_disabled": 0, "rental_uris": {"android": "https://dc.lft.to/lastmile_qr_scan", "ios": "https://dc.lft.to/lastmile_qr_scan"}, "fusion_lon": 0.0, "lat": 38.89159466666667, "bike_id": "b44907027c5e2035ba8d033c94f7dafe", "type": "electric_bike", "is_reserved": 0, "lon": -77.00465933333334}, {"fusion_lat": 0.0, "name": "fa804a25f86937b26241e40aa94b0c13", "is_disabled": 0, "rental_uris": {"android": "https://dc.lft.to/lastmile_qr_scan", "ios": "https://dc.lft.to/lastmile_qr_scan"}, "fusion_lon": 0.0, "lat": 38.9450785, "bike_id": "fa804a25f86937b26241e40aa94b0c13", "type": "electric_bike", "is_reserved": 0, "lon": -77.00677183333333}, {"fusion_lat": 0.0, "name": "7912249cd863a26494e16a0db95fd8a3", "is_disabled": 0, "rental_uris": {"android": "https://dc.lft.to/lastmile_qr_scan", "ios": "https://dc.lft.to/lastmile_qr_scan"}, "fusion_lon": 0.0, "lat": 38.90029833333333, "bike_id": "7912249cd863a26494e16a0db95fd8a3", "type": "electric_scooter", "is_reserved": 0, "lon": -77.011835}, {"fusion_lat": 0.0, "name": "0dfd83cf259c51477b1d6ef8df8fb014", "is_disabled": 0, "rental_uris": {"android": "https://dc.lft.to/lastmile_qr_scan", "ios": "https://dc.lft.to/lastmile_qr_scan"}, "fusion_lon": 0.0, "lat": 38.90526033333333, "bike_id": "0dfd83cf259c51477b1d6ef8df8fb014", "type": "electric_scooter", "is_reserved": 0, "lon": -77.03477016666666}, {"fusion_lat": 0.0, "name": "4609567c3ef8850c391a6489f52d3d33", "is_disabled": 0, "rental_uris": {"android": "https://dc.lft.to/lastmile_qr_scan", "ios": "https://dc.lft.to/lastmile_qr_scan"}, "fusion_lon": 0.0, "lat": 38.90177216666667, "bike_id": "4609567c3ef8850c391a6489f52d3d33", "type": "electric_scooter", "is_reserved": 0, "lon": -76.94145166666667}, {"fusion_lat": 0.0, "name": "9de91f944ff30e1f1e18e0ffa93666e2", "is_disabled": 0, "rental_uris": {"android": "https://dc.lft.to/lastmile_qr_scan", "ios": "https://dc.lft.to/lastmile_qr_scan"}, "fusion_lon": 0.0, "lat": 38.91642183333333, "bike_id": "9de91f944ff30e1f1e18e0ffa93666e2", "type": "electric_scooter", "is_reserved": 0, "lon": -77.04810033333334}, {"fusion_lat": 0.0, "name": "79c5848c9b5822f7bf72d59264a84c0e", "is_disabled": 0, "rental_uris": {"android": "https://dc.lft.to/lastmile_qr_scan", "ios": "https://dc.lft.to/lastmile_qr_scan"}, "fusion_lon": 0.0, "lat": 38.88128316666667, "bike_id": "79c5848c9b5822f7bf72d59264a84c0e", "type": "electric_scooter", "is_reserved": 0, "lon": -76.99283183333333}, {"fusion_lat": 0.0, "name": "3ac1fe0f676d45e6b44c84c9e8bf3ee1", "is_disabled": 0, "rental_uris": {"android": "https://dc.lft.to/lastmile_qr_scan", "ios": "https://dc.lft.to/lastmile_qr_scan"}, "fusion_lon": 0.0, "lat": 38.912910833333335, "bike_id": "3ac1fe0f676d45e6b44c84c9e8bf3ee1", "type": "electric_scooter", "is_reserved": 0, "lon": -77.02385583333333}, {"fusion_lat": 0.0, "name": "5c0f1e4b200c18dd51eb69374ff4a9be", "is_disabled": 0, "rental_uris": {"android": "https://dc.lft.to/lastmile_qr_scan", "ios": "https://dc.lft.to/lastmile_qr_scan"}, "fusion_lon": 0.0, "lat": 38.93459083333333, "bike_id": "5c0f1e4b200c18dd51eb69374ff4a9be", "type": "electric_scooter", "is_reserved": 0, "lon": -77.07269383333333}, {"fusion_lat": 0.0, "name": "13ffccf04d988cf9ce62f1d424f34266", "is_disabled": 0, "rental_uris": {"android": "https://dc.lft.to/lastmile_qr_scan", "ios": "https://dc.lft.to/lastmile_qr_scan"}, "fusion_lon": 0.0, "lat": 38.918040833333336, "bike_id": "13ffccf04d988cf9ce62f1d424f34266", "type": "electric_scooter", "is_reserved": 0, "lon": -77.03336933333334}, {"fusion_lat": 0.0, "name": "135e5ab40f6fc1bdcd2ac448cb5b2462", "is_disabled": 0, "rental_uris": {"android": "https://dc.lft.to/lastmile_qr_scan", "ios": "https://dc.lft.to/lastmile_qr_scan"}, "fusion_lon": 0.0, "lat": 38.9155615, "bike_id": "135e5ab40f6fc1bdcd2ac448cb5b2462", "type": "electric_scooter", "is_reserved": 0, "lon": -77.03228333333334}, {"fusion_lat": 0.0, "name": "1ae5024d937b53aee3b1290592fc88cb", "is_disabled": 0, "rental_uris": {"android": "https://dc.lft.to/lastmile_qr_scan", "ios": "https://dc.lft.to/lastmile_qr_scan"}, "fusion_lon": 0.0, "lat": 38.92615, "bike_id": "1ae5024d937b53aee3b1290592fc88cb", "type": "electric_scooter", "is_reserved": 0, "lon": -77.022133}, {"fusion_lat": 0.0, "name": "cf645f419924f475bb5dc0799ffab555", "is_disabled": 0, "rental_uris": {"android": "https://dc.lft.to/lastmile_qr_scan", "ios": "https://dc.lft.to/lastmile_qr_scan"}, "fusion_lon": 0.0, "lat": 38.919333, "bike_id": "cf645f419924f475bb5dc0799ffab555", "type": "electric_scooter", "is_reserved": 0, "lon": -77.024921}, {"fusion_lat": 0.0, "name": "d5537a0fcea6df9192aaf89aabaabb80", "is_disabled": 0, "rental_uris": {"android": "https://dc.lft.to/lastmile_qr_scan", "ios": "https://dc.lft.to/lastmile_qr_scan"}, "fusion_lon": 0.0, "lat": 38.911426, "bike_id": "d5537a0fcea6df9192aaf89aabaabb80", "type": "electric_scooter", "is_reserved": 0, "lon": -77.01072116666667}, {"fusion_lat": 0.0, "name": "1300283440ee7b996c4a615c523ebdad", "is_disabled": 0, "rental_uris": {"android": "https://dc.lft.to/lastmile_qr_scan", "ios": "https://dc.lft.to/lastmile_qr_scan"}, "fusion_lon": 0.0, "lat": 38.94025216666667, "bike_id": "1300283440ee7b996c4a615c523ebdad", "type": "electric_scooter", "is_reserved": 0, "lon": -77.02774866666667}, {"fusion_lat": 0.0, "name": "6ba860185cb238df063df09de2800bc6", "is_disabled": 0, "rental_uris": {"android": "https://dc.lft.to/lastmile_qr_scan", "ios": "https://dc.lft.to/lastmile_qr_scan"}, "fusion_lon": 0.0, "lat": 38.9004805, "bike_id": "6ba860185cb238df063df09de2800bc6", "type": "electric_scooter", "is_reserved": 0, "lon": -77.027033}, {"fusion_lat": 0.0, "name": "23a28eecbbd6a0e023966dd3961f2536", "is_disabled": 0, "rental_uris": {"android": "https://dc.lft.to/lastmile_qr_scan", "ios": "https://dc.lft.to/lastmile_qr_scan"}, "fusion_lon": 0.0, "lat": 38.89230633333333, "bike_id": "23a28eecbbd6a0e023966dd3961f2536", "type": "electric_scooter", "is_reserved": 0, "lon": -77.03217683333334}, {"fusion_lat": 0.0, "name": "a2eb119bb36cf03569502437ce212757", "is_disabled": 0, "rental_uris": {"android": "https://dc.lft.to/lastmile_qr_scan", "ios": "https://dc.lft.to/lastmile_qr_scan"}, "fusion_lon": 0.0, "lat": 38.91790666666667, "bike_id": "a2eb119bb36cf03569502437ce212757", "type": "electric_scooter", "is_reserved": 0, "lon": -77.03207816666666}, {"fusion_lat": 0.0, "name": "9dff992585b5e769c66a06fe92779630", "is_disabled": 0, "rental_uris": {"android": "https://dc.lft.to/lastmile_qr_scan", "ios": "https://dc.lft.to/lastmile_qr_scan"}, "fusion_lon": 0.0, "lat": 38.876345666666666, "bike_id": "9dff992585b5e769c66a06fe92779630", "type": "electric_scooter", "is_reserved": 0, "lon": -77.00948816666667}, {"fusion_lat": 0.0, "name": "f5911bb4c6a7c8270863d7bf949cb79a", "is_disabled": 0, "rental_uris": {"android": "https://dc.lft.to/lastmile_qr_scan", "ios": "https://dc.lft.to/lastmile_qr_scan"}, "fusion_lon": 0.0, "lat": 38.8960645, "bike_id": "f5911bb4c6a7c8270863d7bf949cb79a", "type": "electric_scooter", "is_reserved": 0, "lon": -77.00924983333333}, {"fusion_lat": 0.0, "name": "66d98c0a2f17cbfc405350f3562ffeeb", "is_disabled": 0, "rental_uris": {"android": "https://dc.lft.to/lastmile_qr_scan", "ios": "https://dc.lft.to/lastmile_qr_scan"}, "fusion_lon": 0.0, "lat": 38.898785, "bike_id": "66d98c0a2f17cbfc405350f3562ffeeb", "type": "electric_scooter", "is_reserved": 0, "lon": -76.9318235}, {"fusion_lat": 0.0, "name": "4a2c04941de2919dcf97312dc15dcf4f", "is_disabled": 0, "rental_uris": {"android": "https://dc.lft.to/lastmile_qr_scan", "ios": "https://dc.lft.to/lastmile_qr_scan"}, "fusion_lon": 0.0, "lat": 38.9045985, "bike_id": "4a2c04941de2919dcf97312dc15dcf4f", "type": "electric_scooter", "is_reserved": 0, "lon": -77.0178615}, {"fusion_lat": 0.0, "name": "a3980b6f7884fdfd7f50539d4f1bffe0", "is_disabled": 0, "rental_uris": {"android": "https://dc.lft.to/lastmile_qr_scan", "ios": "https://dc.lft.to/lastmile_qr_scan"}, "fusion_lon": 0.0, "lat": 38.92401683333333, "bike_id": "a3980b6f7884fdfd7f50539d4f1bffe0", "type": "electric_scooter", "is_reserved": 0, "lon": -77.02485616666667}, {"fusion_lat": 0.0, "name": "cb5117ff19cdb7787c4555fc881837e1", "is_disabled": 0, "rental_uris": {"android": "https://dc.lft.to/lastmile_qr_scan", "ios": "https://dc.lft.to/lastmile_qr_scan"}, "fusion_lon": 0.0, "lat": 38.91712066666667, "bike_id": "cb5117ff19cdb7787c4555fc881837e1", "type": "electric_scooter", "is_reserved": 0, "lon": -77.03662833333334}, {"fusion_lat": 0.0, "name": "6b468ca5a62868af2cfde40e2a345f2b", "is_disabled": 0, "rental_uris": {"android": "https://dc.lft.to/lastmile_qr_scan", "ios": "https://dc.lft.to/lastmile_qr_scan"}, "fusion_lon": 0.0, "lat": 38.877106166666664, "bike_id": "6b468ca5a62868af2cfde40e2a345f2b", "type": "electric_scooter", "is_reserved": 0, "lon": -76.99381983333333}, {"fusion_lat": 0.0, "name": "b8692c5b4203ede67ab30fdbf524109e", "is_disabled": 0, "rental_uris": {"android": "https://dc.lft.to/lastmile_qr_scan", "ios": "https://dc.lft.to/lastmile_qr_scan"}, "fusion_lon": 0.0, "lat": 38.92783766666667, "bike_id": "b8692c5b4203ede67ab30fdbf524109e", "type": "electric_scooter", "is_reserved": 0, "lon": -77.05276133333334}, {"fusion_lat": 0.0, "name": "a9542f91e4086cd5cf2f02079e69ca69", "is_disabled": 0, "rental_uris": {"android": "https://dc.lft.to/lastmile_qr_scan", "ios": "https://dc.lft.to/lastmile_qr_scan"}, "fusion_lon": 0.0, "lat": 38.88614166666667, "bike_id": "a9542f91e4086cd5cf2f02079e69ca69", "type": "electric_scooter", "is_reserved": 0, "lon": -77.01556266666667}, {"fusion_lat": 0.0, "name": "7fa4c050db4c50e945a7f50215b0942e", "is_disabled": 0, "rental_uris": {"android": "https://dc.lft.to/lastmile_qr_scan", "ios": "https://dc.lft.to/lastmile_qr_scan"}, "fusion_lon": 0.0, "lat": 38.917292, "bike_id": "7fa4c050db4c50e945a7f50215b0942e", "type": "electric_scooter", "is_reserved": 0, "lon": -77.041567}, {"fusion_lat": 0.0, "name": "b7264bdd141f99ef794fbcf95c160aa8", "is_disabled": 0, "rental_uris": {"android": "https://dc.lft.to/lastmile_qr_scan", "ios": "https://dc.lft.to/lastmile_qr_scan"}, "fusion_lon": 0.0, "lat": 38.903841666666665, "bike_id": "b7264bdd141f99ef794fbcf95c160aa8", "type": "electric_scooter", "is_reserved": 0, "lon": -77.03180933333333}, {"fusion_lat": 0.0, "name": "b018c305e739b67e575be20a7a9d136a", "is_disabled": 0, "rental_uris": {"android": "https://dc.lft.to/lastmile_qr_scan", "ios": "https://dc.lft.to/lastmile_qr_scan"}, "fusion_lon": 0.0, "lat": 38.89730566666667, "bike_id": "b018c305e739b67e575be20a7a9d136a", "type": "electric_scooter", "is_reserved": 0, "lon": -77.0315795}, {"fusion_lat": 0.0, "name": "2f38024d639ec1fcc02e6ff569dcb104", "is_disabled": 0, "rental_uris": {"android": "https://dc.lft.to/lastmile_qr_scan", "ios": "https://dc.lft.to/lastmile_qr_scan"}, "fusion_lon": 0.0, "lat": 38.93242733333334, "bike_id": "2f38024d639ec1fcc02e6ff569dcb104", "type": "electric_scooter", "is_reserved": 0, "lon": -77.02830216666666}, {"fusion_lat": 0.0, "name": "e7c6f6885e5d1ca52c7396e2956dc718", "is_disabled": 0, "rental_uris": {"android": "https://dc.lft.to/lastmile_qr_scan", "ios": "https://dc.lft.to/lastmile_qr_scan"}, "fusion_lon": 0.0, "lat": 38.9076055, "bike_id": "e7c6f6885e5d1ca52c7396e2956dc718", "type": "electric_scooter", "is_reserved": 0, "lon": -77.038321}, {"fusion_lat": 0.0, "name": "bfe7512af00b8ff86a3a5e19e6fc4c6f", "is_disabled": 0, "rental_uris": {"android": "https://dc.lft.to/lastmile_qr_scan", "ios": "https://dc.lft.to/lastmile_qr_scan"}, "fusion_lon": 0.0, "lat": 38.845071, "bike_id": "bfe7512af00b8ff86a3a5e19e6fc4c6f", "type": "electric_bike", "is_reserved": 0, "lon": -76.9934925}, {"fusion_lat": 0.0, "name": "1e6f29ada26bf9486ca74246935c8fbe", "is_disabled": 0, "rental_uris": {"android": "https://dc.lft.to/lastmile_qr_scan", "ios": "https://dc.lft.to/lastmile_qr_scan"}, "fusion_lon": 0.0, "lat": 38.92382966666667, "bike_id": "1e6f29ada26bf9486ca74246935c8fbe", "type": "electric_scooter", "is_reserved": 0, "lon": -77.07529533333333}, {"fusion_lat": 0.0, "name": "313151ba856a0c5b9d2808c7430f231f", "is_disabled": 0, "rental_uris": {"android": "https://dc.lft.to/lastmile_qr_scan", "ios": "https://dc.lft.to/lastmile_qr_scan"}, "fusion_lon": 0.0, "lat": 38.90729833333333, "bike_id": "313151ba856a0c5b9d2808c7430f231f", "type": "electric_scooter", "is_reserved": 0, "lon": -77.0434165}, {"fusion_lat": 0.0, "name": "8d384291f3238c067268d924f1eab1bc", "is_disabled": 0, "rental_uris": {"android": "https://dc.lft.to/lastmile_qr_scan", "ios": "https://dc.lft.to/lastmile_qr_scan"}, "fusion_lon": 0.0, "lat": 38.904368, "bike_id": "8d384291f3238c067268d924f1eab1bc", "type": "electric_scooter", "is_reserved": 0, "lon": -77.0240475}, {"fusion_lat": 0.0, "name": "6241df8513719484e57aae64aebe66e0", "is_disabled": 0, "rental_uris": {"android": "https://dc.lft.to/lastmile_qr_scan", "ios": "https://dc.lft.to/lastmile_qr_scan"}, "fusion_lon": 0.0, "lat": 38.91701583333333, "bike_id": "6241df8513719484e57aae64aebe66e0", "type": "electric_scooter", "is_reserved": 0, "lon": -77.01162883333333}, {"fusion_lat": 0.0, "name": "41983ffb47e5132748d80826a0f2dfa7", "is_disabled": 0, "rental_uris": {"android": "https://dc.lft.to/lastmile_qr_scan", "ios": "https://dc.lft.to/lastmile_qr_scan"}, "fusion_lon": 0.0, "lat": 38.92478416666667, "bike_id": "41983ffb47e5132748d80826a0f2dfa7", "type": "electric_scooter", "is_reserved": 0, "lon": -77.02641716666666}, {"fusion_lat": 0.0, "name": "50e54a2e17cc4913ab41f5dfb2331d65", "is_disabled": 0, "rental_uris": {"android": "https://dc.lft.to/lastmile_qr_scan", "ios": "https://dc.lft.to/lastmile_qr_scan"}, "fusion_lon": 0.0, "lat": 38.90137133333333, "bike_id": "50e54a2e17cc4913ab41f5dfb2331d65", "type": "electric_scooter", "is_reserved": 0, "lon": -77.0025}, {"fusion_lat": 0.0, "name": "dbc1c433352891c5dc52df625889c961", "is_disabled": 0, "rental_uris": {"android": "https://dc.lft.to/lastmile_qr_scan", "ios": "https://dc.lft.to/lastmile_qr_scan"}, "fusion_lon": 0.0, "lat": 38.890657833333336, "bike_id": "dbc1c433352891c5dc52df625889c961", "type": "electric_scooter", "is_reserved": 0, "lon": -76.944467}, {"fusion_lat": 0.0, "name": "3d1b6ead448020cbc7bd984b61180c82", "is_disabled": 0, "rental_uris": {"android": "https://dc.lft.to/lastmile_qr_scan", "ios": "https://dc.lft.to/lastmile_qr_scan"}, "fusion_lon": 0.0, "lat": 38.8917055, "bike_id": "3d1b6ead448020cbc7bd984b61180c82", "type": "electric_scooter", "is_reserved": 0, "lon": -76.99465783333333}, {"fusion_lat": 0.0, "name": "4fb6c401d724552a1d3c10870112dd9f", "is_disabled": 0, "rental_uris": {"android": "https://dc.lft.to/lastmile_qr_scan", "ios": "https://dc.lft.to/lastmile_qr_scan"}, "fusion_lon": 0.0, "lat": 38.89928966666667, "bike_id": "4fb6c401d724552a1d3c10870112dd9f", "type": "electric_scooter", "is_reserved": 0, "lon": -77.003693}, {"fusion_lat": 0.0, "name": "821999d9e875a9da2e7236be50768f5d", "is_disabled": 0, "rental_uris": {"android": "https://dc.lft.to/lastmile_qr_scan", "ios": "https://dc.lft.to/lastmile_qr_scan"}, "fusion_lon": 0.0, "lat": 38.932057, "bike_id": "821999d9e875a9da2e7236be50768f5d", "type": "electric_scooter", "is_reserved": 0, "lon": -77.0279615}, {"fusion_lat": 0.0, "name": "18988d62e933849d142e24d8a37bae2b", "is_disabled": 0, "rental_uris": {"android": "https://dc.lft.to/lastmile_qr_scan", "ios": "https://dc.lft.to/lastmile_qr_scan"}, "fusion_lon": 0.0, "lat": 38.89535983333333, "bike_id": "18988d62e933849d142e24d8a37bae2b", "type": "electric_scooter", "is_reserved": 0, "lon": -77.01216066666667}, {"fusion_lat": 0.0, "name": "6fffe81285f5bb744aaf5b59ad3d8529", "is_disabled": 0, "rental_uris": {"android": "https://dc.lft.to/lastmile_qr_scan", "ios": "https://dc.lft.to/lastmile_qr_scan"}, "fusion_lon": 0.0, "lat": 38.925210166666666, "bike_id": "6fffe81285f5bb744aaf5b59ad3d8529", "type": "electric_scooter", "is_reserved": 0, "lon": -76.995717}, {"fusion_lat": 0.0, "name": "2198f5c24e8ca6f492a5569c7b982390", "is_disabled": 0, "rental_uris": {"android": "https://dc.lft.to/lastmile_qr_scan", "ios": "https://dc.lft.to/lastmile_qr_scan"}, "fusion_lon": 0.0, "lat": 38.956451666666666, "bike_id": "2198f5c24e8ca6f492a5569c7b982390", "type": "electric_scooter", "is_reserved": 0, "lon": -77.0241065}, {"fusion_lat": 0.0, "name": "83511a54b618b36dcf10f322fe9e0524", "is_disabled": 0, "rental_uris": {"android": "https://dc.lft.to/lastmile_qr_scan", "ios": "https://dc.lft.to/lastmile_qr_scan"}, "fusion_lon": 0.0, "lat": 38.875532, "bike_id": "83511a54b618b36dcf10f322fe9e0524", "type": "electric_scooter", "is_reserved": 0, "lon": -77.005676}, {"fusion_lat": 0.0, "name": "6cf0e12bca83f5dd84e969fb9d24d574", "is_disabled": 0, "rental_uris": {"android": "https://dc.lft.to/lastmile_qr_scan", "ios": "https://dc.lft.to/lastmile_qr_scan"}, "fusion_lon": 0.0, "lat": 38.913939666666664, "bike_id": "6cf0e12bca83f5dd84e969fb9d24d574", "type": "electric_scooter", "is_reserved": 0, "lon": -77.03324416666666}, {"fusion_lat": 0.0, "name": "93a1beebc2ff0b520f50edc80785dbfe", "is_disabled": 0, "rental_uris": {"android": "https://dc.lft.to/lastmile_qr_scan", "ios": "https://dc.lft.to/lastmile_qr_scan"}, "fusion_lon": 0.0, "lat": 38.911209166666666, "bike_id": "93a1beebc2ff0b520f50edc80785dbfe", "type": "electric_scooter", "is_reserved": 0, "lon": -77.03832566666667}, {"fusion_lat": 0.0, "name": "32a5066f44678f9db9b8a6fbbc81fc4b", "is_disabled": 0, "rental_uris": {"android": "https://dc.lft.to/lastmile_qr_scan", "ios": "https://dc.lft.to/lastmile_qr_scan"}, "fusion_lon": 0.0, "lat": 38.93458616666667, "bike_id": "32a5066f44678f9db9b8a6fbbc81fc4b", "type": "electric_scooter", "is_reserved": 0, "lon": -77.0726095}, {"fusion_lat": 0.0, "name": "d5a8fc1e721ce2b36f883de3607f2b16", "is_disabled": 0, "rental_uris": {"android": "https://dc.lft.to/lastmile_qr_scan", "ios": "https://dc.lft.to/lastmile_qr_scan"}, "fusion_lon": 0.0, "lat": 38.8853235, "bike_id": "d5a8fc1e721ce2b36f883de3607f2b16", "type": "electric_scooter", "is_reserved": 0, "lon": -77.015148}, {"fusion_lat": 0.0, "name": "907bbcd8bcb3e3601603e2245defe41c", "is_disabled": 0, "rental_uris": {"android": "https://dc.lft.to/lastmile_qr_scan", "ios": "https://dc.lft.to/lastmile_qr_scan"}, "fusion_lon": 0.0, "lat": 38.89994266666667, "bike_id": "907bbcd8bcb3e3601603e2245defe41c", "type": "electric_scooter", "is_reserved": 0, "lon": -77.0065565}, {"fusion_lat": 0.0, "name": "b055840be4baae3323d344eb6a612f5b", "is_disabled": 0, "rental_uris": {"android": "https://dc.lft.to/lastmile_qr_scan", "ios": "https://dc.lft.to/lastmile_qr_scan"}, "fusion_lon": 0.0, "lat": 38.9286255, "bike_id": "b055840be4baae3323d344eb6a612f5b", "type": "electric_scooter", "is_reserved": 0, "lon": -77.03521083333334}, {"fusion_lat": 0.0, "name": "bdc44035ada981b9468a402d9d535546", "is_disabled": 0, "rental_uris": {"android": "https://dc.lft.to/lastmile_qr_scan", "ios": "https://dc.lft.to/lastmile_qr_scan"}, "fusion_lon": 0.0, "lat": 38.90722683333333, "bike_id": "bdc44035ada981b9468a402d9d535546", "type": "electric_scooter", "is_reserved": 0, "lon": -77.069044}, {"fusion_lat": 0.0, "name": "c0ed9557d9366c44bc423ba7290353fc", "is_disabled": 0, "rental_uris": {"android": "https://dc.lft.to/lastmile_qr_scan", "ios": "https://dc.lft.to/lastmile_qr_scan"}, "fusion_lon": 0.0, "lat": 38.92417116666667, "bike_id": "c0ed9557d9366c44bc423ba7290353fc", "type": "electric_scooter", "is_reserved": 0, "lon": -77.05058666666666}, {"fusion_lat": 0.0, "name": "d9cf86b82435396b8a0c3e262e69df34", "is_disabled": 0, "rental_uris": {"android": "https://dc.lft.to/lastmile_qr_scan", "ios": "https://dc.lft.to/lastmile_qr_scan"}, "fusion_lon": 0.0, "lat": 38.8971785, "bike_id": "d9cf86b82435396b8a0c3e262e69df34", "type": "electric_scooter", "is_reserved": 0, "lon": -77.01303966666667}, {"fusion_lat": 0.0, "name": "fd79c23422f9c69dd84ee29f29b891a1", "is_disabled": 0, "rental_uris": {"android": "https://dc.lft.to/lastmile_qr_scan", "ios": "https://dc.lft.to/lastmile_qr_scan"}, "fusion_lon": 0.0, "lat": 38.904244166666665, "bike_id": "fd79c23422f9c69dd84ee29f29b891a1", "type": "electric_scooter", "is_reserved": 0, "lon": -76.9497515}, {"fusion_lat": 0.0, "name": "6684f4023f93e4a00f6a2b36132896c4", "is_disabled": 0, "rental_uris": {"android": "https://dc.lft.to/lastmile_qr_scan", "ios": "https://dc.lft.to/lastmile_qr_scan"}, "fusion_lon": 0.0, "lat": 38.9165255, "bike_id": "6684f4023f93e4a00f6a2b36132896c4", "type": "electric_scooter", "is_reserved": 0, "lon": -77.03197416666667}, {"fusion_lat": 0.0, "name": "17d096a178c10194f2fcb7243c2e9b2e", "is_disabled": 0, "rental_uris": {"android": "https://dc.lft.to/lastmile_qr_scan", "ios": "https://dc.lft.to/lastmile_qr_scan"}, "fusion_lon": 0.0, "lat": 38.924066833333335, "bike_id": "17d096a178c10194f2fcb7243c2e9b2e", "type": "electric_scooter", "is_reserved": 0, "lon": -77.04296933333333}, {"fusion_lat": 0.0, "name": "0ef1fcb5687d33266221f8e9c270e44a", "is_disabled": 0, "rental_uris": {"android": "https://dc.lft.to/lastmile_qr_scan", "ios": "https://dc.lft.to/lastmile_qr_scan"}, "fusion_lon": 0.0, "lat": 38.92122466666667, "bike_id": "0ef1fcb5687d33266221f8e9c270e44a", "type": "electric_scooter", "is_reserved": 0, "lon": -77.03657383333334}, {"fusion_lat": 0.0, "name": "e34d09420131997cd0326dcaf008c9a3", "is_disabled": 0, "rental_uris": {"android": "https://dc.lft.to/lastmile_qr_scan", "ios": "https://dc.lft.to/lastmile_qr_scan"}, "fusion_lon": 0.0, "lat": 38.89224933333333, "bike_id": "e34d09420131997cd0326dcaf008c9a3", "type": "electric_scooter", "is_reserved": 0, "lon": -77.0154515}, {"fusion_lat": 0.0, "name": "135f88586616ba09e278e3d0bc68ba33", "is_disabled": 0, "rental_uris": {"android": "https://dc.lft.to/lastmile_qr_scan", "ios": "https://dc.lft.to/lastmile_qr_scan"}, "fusion_lon": 0.0, "lat": 38.9058265, "bike_id": "135f88586616ba09e278e3d0bc68ba33", "type": "electric_scooter", "is_reserved": 0, "lon": -77.03469383333334}, {"fusion_lat": 0.0, "name": "561156914bbde3d40b04847270fa2404", "is_disabled": 0, "rental_uris": {"android": "https://dc.lft.to/lastmile_qr_scan", "ios": "https://dc.lft.to/lastmile_qr_scan"}, "fusion_lon": 0.0, "lat": 38.866960166666665, "bike_id": "561156914bbde3d40b04847270fa2404", "type": "electric_scooter", "is_reserved": 0, "lon": -76.9864075}, {"fusion_lat": 0.0, "name": "22d8fdf2b6a7d98bee4179ea2b2ad463", "is_disabled": 0, "rental_uris": {"android": "https://dc.lft.to/lastmile_qr_scan", "ios": "https://dc.lft.to/lastmile_qr_scan"}, "fusion_lon": 0.0, "lat": 38.92871516666666, "bike_id": "22d8fdf2b6a7d98bee4179ea2b2ad463", "type": "electric_scooter", "is_reserved": 0, "lon": -77.03340183333333}, {"fusion_lat": 0.0, "name": "40d65f1b78c20fa91807fe46829a7add", "is_disabled": 0, "rental_uris": {"android": "https://dc.lft.to/lastmile_qr_scan", "ios": "https://dc.lft.to/lastmile_qr_scan"}, "fusion_lon": 0.0, "lat": 38.90514483333333, "bike_id": "40d65f1b78c20fa91807fe46829a7add", "type": "electric_scooter", "is_reserved": 0, "lon": -77.063827}, {"fusion_lat": 0.0, "name": "17750aed81f1f4a5c9413127c97a04cc", "is_disabled": 0, "rental_uris": {"android": "https://dc.lft.to/lastmile_qr_scan", "ios": "https://dc.lft.to/lastmile_qr_scan"}, "fusion_lon": 0.0, "lat": 38.92065, "bike_id": "17750aed81f1f4a5c9413127c97a04cc", "type": "electric_scooter", "is_reserved": 0, "lon": -77.03396483333333}, {"fusion_lat": 0.0, "name": "25bdc596c50e523a5a20c4f2eaefb07c", "is_disabled": 0, "rental_uris": {"android": "https://dc.lft.to/lastmile_qr_scan", "ios": "https://dc.lft.to/lastmile_qr_scan"}, "fusion_lon": 0.0, "lat": 38.957330166666665, "bike_id": "25bdc596c50e523a5a20c4f2eaefb07c", "type": "electric_scooter", "is_reserved": 0, "lon": -77.024012}, {"fusion_lat": 0.0, "name": "f8527f44130adf748fd199c33af8b7dd", "is_disabled": 0, "rental_uris": {"android": "https://dc.lft.to/lastmile_qr_scan", "ios": "https://dc.lft.to/lastmile_qr_scan"}, "fusion_lon": 0.0, "lat": 38.92823883333333, "bike_id": "f8527f44130adf748fd199c33af8b7dd", "type": "electric_bike", "is_reserved": 0, "lon": -77.03284433333333}, {"fusion_lat": 0.0, "name": "f6adccec8ffc980bcab8246deb0ab73a", "is_disabled": 0, "rental_uris": {"android": "https://dc.lft.to/lastmile_qr_scan", "ios": "https://dc.lft.to/lastmile_qr_scan"}, "fusion_lon": 0.0, "lat": 38.91572883333333, "bike_id": "f6adccec8ffc980bcab8246deb0ab73a", "type": "electric_scooter", "is_reserved": 0, "lon": -77.0385745}, {"fusion_lat": 0.0, "name": "b43ce9bd143aaf70fd2972e24eef25c6", "is_disabled": 0, "rental_uris": {"android": "https://dc.lft.to/lastmile_qr_scan", "ios": "https://dc.lft.to/lastmile_qr_scan"}, "fusion_lon": 0.0, "lat": 38.909732, "bike_id": "b43ce9bd143aaf70fd2972e24eef25c6", "type": "electric_scooter", "is_reserved": 0, "lon": -77.00900033333333}, {"fusion_lat": 0.0, "name": "18d9ee9c85bbe755408b4c98e3af5732", "is_disabled": 0, "rental_uris": {"android": "https://dc.lft.to/lastmile_qr_scan", "ios": "https://dc.lft.to/lastmile_qr_scan"}, "fusion_lon": 0.0, "lat": 38.9058105, "bike_id": "18d9ee9c85bbe755408b4c98e3af5732", "type": "electric_scooter", "is_reserved": 0, "lon": -77.00889566666666}, {"fusion_lat": 0.0, "name": "2c9558f83bfc7e372561e01270673265", "is_disabled": 0, "rental_uris": {"android": "https://dc.lft.to/lastmile_qr_scan", "ios": "https://dc.lft.to/lastmile_qr_scan"}, "fusion_lon": 0.0, "lat": 38.902484, "bike_id": "2c9558f83bfc7e372561e01270673265", "type": "electric_scooter", "is_reserved": 0, "lon": -77.04540083333333}, {"fusion_lat": 0.0, "name": "1926460d33ca9421bdfcdc2e5a6c31e6", "is_disabled": 0, "rental_uris": {"android": "https://dc.lft.to/lastmile_qr_scan", "ios": "https://dc.lft.to/lastmile_qr_scan"}, "fusion_lon": 0.0, "lat": 38.94135033333333, "bike_id": "1926460d33ca9421bdfcdc2e5a6c31e6", "type": "electric_scooter", "is_reserved": 0, "lon": -77.01540966666667}, {"fusion_lat": 0.0, "name": "7e912da169b73da90bf21895a412d8fd", "is_disabled": 0, "rental_uris": {"android": "https://dc.lft.to/lastmile_qr_scan", "ios": "https://dc.lft.to/lastmile_qr_scan"}, "fusion_lon": 0.0, "lat": 38.950201, "bike_id": "7e912da169b73da90bf21895a412d8fd", "type": "electric_scooter", "is_reserved": 0, "lon": -77.03350466666667}, {"fusion_lat": 0.0, "name": "a24af6c8942bdd67a885e88b6369da07", "is_disabled": 0, "rental_uris": {"android": "https://dc.lft.to/lastmile_qr_scan", "ios": "https://dc.lft.to/lastmile_qr_scan"}, "fusion_lon": 0.0, "lat": 38.9101885, "bike_id": "a24af6c8942bdd67a885e88b6369da07", "type": "electric_scooter", "is_reserved": 0, "lon": -77.03849566666666}, {"fusion_lat": 0.0, "name": "4cae90b9c85f6791e60e40b7c1818d5f", "is_disabled": 0, "rental_uris": {"android": "https://dc.lft.to/lastmile_qr_scan", "ios": "https://dc.lft.to/lastmile_qr_scan"}, "fusion_lon": 0.0, "lat": 38.929314166666664, "bike_id": "4cae90b9c85f6791e60e40b7c1818d5f", "type": "electric_scooter", "is_reserved": 0, "lon": -77.0326175}, {"fusion_lat": 0.0, "name": "9c60dd2979060e1d4a1e80d17ba74992", "is_disabled": 0, "rental_uris": {"android": "https://dc.lft.to/lastmile_qr_scan", "ios": "https://dc.lft.to/lastmile_qr_scan"}, "fusion_lon": 0.0, "lat": 38.93893033333333, "bike_id": "9c60dd2979060e1d4a1e80d17ba74992", "type": "electric_scooter", "is_reserved": 0, "lon": -77.03324133333334}, {"fusion_lat": 0.0, "name": "a4092f047a79df5c9175e6fffaa4457e", "is_disabled": 0, "rental_uris": {"android": "https://dc.lft.to/lastmile_qr_scan", "ios": "https://dc.lft.to/lastmile_qr_scan"}, "fusion_lon": 0.0, "lat": 38.93072433333333, "bike_id": "a4092f047a79df5c9175e6fffaa4457e", "type": "electric_scooter", "is_reserved": 0, "lon": -77.03160633333333}, {"fusion_lat": 0.0, "name": "9a668be007e2709bec4ffbbdef625e57", "is_disabled": 0, "rental_uris": {"android": "https://dc.lft.to/lastmile_qr_scan", "ios": "https://dc.lft.to/lastmile_qr_scan"}, "fusion_lon": 0.0, "lat": 38.9271655, "bike_id": "9a668be007e2709bec4ffbbdef625e57", "type": "electric_scooter", "is_reserved": 0, "lon": -77.02321183333333}, {"fusion_lat": 0.0, "name": "7aba2275052580f8a998a7a5946d7e07", "is_disabled": 0, "rental_uris": {"android": "https://dc.lft.to/lastmile_qr_scan", "ios": "https://dc.lft.to/lastmile_qr_scan"}, "fusion_lon": 0.0, "lat": 38.92496416666667, "bike_id": "7aba2275052580f8a998a7a5946d7e07", "type": "electric_scooter", "is_reserved": 0, "lon": -77.02170166666667}, {"fusion_lat": 0.0, "name": "42a1241a1f1904409e20c42094b0a9e5", "is_disabled": 0, "rental_uris": {"android": "https://dc.lft.to/lastmile_qr_scan", "ios": "https://dc.lft.to/lastmile_qr_scan"}, "fusion_lon": 0.0, "lat": 38.956377833333335, "bike_id": "42a1241a1f1904409e20c42094b0a9e5", "type": "electric_scooter", "is_reserved": 0, "lon": -77.0329955}, {"fusion_lat": 0.0, "name": "d47f869b80310bce267a004b5b929a04", "is_disabled": 0, "rental_uris": {"android": "https://dc.lft.to/lastmile_qr_scan", "ios": "https://dc.lft.to/lastmile_qr_scan"}, "fusion_lon": 0.0, "lat": 38.901049666666665, "bike_id": "d47f869b80310bce267a004b5b929a04", "type": "electric_scooter", "is_reserved": 0, "lon": -77.05808216666667}, {"fusion_lat": 0.0, "name": "371ffe9c6af8523010a2a26a9dd73377", "is_disabled": 0, "rental_uris": {"android": "https://dc.lft.to/lastmile_qr_scan", "ios": "https://dc.lft.to/lastmile_qr_scan"}, "fusion_lon": 0.0, "lat": 38.88295433333333, "bike_id": "371ffe9c6af8523010a2a26a9dd73377", "type": "electric_bike", "is_reserved": 0, "lon": -77.030207}, {"fusion_lat": 0.0, "name": "05c00ae3521b8d0f6add7a9164846fec", "is_disabled": 0, "rental_uris": {"android": "https://dc.lft.to/lastmile_qr_scan", "ios": "https://dc.lft.to/lastmile_qr_scan"}, "fusion_lon": 0.0, "lat": 38.911122166666665, "bike_id": "05c00ae3521b8d0f6add7a9164846fec", "type": "electric_scooter", "is_reserved": 0, "lon": -77.02907883333333}, {"fusion_lat": 0.0, "name": "4130337b5ae0c3a34b59c7f774b214ee", "is_disabled": 0, "rental_uris": {"android": "https://dc.lft.to/lastmile_qr_scan", "ios": "https://dc.lft.to/lastmile_qr_scan"}, "fusion_lon": 0.0, "lat": 38.91120933333333, "bike_id": "4130337b5ae0c3a34b59c7f774b214ee", "type": "electric_scooter", "is_reserved": 0, "lon": -77.044614}, {"fusion_lat": 0.0, "name": "abb059c8d334239768996d93e1025ff6", "is_disabled": 0, "rental_uris": {"android": "https://dc.lft.to/lastmile_qr_scan", "ios": "https://dc.lft.to/lastmile_qr_scan"}, "fusion_lon": 0.0, "lat": 38.930619666666665, "bike_id": "abb059c8d334239768996d93e1025ff6", "type": "electric_scooter", "is_reserved": 0, "lon": -77.04050416666666}, {"fusion_lat": 0.0, "name": "4a48a91e8ef5993de30b6abeb6050729", "is_disabled": 0, "rental_uris": {"android": "https://dc.lft.to/lastmile_qr_scan", "ios": "https://dc.lft.to/lastmile_qr_scan"}, "fusion_lon": 0.0, "lat": 38.961845, "bike_id": "4a48a91e8ef5993de30b6abeb6050729", "type": "electric_bike", "is_reserved": 0, "lon": -77.05266416666667}, {"fusion_lat": 0.0, "name": "385eb3a6e9ef48f09c88409effa4172f", "is_disabled": 0, "rental_uris": {"android": "https://dc.lft.to/lastmile_qr_scan", "ios": "https://dc.lft.to/lastmile_qr_scan"}, "fusion_lon": 0.0, "lat": 38.9746405, "bike_id": "385eb3a6e9ef48f09c88409effa4172f", "type": "electric_scooter", "is_reserved": 0, "lon": -77.01320183333333}, {"fusion_lat": 0.0, "name": "85dc3ff40328bd22d65eae61cbaae067", "is_disabled": 0, "rental_uris": {"android": "https://dc.lft.to/lastmile_qr_scan", "ios": "https://dc.lft.to/lastmile_qr_scan"}, "fusion_lon": 0.0, "lat": 38.897284, "bike_id": "85dc3ff40328bd22d65eae61cbaae067", "type": "electric_scooter", "is_reserved": 0, "lon": -77.00371066666666}, {"fusion_lat": 0.0, "name": "f870e3ab89bc4c8d8e120c34775e7722", "is_disabled": 0, "rental_uris": {"android": "https://dc.lft.to/lastmile_qr_scan", "ios": "https://dc.lft.to/lastmile_qr_scan"}, "fusion_lon": 0.0, "lat": 38.90907166666667, "bike_id": "f870e3ab89bc4c8d8e120c34775e7722", "type": "electric_scooter", "is_reserved": 0, "lon": -77.07295116666667}, {"fusion_lat": 0.0, "name": "111a78c842eaf94ee1eb3eb356ea856c", "is_disabled": 0, "rental_uris": {"android": "https://dc.lft.to/lastmile_qr_scan", "ios": "https://dc.lft.to/lastmile_qr_scan"}, "fusion_lon": 0.0, "lat": 38.919085833333334, "bike_id": "111a78c842eaf94ee1eb3eb356ea856c", "type": "electric_scooter", "is_reserved": 0, "lon": -77.00211816666666}, {"fusion_lat": 0.0, "name": "646fa7f4b00d7c2cd19d80cfa5f7b206", "is_disabled": 0, "rental_uris": {"android": "https://dc.lft.to/lastmile_qr_scan", "ios": "https://dc.lft.to/lastmile_qr_scan"}, "fusion_lon": 0.0, "lat": 38.908645666666665, "bike_id": "646fa7f4b00d7c2cd19d80cfa5f7b206", "type": "electric_scooter", "is_reserved": 0, "lon": -77.04287133333334}, {"fusion_lat": 0.0, "name": "27b99cf9ff1181bd6f178469808667de", "is_disabled": 0, "rental_uris": {"android": "https://dc.lft.to/lastmile_qr_scan", "ios": "https://dc.lft.to/lastmile_qr_scan"}, "fusion_lon": 0.0, "lat": 38.89695966666667, "bike_id": "27b99cf9ff1181bd6f178469808667de", "type": "electric_scooter", "is_reserved": 0, "lon": -77.0432985}, {"fusion_lat": 0.0, "name": "bd0259dd47fa3f51f78b8ac4f850e890", "is_disabled": 0, "rental_uris": {"android": "https://dc.lft.to/lastmile_qr_scan", "ios": "https://dc.lft.to/lastmile_qr_scan"}, "fusion_lon": 0.0, "lat": 38.891110166666664, "bike_id": "bd0259dd47fa3f51f78b8ac4f850e890", "type": "electric_scooter", "is_reserved": 0, "lon": -76.94381933333334}, {"fusion_lat": 0.0, "name": "e2fea75a926038f09f962eab2f64367a", "is_disabled": 0, "rental_uris": {"android": "https://dc.lft.to/lastmile_qr_scan", "ios": "https://dc.lft.to/lastmile_qr_scan"}, "fusion_lon": 0.0, "lat": 38.911263, "bike_id": "e2fea75a926038f09f962eab2f64367a", "type": "electric_scooter", "is_reserved": 0, "lon": -77.020889}, {"fusion_lat": 0.0, "name": "1bfc9fc8a52dffc1113d09c8cfdb1239", "is_disabled": 0, "rental_uris": {"android": "https://dc.lft.to/lastmile_qr_scan", "ios": "https://dc.lft.to/lastmile_qr_scan"}, "fusion_lon": 0.0, "lat": 38.89736666666667, "bike_id": "1bfc9fc8a52dffc1113d09c8cfdb1239", "type": "electric_bike", "is_reserved": 0, "lon": -76.92047133333334}, {"fusion_lat": 0.0, "name": "9973dc9c6eb0771362836027e422bf4e", "is_disabled": 0, "rental_uris": {"android": "https://dc.lft.to/lastmile_qr_scan", "ios": "https://dc.lft.to/lastmile_qr_scan"}, "fusion_lon": 0.0, "lat": 38.9698955, "bike_id": "9973dc9c6eb0771362836027e422bf4e", "type": "electric_scooter", "is_reserved": 0, "lon": -77.01158483333333}, {"fusion_lat": 0.0, "name": "38a5c49e5fa136e013972610a1e23fdb", "is_disabled": 0, "rental_uris": {"android": "https://dc.lft.to/lastmile_qr_scan", "ios": "https://dc.lft.to/lastmile_qr_scan"}, "fusion_lon": 0.0, "lat": 38.926041, "bike_id": "38a5c49e5fa136e013972610a1e23fdb", "type": "electric_scooter", "is_reserved": 0, "lon": -77.021558}, {"fusion_lat": 0.0, "name": "f01b7e14780db8b7f9eefe70bf5f389a", "is_disabled": 0, "rental_uris": {"android": "https://dc.lft.to/lastmile_qr_scan", "ios": "https://dc.lft.to/lastmile_qr_scan"}, "fusion_lon": 0.0, "lat": 38.90125333333334, "bike_id": "f01b7e14780db8b7f9eefe70bf5f389a", "type": "electric_scooter", "is_reserved": 0, "lon": -77.052398}, {"fusion_lat": 0.0, "name": "6cfe55a51ecec85351cc90d9a7e29200", "is_disabled": 0, "rental_uris": {"android": "https://dc.lft.to/lastmile_qr_scan", "ios": "https://dc.lft.to/lastmile_qr_scan"}, "fusion_lon": 0.0, "lat": 38.87953366666667, "bike_id": "6cfe55a51ecec85351cc90d9a7e29200", "type": "electric_scooter", "is_reserved": 0, "lon": -76.99008366666666}, {"fusion_lat": 0.0, "name": "49998af682fc370aee88d46cda1cfeac", "is_disabled": 0, "rental_uris": {"android": "https://dc.lft.to/lastmile_qr_scan", "ios": "https://dc.lft.to/lastmile_qr_scan"}, "fusion_lon": 0.0, "lat": 38.90410683333333, "bike_id": "49998af682fc370aee88d46cda1cfeac", "type": "electric_scooter", "is_reserved": 0, "lon": -76.9733085}, {"fusion_lat": 0.0, "name": "b1e0f9d7095211cfa14bfad67b1e0172", "is_disabled": 0, "rental_uris": {"android": "https://dc.lft.to/lastmile_qr_scan", "ios": "https://dc.lft.to/lastmile_qr_scan"}, "fusion_lon": 0.0, "lat": 38.877529333333335, "bike_id": "b1e0f9d7095211cfa14bfad67b1e0172", "type": "electric_scooter", "is_reserved": 0, "lon": -77.01424833333333}, {"fusion_lat": 0.0, "name": "f70ab01d3d5cd4e7781a2275574ff796", "is_disabled": 0, "rental_uris": {"android": "https://dc.lft.to/lastmile_qr_scan", "ios": "https://dc.lft.to/lastmile_qr_scan"}, "fusion_lon": 0.0, "lat": 38.9094895, "bike_id": "f70ab01d3d5cd4e7781a2275574ff796", "type": "electric_scooter", "is_reserved": 0, "lon": -77.044162}, {"fusion_lat": 0.0, "name": "98feaf2e46db39a86292a96a9773cb69", "is_disabled": 0, "rental_uris": {"android": "https://dc.lft.to/lastmile_qr_scan", "ios": "https://dc.lft.to/lastmile_qr_scan"}, "fusion_lon": 0.0, "lat": 38.89611816666667, "bike_id": "98feaf2e46db39a86292a96a9773cb69", "type": "electric_scooter", "is_reserved": 0, "lon": -76.948123}, {"fusion_lat": 0.0, "name": "bf689bd3bb78f61c0db21fcaee4c13d7", "is_disabled": 0, "rental_uris": {"android": "https://dc.lft.to/lastmile_qr_scan", "ios": "https://dc.lft.to/lastmile_qr_scan"}, "fusion_lon": 0.0, "lat": 38.9167145, "bike_id": "bf689bd3bb78f61c0db21fcaee4c13d7", "type": "electric_scooter", "is_reserved": 0, "lon": -77.02817433333334}, {"fusion_lat": 0.0, "name": "354309d760abadca25272c3b03238a33", "is_disabled": 0, "rental_uris": {"android": "https://dc.lft.to/lastmile_qr_scan", "ios": "https://dc.lft.to/lastmile_qr_scan"}, "fusion_lon": 0.0, "lat": 38.8900735, "bike_id": "354309d760abadca25272c3b03238a33", "type": "electric_scooter", "is_reserved": 0, "lon": -76.93748916666667}, {"fusion_lat": 0.0, "name": "4bb24112ea152de87e4ebc7b243d0d3b", "is_disabled": 0, "rental_uris": {"android": "https://dc.lft.to/lastmile_qr_scan", "ios": "https://dc.lft.to/lastmile_qr_scan"}, "fusion_lon": 0.0, "lat": 38.883349333333335, "bike_id": "4bb24112ea152de87e4ebc7b243d0d3b", "type": "electric_scooter", "is_reserved": 0, "lon": -77.01971533333334}, {"fusion_lat": 0.0, "name": "0554fa4dfa3f7d69da7be8b2da93a0d5", "is_disabled": 0, "rental_uris": {"android": "https://dc.lft.to/lastmile_qr_scan", "ios": "https://dc.lft.to/lastmile_qr_scan"}, "fusion_lon": 0.0, "lat": 38.93264466666667, "bike_id": "0554fa4dfa3f7d69da7be8b2da93a0d5", "type": "electric_scooter", "is_reserved": 0, "lon": -77.02090733333333}, {"fusion_lat": 0.0, "name": "193d8a2feb612b4e99c3917e89e4cf89", "is_disabled": 0, "rental_uris": {"android": "https://dc.lft.to/lastmile_qr_scan", "ios": "https://dc.lft.to/lastmile_qr_scan"}, "fusion_lon": 0.0, "lat": 38.876901833333335, "bike_id": "193d8a2feb612b4e99c3917e89e4cf89", "type": "electric_scooter", "is_reserved": 0, "lon": -77.01753066666667}, {"fusion_lat": 0.0, "name": "ef8a90ec23c484fdf126de7904e89395", "is_disabled": 0, "rental_uris": {"android": "https://dc.lft.to/lastmile_qr_scan", "ios": "https://dc.lft.to/lastmile_qr_scan"}, "fusion_lon": 0.0, "lat": 38.821823, "bike_id": "ef8a90ec23c484fdf126de7904e89395", "type": "electric_bike", "is_reserved": 0, "lon": -76.9951165}, {"fusion_lat": 0.0, "name": "35275458a401c14030f98474dc07bb14", "is_disabled": 0, "rental_uris": {"android": "https://dc.lft.to/lastmile_qr_scan", "ios": "https://dc.lft.to/lastmile_qr_scan"}, "fusion_lon": 0.0, "lat": 38.914839, "bike_id": "35275458a401c14030f98474dc07bb14", "type": "electric_scooter", "is_reserved": 0, "lon": -77.0456325}, {"fusion_lat": 0.0, "name": "35f4ea7eeebe1a51aeb6abc370c501e1", "is_disabled": 0, "rental_uris": {"android": "https://dc.lft.to/lastmile_qr_scan", "ios": "https://dc.lft.to/lastmile_qr_scan"}, "fusion_lon": 0.0, "lat": 38.90036333333333, "bike_id": "35f4ea7eeebe1a51aeb6abc370c501e1", "type": "electric_scooter", "is_reserved": 0, "lon": -77.00203266666666}, {"fusion_lat": 0.0, "name": "72c6458f557af339e0144ea717fc017f", "is_disabled": 0, "rental_uris": {"android": "https://dc.lft.to/lastmile_qr_scan", "ios": "https://dc.lft.to/lastmile_qr_scan"}, "fusion_lon": 0.0, "lat": 38.891869, "bike_id": "72c6458f557af339e0144ea717fc017f", "type": "electric_scooter", "is_reserved": 0, "lon": -77.036385}, {"fusion_lat": 0.0, "name": "2aa444247161ae903fa75cdb5b484b16", "is_disabled": 0, "rental_uris": {"android": "https://dc.lft.to/lastmile_qr_scan", "ios": "https://dc.lft.to/lastmile_qr_scan"}, "fusion_lon": 0.0, "lat": 38.80455833333333, "bike_id": "2aa444247161ae903fa75cdb5b484b16", "type": "electric_bike", "is_reserved": 0, "lon": -77.05387116666667}, {"fusion_lat": 0.0, "name": "526170b741e5af7ff24733a2c883cea1", "is_disabled": 0, "rental_uris": {"android": "https://dc.lft.to/lastmile_qr_scan", "ios": "https://dc.lft.to/lastmile_qr_scan"}, "fusion_lon": 0.0, "lat": 38.92094383333333, "bike_id": "526170b741e5af7ff24733a2c883cea1", "type": "electric_scooter", "is_reserved": 0, "lon": -76.99460766666667}, {"fusion_lat": 0.0, "name": "eb8c451438991b3bdc4bc0da05d6c6ce", "is_disabled": 0, "rental_uris": {"android": "https://dc.lft.to/lastmile_qr_scan", "ios": "https://dc.lft.to/lastmile_qr_scan"}, "fusion_lon": 0.0, "lat": 38.88703566666667, "bike_id": "eb8c451438991b3bdc4bc0da05d6c6ce", "type": "electric_scooter", "is_reserved": 0, "lon": -77.00248016666667}, {"fusion_lat": 0.0, "name": "3e0b10140e00bab835281d112a5a2237", "is_disabled": 0, "rental_uris": {"android": "https://dc.lft.to/lastmile_qr_scan", "ios": "https://dc.lft.to/lastmile_qr_scan"}, "fusion_lon": 0.0, "lat": 38.8865375, "bike_id": "3e0b10140e00bab835281d112a5a2237", "type": "electric_scooter", "is_reserved": 0, "lon": -77.03360883333333}, {"fusion_lat": 0.0, "name": "e869f7f16cc70d0adf58c964f0496f1b", "is_disabled": 0, "rental_uris": {"android": "https://dc.lft.to/lastmile_qr_scan", "ios": "https://dc.lft.to/lastmile_qr_scan"}, "fusion_lon": 0.0, "lat": 38.8983385, "bike_id": "e869f7f16cc70d0adf58c964f0496f1b", "type": "electric_scooter", "is_reserved": 0, "lon": -76.94630083333334}, {"fusion_lat": 0.0, "name": "31b285af651de60316412ff741618e62", "is_disabled": 0, "rental_uris": {"android": "https://dc.lft.to/lastmile_qr_scan", "ios": "https://dc.lft.to/lastmile_qr_scan"}, "fusion_lon": 0.0, "lat": 38.89668966666667, "bike_id": "31b285af651de60316412ff741618e62", "type": "electric_scooter", "is_reserved": 0, "lon": -77.0512635}, {"fusion_lat": 0.0, "name": "20d1cb0d8da9048309c106efda435f7e", "is_disabled": 0, "rental_uris": {"android": "https://dc.lft.to/lastmile_qr_scan", "ios": "https://dc.lft.to/lastmile_qr_scan"}, "fusion_lon": 0.0, "lat": 38.908623666666664, "bike_id": "20d1cb0d8da9048309c106efda435f7e", "type": "electric_scooter", "is_reserved": 0, "lon": -77.038441}, {"fusion_lat": 0.0, "name": "3bd7cd3bc3f11c2bbcc21d2591b4615b", "is_disabled": 0, "rental_uris": {"android": "https://dc.lft.to/lastmile_qr_scan", "ios": "https://dc.lft.to/lastmile_qr_scan"}, "fusion_lon": 0.0, "lat": 38.92097033333334, "bike_id": "3bd7cd3bc3f11c2bbcc21d2591b4615b", "type": "electric_bike", "is_reserved": 0, "lon": -76.99937466666667}, {"fusion_lat": 0.0, "name": "4f9f2eb55eb52521f0d838832eb4f364", "is_disabled": 0, "rental_uris": {"android": "https://dc.lft.to/lastmile_qr_scan", "ios": "https://dc.lft.to/lastmile_qr_scan"}, "fusion_lon": 0.0, "lat": 38.91416233333333, "bike_id": "4f9f2eb55eb52521f0d838832eb4f364", "type": "electric_scooter", "is_reserved": 0, "lon": -77.02206733333334}, {"fusion_lat": 0.0, "name": "483be2f4d17abe9a985b986c673a99b0", "is_disabled": 0, "rental_uris": {"android": "https://dc.lft.to/lastmile_qr_scan", "ios": "https://dc.lft.to/lastmile_qr_scan"}, "fusion_lon": 0.0, "lat": 38.9233905, "bike_id": "483be2f4d17abe9a985b986c673a99b0", "type": "electric_scooter", "is_reserved": 0, "lon": -77.041414}, {"fusion_lat": 0.0, "name": "73c4fe41680fd7cfd854eabd1a4b9ca8", "is_disabled": 0, "rental_uris": {"android": "https://dc.lft.to/lastmile_qr_scan", "ios": "https://dc.lft.to/lastmile_qr_scan"}, "fusion_lon": 0.0, "lat": 38.88458583333333, "bike_id": "73c4fe41680fd7cfd854eabd1a4b9ca8", "type": "electric_scooter", "is_reserved": 0, "lon": -77.04456466666667}, {"fusion_lat": 0.0, "name": "b332744e052367f262d6933fbfa49aa8", "is_disabled": 0, "rental_uris": {"android": "https://dc.lft.to/lastmile_qr_scan", "ios": "https://dc.lft.to/lastmile_qr_scan"}, "fusion_lon": 0.0, "lat": 38.95281766666667, "bike_id": "b332744e052367f262d6933fbfa49aa8", "type": "electric_scooter", "is_reserved": 0, "lon": -77.06851116666667}, {"fusion_lat": 0.0, "name": "6899ad438d61944162a3e0afa82cdca1", "is_disabled": 0, "rental_uris": {"android": "https://dc.lft.to/lastmile_qr_scan", "ios": "https://dc.lft.to/lastmile_qr_scan"}, "fusion_lon": 0.0, "lat": 38.912727833333335, "bike_id": "6899ad438d61944162a3e0afa82cdca1", "type": "electric_scooter", "is_reserved": 0, "lon": -77.02300466666667}, {"fusion_lat": 0.0, "name": "7818707732d8935a7ccb2f5d3d1dccbe", "is_disabled": 0, "rental_uris": {"android": "https://dc.lft.to/lastmile_qr_scan", "ios": "https://dc.lft.to/lastmile_qr_scan"}, "fusion_lon": 0.0, "lat": 38.9289815, "bike_id": "7818707732d8935a7ccb2f5d3d1dccbe", "type": "electric_bike", "is_reserved": 0, "lon": -77.23178083333333}, {"fusion_lat": 0.0, "name": "e2ff4869baf5c9d2f2cf30b65bc25c03", "is_disabled": 0, "rental_uris": {"android": "https://dc.lft.to/lastmile_qr_scan", "ios": "https://dc.lft.to/lastmile_qr_scan"}, "fusion_lon": 0.0, "lat": 38.91344133333333, "bike_id": "e2ff4869baf5c9d2f2cf30b65bc25c03", "type": "electric_scooter", "is_reserved": 0, "lon": -77.04264016666667}, {"fusion_lat": 0.0, "name": "fb45a9eb620dee295ac0d36174fd4bc4", "is_disabled": 0, "rental_uris": {"android": "https://dc.lft.to/lastmile_qr_scan", "ios": "https://dc.lft.to/lastmile_qr_scan"}, "fusion_lon": 0.0, "lat": 38.89791483333333, "bike_id": "fb45a9eb620dee295ac0d36174fd4bc4", "type": "electric_scooter", "is_reserved": 0, "lon": -77.01193816666667}, {"fusion_lat": 0.0, "name": "db65709021508f247956983ecbc70719", "is_disabled": 0, "rental_uris": {"android": "https://dc.lft.to/lastmile_qr_scan", "ios": "https://dc.lft.to/lastmile_qr_scan"}, "fusion_lon": 0.0, "lat": 38.892286666666664, "bike_id": "db65709021508f247956983ecbc70719", "type": "electric_scooter", "is_reserved": 0, "lon": -77.02583466666667}, {"fusion_lat": 0.0, "name": "87c8278f90aaeff25eb824f15be31012", "is_disabled": 0, "rental_uris": {"android": "https://dc.lft.to/lastmile_qr_scan", "ios": "https://dc.lft.to/lastmile_qr_scan"}, "fusion_lon": 0.0, "lat": 38.91321883333333, "bike_id": "87c8278f90aaeff25eb824f15be31012", "type": "electric_scooter", "is_reserved": 0, "lon": -77.021321}, {"fusion_lat": 0.0, "name": "651b277a1ac21a0b24347ff59659045d", "is_disabled": 0, "rental_uris": {"android": "https://dc.lft.to/lastmile_qr_scan", "ios": "https://dc.lft.to/lastmile_qr_scan"}, "fusion_lon": 0.0, "lat": 38.88330116666667, "bike_id": "651b277a1ac21a0b24347ff59659045d", "type": "electric_scooter", "is_reserved": 0, "lon": -77.016752}, {"fusion_lat": 0.0, "name": "e81c0edb36703062d2a3ff50e9a7d27e", "is_disabled": 0, "rental_uris": {"android": "https://dc.lft.to/lastmile_qr_scan", "ios": "https://dc.lft.to/lastmile_qr_scan"}, "fusion_lon": 0.0, "lat": 38.896071, "bike_id": "e81c0edb36703062d2a3ff50e9a7d27e", "type": "electric_scooter", "is_reserved": 0, "lon": -77.0092365}, {"fusion_lat": 0.0, "name": "5226aee2d5b1acdf49ff8b5b7dab6147", "is_disabled": 0, "rental_uris": {"android": "https://dc.lft.to/lastmile_qr_scan", "ios": "https://dc.lft.to/lastmile_qr_scan"}, "fusion_lon": 0.0, "lat": 38.907919666666665, "bike_id": "5226aee2d5b1acdf49ff8b5b7dab6147", "type": "electric_scooter", "is_reserved": 0, "lon": -77.03432066666667}, {"fusion_lat": 0.0, "name": "b8b1a3147059ad77ec37ddd21ef04083", "is_disabled": 0, "rental_uris": {"android": "https://dc.lft.to/lastmile_qr_scan", "ios": "https://dc.lft.to/lastmile_qr_scan"}, "fusion_lon": 0.0, "lat": 38.89627733333333, "bike_id": "b8b1a3147059ad77ec37ddd21ef04083", "type": "electric_scooter", "is_reserved": 0, "lon": -77.03199166666667}, {"fusion_lat": 0.0, "name": "0afb87deef3e439113decdacdbe98888", "is_disabled": 0, "rental_uris": {"android": "https://dc.lft.to/lastmile_qr_scan", "ios": "https://dc.lft.to/lastmile_qr_scan"}, "fusion_lon": 0.0, "lat": 38.88493, "bike_id": "0afb87deef3e439113decdacdbe98888", "type": "electric_scooter", "is_reserved": 0, "lon": -77.01084316666666}, {"fusion_lat": 0.0, "name": "6855f6fe9debe1fbb74b38f30c810977", "is_disabled": 0, "rental_uris": {"android": "https://dc.lft.to/lastmile_qr_scan", "ios": "https://dc.lft.to/lastmile_qr_scan"}, "fusion_lon": 0.0, "lat": 38.88469766666667, "bike_id": "6855f6fe9debe1fbb74b38f30c810977", "type": "electric_scooter", "is_reserved": 0, "lon": -77.01511533333333}, {"fusion_lat": 0.0, "name": "7a044833758d42f6c57286615df5c381", "is_disabled": 0, "rental_uris": {"android": "https://dc.lft.to/lastmile_qr_scan", "ios": "https://dc.lft.to/lastmile_qr_scan"}, "fusion_lon": 0.0, "lat": 38.9191095, "bike_id": "7a044833758d42f6c57286615df5c381", "type": "electric_scooter", "is_reserved": 0, "lon": -77.0246385}, {"fusion_lat": 0.0, "name": "352384d6946e908b16174d85d55dce5d", "is_disabled": 0, "rental_uris": {"android": "https://dc.lft.to/lastmile_qr_scan", "ios": "https://dc.lft.to/lastmile_qr_scan"}, "fusion_lon": 0.0, "lat": 38.905805, "bike_id": "352384d6946e908b16174d85d55dce5d", "type": "electric_scooter", "is_reserved": 0, "lon": -77.02201616666666}, {"fusion_lat": 0.0, "name": "beabebfa9922def6caa5fc91569ee467", "is_disabled": 0, "rental_uris": {"android": "https://dc.lft.to/lastmile_qr_scan", "ios": "https://dc.lft.to/lastmile_qr_scan"}, "fusion_lon": 0.0, "lat": 38.90556133333333, "bike_id": "beabebfa9922def6caa5fc91569ee467", "type": "electric_scooter", "is_reserved": 0, "lon": -77.04634033333333}, {"fusion_lat": 0.0, "name": "a91c063887a852cd0b62f606194c80bf", "is_disabled": 0, "rental_uris": {"android": "https://dc.lft.to/lastmile_qr_scan", "ios": "https://dc.lft.to/lastmile_qr_scan"}, "fusion_lon": 0.0, "lat": 38.92374733333333, "bike_id": "a91c063887a852cd0b62f606194c80bf", "type": "electric_scooter", "is_reserved": 0, "lon": -77.02133016666667}, {"fusion_lat": 0.0, "name": "57da1670e010e2b7c48d19fb201941d4", "is_disabled": 0, "rental_uris": {"android": "https://dc.lft.to/lastmile_qr_scan", "ios": "https://dc.lft.to/lastmile_qr_scan"}, "fusion_lon": 0.0, "lat": 38.907768833333336, "bike_id": "57da1670e010e2b7c48d19fb201941d4", "type": "electric_scooter", "is_reserved": 0, "lon": -77.03849916666667}, {"fusion_lat": 0.0, "name": "173dc62c75f40d09e2166cf212f58310", "is_disabled": 0, "rental_uris": {"android": "https://dc.lft.to/lastmile_qr_scan", "ios": "https://dc.lft.to/lastmile_qr_scan"}, "fusion_lon": 0.0, "lat": 38.924163166666666, "bike_id": "173dc62c75f40d09e2166cf212f58310", "type": "electric_scooter", "is_reserved": 0, "lon": -76.99623066666666}, {"fusion_lat": 0.0, "name": "26cd1baa377d5dcb3804e927b4930fb0", "is_disabled": 0, "rental_uris": {"android": "https://dc.lft.to/lastmile_qr_scan", "ios": "https://dc.lft.to/lastmile_qr_scan"}, "fusion_lon": 0.0, "lat": 38.89842, "bike_id": "26cd1baa377d5dcb3804e927b4930fb0", "type": "electric_scooter", "is_reserved": 0, "lon": -77.0133845}, {"fusion_lat": 0.0, "name": "ed2794ffa0916d974063fd0cb89589fd", "is_disabled": 0, "rental_uris": {"android": "https://dc.lft.to/lastmile_qr_scan", "ios": "https://dc.lft.to/lastmile_qr_scan"}, "fusion_lon": 0.0, "lat": 38.8842715, "bike_id": "ed2794ffa0916d974063fd0cb89589fd", "type": "electric_scooter", "is_reserved": 0, "lon": -76.95745}, {"fusion_lat": 0.0, "name": "a79745ece8ffbf6b1a6c1166e3caa12f", "is_disabled": 0, "rental_uris": {"android": "https://dc.lft.to/lastmile_qr_scan", "ios": "https://dc.lft.to/lastmile_qr_scan"}, "fusion_lon": 0.0, "lat": 38.91620416666667, "bike_id": "a79745ece8ffbf6b1a6c1166e3caa12f", "type": "electric_scooter", "is_reserved": 0, "lon": -77.02298583333334}, {"fusion_lat": 0.0, "name": "f5604a56734fd4670509115bb82f8d2f", "is_disabled": 0, "rental_uris": {"android": "https://dc.lft.to/lastmile_qr_scan", "ios": "https://dc.lft.to/lastmile_qr_scan"}, "fusion_lon": 0.0, "lat": 38.92518233333333, "bike_id": "f5604a56734fd4670509115bb82f8d2f", "type": "electric_scooter", "is_reserved": 0, "lon": -77.022825}, {"fusion_lat": 0.0, "name": "280a402a86d04a0821030382533da0f7", "is_disabled": 0, "rental_uris": {"android": "https://dc.lft.to/lastmile_qr_scan", "ios": "https://dc.lft.to/lastmile_qr_scan"}, "fusion_lon": 0.0, "lat": 38.935827, "bike_id": "280a402a86d04a0821030382533da0f7", "type": "electric_scooter", "is_reserved": 0, "lon": -77.02840983333333}, {"fusion_lat": 0.0, "name": "6142e28ffafcaff184ed773c418ed02c", "is_disabled": 0, "rental_uris": {"android": "https://dc.lft.to/lastmile_qr_scan", "ios": "https://dc.lft.to/lastmile_qr_scan"}, "fusion_lon": 0.0, "lat": 38.985475666666666, "bike_id": "6142e28ffafcaff184ed773c418ed02c", "type": "electric_bike", "is_reserved": 0, "lon": -77.00402983333333}, {"fusion_lat": 0.0, "name": "ec55e1c1927a0b2ea8071ed5a7287039", "is_disabled": 0, "rental_uris": {"android": "https://dc.lft.to/lastmile_qr_scan", "ios": "https://dc.lft.to/lastmile_qr_scan"}, "fusion_lon": 0.0, "lat": 38.893388, "bike_id": "ec55e1c1927a0b2ea8071ed5a7287039", "type": "electric_scooter", "is_reserved": 0, "lon": -77.04675133333333}, {"fusion_lat": 0.0, "name": "8d3aedea43a431b8c70ed1a685896319", "is_disabled": 0, "rental_uris": {"android": "https://dc.lft.to/lastmile_qr_scan", "ios": "https://dc.lft.to/lastmile_qr_scan"}, "fusion_lon": 0.0, "lat": 38.952205666666664, "bike_id": "8d3aedea43a431b8c70ed1a685896319", "type": "electric_scooter", "is_reserved": 0, "lon": -77.082158}, {"fusion_lat": 0.0, "name": "9c0d8d27cd98bf74897aebbf67a3fa8b", "is_disabled": 0, "rental_uris": {"android": "https://dc.lft.to/lastmile_qr_scan", "ios": "https://dc.lft.to/lastmile_qr_scan"}, "fusion_lon": 0.0, "lat": 38.85425133333333, "bike_id": "9c0d8d27cd98bf74897aebbf67a3fa8b", "type": "electric_bike", "is_reserved": 0, "lon": -77.1207635}, {"fusion_lat": 0.0, "name": "522ccb86c6228e45e944a9c4449e8f59", "is_disabled": 0, "rental_uris": {"android": "https://dc.lft.to/lastmile_qr_scan", "ios": "https://dc.lft.to/lastmile_qr_scan"}, "fusion_lon": 0.0, "lat": 38.920841833333334, "bike_id": "522ccb86c6228e45e944a9c4449e8f59", "type": "electric_scooter", "is_reserved": 0, "lon": -76.994512}, {"fusion_lat": 0.0, "name": "af337bc7c65c5f7257b9b10975f90da9", "is_disabled": 0, "rental_uris": {"android": "https://dc.lft.to/lastmile_qr_scan", "ios": "https://dc.lft.to/lastmile_qr_scan"}, "fusion_lon": 0.0, "lat": 38.90136016666666, "bike_id": "af337bc7c65c5f7257b9b10975f90da9", "type": "electric_scooter", "is_reserved": 0, "lon": -77.04468783333333}, {"fusion_lat": 0.0, "name": "58ff4a5b83a21f0a5d57dad164066181", "is_disabled": 0, "rental_uris": {"android": "https://dc.lft.to/lastmile_qr_scan", "ios": "https://dc.lft.to/lastmile_qr_scan"}, "fusion_lon": 0.0, "lat": 38.89725633333333, "bike_id": "58ff4a5b83a21f0a5d57dad164066181", "type": "electric_scooter", "is_reserved": 0, "lon": -77.04630433333334}, {"fusion_lat": 0.0, "name": "784748aa49c5f434f1807d38c2be36c5", "is_disabled": 0, "rental_uris": {"android": "https://dc.lft.to/lastmile_qr_scan", "ios": "https://dc.lft.to/lastmile_qr_scan"}, "fusion_lon": 0.0, "lat": 38.92002883333333, "bike_id": "784748aa49c5f434f1807d38c2be36c5", "type": "electric_scooter", "is_reserved": 0, "lon": -77.07190816666666}, {"fusion_lat": 0.0, "name": "ade19ddb820f6144d27714b49c133364", "is_disabled": 0, "rental_uris": {"android": "https://dc.lft.to/lastmile_qr_scan", "ios": "https://dc.lft.to/lastmile_qr_scan"}, "fusion_lon": 0.0, "lat": 38.887666333333335, "bike_id": "ade19ddb820f6144d27714b49c133364", "type": "electric_scooter", "is_reserved": 0, "lon": -77.03304016666667}, {"fusion_lat": 0.0, "name": "6aee7b444b4d22cd5e2235f1c9adc031", "is_disabled": 0, "rental_uris": {"android": "https://dc.lft.to/lastmile_qr_scan", "ios": "https://dc.lft.to/lastmile_qr_scan"}, "fusion_lon": 0.0, "lat": 38.878493166666665, "bike_id": "6aee7b444b4d22cd5e2235f1c9adc031", "type": "electric_bike", "is_reserved": 0, "lon": -77.030253}, {"fusion_lat": 0.0, "name": "9d8819ef3a1e972aaafe050e6fc12b69", "is_disabled": 0, "rental_uris": {"android": "https://dc.lft.to/lastmile_qr_scan", "ios": "https://dc.lft.to/lastmile_qr_scan"}, "fusion_lon": 0.0, "lat": 38.942960166666666, "bike_id": "9d8819ef3a1e972aaafe050e6fc12b69", "type": "electric_scooter", "is_reserved": 0, "lon": -77.021695}, {"fusion_lat": 0.0, "name": "793ec72766b32c68bfa68042510232c6", "is_disabled": 0, "rental_uris": {"android": "https://dc.lft.to/lastmile_qr_scan", "ios": "https://dc.lft.to/lastmile_qr_scan"}, "fusion_lon": 0.0, "lat": 38.900407333333334, "bike_id": "793ec72766b32c68bfa68042510232c6", "type": "electric_scooter", "is_reserved": 0, "lon": -77.03527966666667}, {"fusion_lat": 0.0, "name": "f4c50b1bee0e39e3afcd688f52704696", "is_disabled": 0, "rental_uris": {"android": "https://dc.lft.to/lastmile_qr_scan", "ios": "https://dc.lft.to/lastmile_qr_scan"}, "fusion_lon": 0.0, "lat": 38.883034333333335, "bike_id": "f4c50b1bee0e39e3afcd688f52704696", "type": "electric_scooter", "is_reserved": 0, "lon": -76.948553}, {"fusion_lat": 0.0, "name": "f3d255caf4fc2dc52ae71edaf8d5d5a0", "is_disabled": 0, "rental_uris": {"android": "https://dc.lft.to/lastmile_qr_scan", "ios": "https://dc.lft.to/lastmile_qr_scan"}, "fusion_lon": 0.0, "lat": 38.89621833333333, "bike_id": "f3d255caf4fc2dc52ae71edaf8d5d5a0", "type": "electric_scooter", "is_reserved": 0, "lon": -77.009202}, {"fusion_lat": 0.0, "name": "b379c15707b490d643a72a69bc6c8a96", "is_disabled": 0, "rental_uris": {"android": "https://dc.lft.to/lastmile_qr_scan", "ios": "https://dc.lft.to/lastmile_qr_scan"}, "fusion_lon": 0.0, "lat": 38.92746666666667, "bike_id": "b379c15707b490d643a72a69bc6c8a96", "type": "electric_scooter", "is_reserved": 0, "lon": -77.024316}, {"fusion_lat": 0.0, "name": "01a19c56b47b3591f7af137a0cfecc84", "is_disabled": 0, "rental_uris": {"android": "https://dc.lft.to/lastmile_qr_scan", "ios": "https://dc.lft.to/lastmile_qr_scan"}, "fusion_lon": 0.0, "lat": 38.899447333333335, "bike_id": "01a19c56b47b3591f7af137a0cfecc84", "type": "electric_scooter", "is_reserved": 0, "lon": -77.00361633333333}, {"fusion_lat": 0.0, "name": "cadc967de5197b692b6d0b5a54422a80", "is_disabled": 0, "rental_uris": {"android": "https://dc.lft.to/lastmile_qr_scan", "ios": "https://dc.lft.to/lastmile_qr_scan"}, "fusion_lon": 0.0, "lat": 39.052547833333335, "bike_id": "cadc967de5197b692b6d0b5a54422a80", "type": "electric_bike", "is_reserved": 0, "lon": -77.080665}, {"fusion_lat": 0.0, "name": "0e16e967eaa34066dd006987e37b1d1e", "is_disabled": 0, "rental_uris": {"android": "https://dc.lft.to/lastmile_qr_scan", "ios": "https://dc.lft.to/lastmile_qr_scan"}, "fusion_lon": 0.0, "lat": 38.883302, "bike_id": "0e16e967eaa34066dd006987e37b1d1e", "type": "electric_scooter", "is_reserved": 0, "lon": -77.01767683333334}, {"fusion_lat": 0.0, "name": "3a78e8c452d2c0ecf58fd19b98a23daf", "is_disabled": 0, "rental_uris": {"android": "https://dc.lft.to/lastmile_qr_scan", "ios": "https://dc.lft.to/lastmile_qr_scan"}, "fusion_lon": 0.0, "lat": 38.892282333333334, "bike_id": "3a78e8c452d2c0ecf58fd19b98a23daf", "type": "electric_scooter", "is_reserved": 0, "lon": -77.02408783333334}, {"fusion_lat": 0.0, "name": "caa578173f2dfd8737de1eb2e5edcbc1", "is_disabled": 0, "rental_uris": {"android": "https://dc.lft.to/lastmile_qr_scan", "ios": "https://dc.lft.to/lastmile_qr_scan"}, "fusion_lon": 0.0, "lat": 38.90813883333333, "bike_id": "caa578173f2dfd8737de1eb2e5edcbc1", "type": "electric_scooter", "is_reserved": 0, "lon": -77.03430716666666}, {"fusion_lat": 0.0, "name": "049d85cb8ea125db70a507c166e2ba4d", "is_disabled": 0, "rental_uris": {"android": "https://dc.lft.to/lastmile_qr_scan", "ios": "https://dc.lft.to/lastmile_qr_scan"}, "fusion_lon": 0.0, "lat": 38.91256683333334, "bike_id": "049d85cb8ea125db70a507c166e2ba4d", "type": "electric_scooter", "is_reserved": 0, "lon": -77.00151883333334}, {"fusion_lat": 0.0, "name": "97c6426e450cfa0247302e295deb4844", "is_disabled": 0, "rental_uris": {"android": "https://dc.lft.to/lastmile_qr_scan", "ios": "https://dc.lft.to/lastmile_qr_scan"}, "fusion_lon": 0.0, "lat": 38.93520983333333, "bike_id": "97c6426e450cfa0247302e295deb4844", "type": "electric_scooter", "is_reserved": 0, "lon": -77.07260016666666}, {"fusion_lat": 0.0, "name": "26eb40f31acd851dc302d5a7c67ac154", "is_disabled": 0, "rental_uris": {"android": "https://dc.lft.to/lastmile_qr_scan", "ios": "https://dc.lft.to/lastmile_qr_scan"}, "fusion_lon": 0.0, "lat": 38.89875516666667, "bike_id": "26eb40f31acd851dc302d5a7c67ac154", "type": "electric_scooter", "is_reserved": 0, "lon": -76.9318455}, {"fusion_lat": 0.0, "name": "d0cbb753559ddce12270f87b6ff24bf7", "is_disabled": 0, "rental_uris": {"android": "https://dc.lft.to/lastmile_qr_scan", "ios": "https://dc.lft.to/lastmile_qr_scan"}, "fusion_lon": 0.0, "lat": 38.87179416666667, "bike_id": "d0cbb753559ddce12270f87b6ff24bf7", "type": "electric_scooter", "is_reserved": 0, "lon": -77.00614516666667}, {"fusion_lat": 0.0, "name": "fc0d163013c53280a47dfa3ad531b48e", "is_disabled": 0, "rental_uris": {"android": "https://dc.lft.to/lastmile_qr_scan", "ios": "https://dc.lft.to/lastmile_qr_scan"}, "fusion_lon": 0.0, "lat": 38.86243733333333, "bike_id": "fc0d163013c53280a47dfa3ad531b48e", "type": "electric_scooter", "is_reserved": 0, "lon": -76.995002}, {"fusion_lat": 0.0, "name": "7289462648425d548aadea8c3313683c", "is_disabled": 0, "rental_uris": {"android": "https://dc.lft.to/lastmile_qr_scan", "ios": "https://dc.lft.to/lastmile_qr_scan"}, "fusion_lon": 0.0, "lat": 38.883299666666666, "bike_id": "7289462648425d548aadea8c3313683c", "type": "electric_scooter", "is_reserved": 0, "lon": -77.01715}, {"fusion_lat": 0.0, "name": "cca31766a05bc7af3dae2afdcbb8ec2a", "is_disabled": 0, "rental_uris": {"android": "https://dc.lft.to/lastmile_qr_scan", "ios": "https://dc.lft.to/lastmile_qr_scan"}, "fusion_lon": 0.0, "lat": 38.902694833333335, "bike_id": "cca31766a05bc7af3dae2afdcbb8ec2a", "type": "electric_scooter", "is_reserved": 0, "lon": -77.01962466666667}, {"fusion_lat": 0.0, "name": "ec2597ecb4241086d63cad57b895ef70", "is_disabled": 0, "rental_uris": {"android": "https://dc.lft.to/lastmile_qr_scan", "ios": "https://dc.lft.to/lastmile_qr_scan"}, "fusion_lon": 0.0, "lat": 38.92841133333334, "bike_id": "ec2597ecb4241086d63cad57b895ef70", "type": "electric_scooter", "is_reserved": 0, "lon": -77.03262883333333}, {"fusion_lat": 0.0, "name": "1650a33c5b877988d473e4b12d0217b2", "is_disabled": 0, "rental_uris": {"android": "https://dc.lft.to/lastmile_qr_scan", "ios": "https://dc.lft.to/lastmile_qr_scan"}, "fusion_lon": 0.0, "lat": 38.9224975, "bike_id": "1650a33c5b877988d473e4b12d0217b2", "type": "electric_scooter", "is_reserved": 0, "lon": -77.04213716666666}, {"fusion_lat": 0.0, "name": "ab34c04c0ed0c5795adb8663256d72ba", "is_disabled": 0, "rental_uris": {"android": "https://dc.lft.to/lastmile_qr_scan", "ios": "https://dc.lft.to/lastmile_qr_scan"}, "fusion_lon": 0.0, "lat": 38.90394383333334, "bike_id": "ab34c04c0ed0c5795adb8663256d72ba", "type": "electric_scooter", "is_reserved": 0, "lon": -77.03832}, {"fusion_lat": 0.0, "name": "32b47b9a759b8205871179cd700d5f20", "is_disabled": 0, "rental_uris": {"android": "https://dc.lft.to/lastmile_qr_scan", "ios": "https://dc.lft.to/lastmile_qr_scan"}, "fusion_lon": 0.0, "lat": 38.92418283333333, "bike_id": "32b47b9a759b8205871179cd700d5f20", "type": "electric_scooter", "is_reserved": 0, "lon": -77.05062816666667}, {"fusion_lat": 0.0, "name": "00f7de8ebd56c33864dc5ec1f399655c", "is_disabled": 0, "rental_uris": {"android": "https://dc.lft.to/lastmile_qr_scan", "ios": "https://dc.lft.to/lastmile_qr_scan"}, "fusion_lon": 0.0, "lat": 38.900028166666665, "bike_id": "00f7de8ebd56c33864dc5ec1f399655c", "type": "electric_scooter", "is_reserved": 0, "lon": -76.93160866666666}, {"fusion_lat": 0.0, "name": "42caa6b872ac1541a6feb64bc698ccae", "is_disabled": 0, "rental_uris": {"android": "https://dc.lft.to/lastmile_qr_scan", "ios": "https://dc.lft.to/lastmile_qr_scan"}, "fusion_lon": 0.0, "lat": 38.935326, "bike_id": "42caa6b872ac1541a6feb64bc698ccae", "type": "electric_scooter", "is_reserved": 0, "lon": -77.03650616666667}, {"fusion_lat": 0.0, "name": "3ef8d9e7c8f8bc873ccc30ddd40531c3", "is_disabled": 0, "rental_uris": {"android": "https://dc.lft.to/lastmile_qr_scan", "ios": "https://dc.lft.to/lastmile_qr_scan"}, "fusion_lon": 0.0, "lat": 38.853132333333335, "bike_id": "3ef8d9e7c8f8bc873ccc30ddd40531c3", "type": "electric_bike", "is_reserved": 0, "lon": -77.0460785}, {"fusion_lat": 0.0, "name": "00b4b9b40d73f58eba8e3815a2a1ff51", "is_disabled": 0, "rental_uris": {"android": "https://dc.lft.to/lastmile_qr_scan", "ios": "https://dc.lft.to/lastmile_qr_scan"}, "fusion_lon": 0.0, "lat": 38.90418016666667, "bike_id": "00b4b9b40d73f58eba8e3815a2a1ff51", "type": "electric_scooter", "is_reserved": 0, "lon": -77.0384825}, {"fusion_lat": 0.0, "name": "4336e2b94beac8d9baded0cb15e0b1b0", "is_disabled": 0, "rental_uris": {"android": "https://dc.lft.to/lastmile_qr_scan", "ios": "https://dc.lft.to/lastmile_qr_scan"}, "fusion_lon": 0.0, "lat": 38.8428305, "bike_id": "4336e2b94beac8d9baded0cb15e0b1b0", "type": "electric_bike", "is_reserved": 0, "lon": -77.04499666666666}, {"fusion_lat": 0.0, "name": "aebd4d2941cbde311a9b10a16b401ce0", "is_disabled": 0, "rental_uris": {"android": "https://dc.lft.to/lastmile_qr_scan", "ios": "https://dc.lft.to/lastmile_qr_scan"}, "fusion_lon": 0.0, "lat": 38.89996166666667, "bike_id": "aebd4d2941cbde311a9b10a16b401ce0", "type": "electric_scooter", "is_reserved": 0, "lon": -77.00684483333333}, {"fusion_lat": 0.0, "name": "593dcd6a3a9ee19c33a7be59d527c709", "is_disabled": 0, "rental_uris": {"android": "https://dc.lft.to/lastmile_qr_scan", "ios": "https://dc.lft.to/lastmile_qr_scan"}, "fusion_lon": 0.0, "lat": 38.897401333333335, "bike_id": "593dcd6a3a9ee19c33a7be59d527c709", "type": "electric_scooter", "is_reserved": 0, "lon": -77.04365883333334}, {"fusion_lat": 0.0, "name": "870cf111594f06c5e274a1149e7cbd82", "is_disabled": 0, "rental_uris": {"android": "https://dc.lft.to/lastmile_qr_scan", "ios": "https://dc.lft.to/lastmile_qr_scan"}, "fusion_lon": 0.0, "lat": 38.90893583333333, "bike_id": "870cf111594f06c5e274a1149e7cbd82", "type": "electric_scooter", "is_reserved": 0, "lon": -76.99861066666666}, {"fusion_lat": 0.0, "name": "cd6de2f1bb134d87a3836b50062ba29e", "is_disabled": 0, "rental_uris": {"android": "https://dc.lft.to/lastmile_qr_scan", "ios": "https://dc.lft.to/lastmile_qr_scan"}, "fusion_lon": 0.0, "lat": 38.89226133333333, "bike_id": "cd6de2f1bb134d87a3836b50062ba29e", "type": "electric_scooter", "is_reserved": 0, "lon": -77.02407033333333}, {"fusion_lat": 0.0, "name": "840ce703b243d7ed628a279b5497d303", "is_disabled": 0, "rental_uris": {"android": "https://dc.lft.to/lastmile_qr_scan", "ios": "https://dc.lft.to/lastmile_qr_scan"}, "fusion_lon": 0.0, "lat": 38.9112005, "bike_id": "840ce703b243d7ed628a279b5497d303", "type": "electric_scooter", "is_reserved": 0, "lon": -76.99765083333334}, {"fusion_lat": 0.0, "name": "fdeecf623e13b3022abca51acfbd08c8", "is_disabled": 0, "rental_uris": {"android": "https://dc.lft.to/lastmile_qr_scan", "ios": "https://dc.lft.to/lastmile_qr_scan"}, "fusion_lon": 0.0, "lat": 38.90737383333333, "bike_id": "fdeecf623e13b3022abca51acfbd08c8", "type": "electric_scooter", "is_reserved": 0, "lon": -77.0385595}, {"fusion_lat": 0.0, "name": "01966b5c0ad44dba1b65546356d11d10", "is_disabled": 0, "rental_uris": {"android": "https://dc.lft.to/lastmile_qr_scan", "ios": "https://dc.lft.to/lastmile_qr_scan"}, "fusion_lon": 0.0, "lat": 38.90521733333333, "bike_id": "01966b5c0ad44dba1b65546356d11d10", "type": "electric_scooter", "is_reserved": 0, "lon": -77.068771}, {"fusion_lat": 0.0, "name": "d65a0af896f9842d647e8f84c0320d30", "is_disabled": 0, "rental_uris": {"android": "https://dc.lft.to/lastmile_qr_scan", "ios": "https://dc.lft.to/lastmile_qr_scan"}, "fusion_lon": 0.0, "lat": 38.93223866666666, "bike_id": "d65a0af896f9842d647e8f84c0320d30", "type": "electric_scooter", "is_reserved": 0, "lon": -77.03519216666666}, {"fusion_lat": 0.0, "name": "da28348f5c37d3b31960a9ff5f414cf3", "is_disabled": 0, "rental_uris": {"android": "https://dc.lft.to/lastmile_qr_scan", "ios": "https://dc.lft.to/lastmile_qr_scan"}, "fusion_lon": 0.0, "lat": 38.886260166666666, "bike_id": "da28348f5c37d3b31960a9ff5f414cf3", "type": "electric_scooter", "is_reserved": 0, "lon": -77.0194315}, {"fusion_lat": 0.0, "name": "dab76338eea7f455ec254d309b422da5", "is_disabled": 0, "rental_uris": {"android": "https://dc.lft.to/lastmile_qr_scan", "ios": "https://dc.lft.to/lastmile_qr_scan"}, "fusion_lon": 0.0, "lat": 38.9183235, "bike_id": "dab76338eea7f455ec254d309b422da5", "type": "electric_scooter", "is_reserved": 0, "lon": -77.03188933333334}, {"fusion_lat": 0.0, "name": "fbad3e2057226574915f4db78d39bb7f", "is_disabled": 0, "rental_uris": {"android": "https://dc.lft.to/lastmile_qr_scan", "ios": "https://dc.lft.to/lastmile_qr_scan"}, "fusion_lon": 0.0, "lat": 38.89224083333333, "bike_id": "fbad3e2057226574915f4db78d39bb7f", "type": "electric_scooter", "is_reserved": 0, "lon": -77.03211433333334}, {"fusion_lat": 0.0, "name": "3338403a7b8633581f065a32f0659ac1", "is_disabled": 0, "rental_uris": {"android": "https://dc.lft.to/lastmile_qr_scan", "ios": "https://dc.lft.to/lastmile_qr_scan"}, "fusion_lon": 0.0, "lat": 38.885594166666664, "bike_id": "3338403a7b8633581f065a32f0659ac1", "type": "electric_scooter", "is_reserved": 0, "lon": -76.97718366666666}, {"fusion_lat": 0.0, "name": "d33ddf367d0b0428474628bf1a1d3e54", "is_disabled": 0, "rental_uris": {"android": "https://dc.lft.to/lastmile_qr_scan", "ios": "https://dc.lft.to/lastmile_qr_scan"}, "fusion_lon": 0.0, "lat": 38.92313816666667, "bike_id": "d33ddf367d0b0428474628bf1a1d3e54", "type": "electric_scooter", "is_reserved": 0, "lon": -77.02905316666667}, {"fusion_lat": 0.0, "name": "b7b7d1a4d1afb5e2d1d9cc7881c41b1e", "is_disabled": 0, "rental_uris": {"android": "https://dc.lft.to/lastmile_qr_scan", "ios": "https://dc.lft.to/lastmile_qr_scan"}, "fusion_lon": 0.0, "lat": 38.90068616666667, "bike_id": "b7b7d1a4d1afb5e2d1d9cc7881c41b1e", "type": "electric_scooter", "is_reserved": 0, "lon": -77.05423433333333}, {"fusion_lat": 0.0, "name": "a76a41c366451adf8efe35477b332553", "is_disabled": 0, "rental_uris": {"android": "https://dc.lft.to/lastmile_qr_scan", "ios": "https://dc.lft.to/lastmile_qr_scan"}, "fusion_lon": 0.0, "lat": 38.9165925, "bike_id": "a76a41c366451adf8efe35477b332553", "type": "electric_scooter", "is_reserved": 0, "lon": -77.02818583333334}, {"fusion_lat": 0.0, "name": "f65e99eb9909e37afb9276d539568661", "is_disabled": 0, "rental_uris": {"android": "https://dc.lft.to/lastmile_qr_scan", "ios": "https://dc.lft.to/lastmile_qr_scan"}, "fusion_lon": 0.0, "lat": 38.919254, "bike_id": "f65e99eb9909e37afb9276d539568661", "type": "electric_scooter", "is_reserved": 0, "lon": -77.00969466666666}, {"fusion_lat": 0.0, "name": "b3018613f75345103747ee9f3fde1640", "is_disabled": 0, "rental_uris": {"android": "https://dc.lft.to/lastmile_qr_scan", "ios": "https://dc.lft.to/lastmile_qr_scan"}, "fusion_lon": 0.0, "lat": 38.8997795, "bike_id": "b3018613f75345103747ee9f3fde1640", "type": "electric_scooter", "is_reserved": 0, "lon": -77.00693516666666}, {"fusion_lat": 0.0, "name": "f724793108e3099577ae2770ba033f38", "is_disabled": 0, "rental_uris": {"android": "https://dc.lft.to/lastmile_qr_scan", "ios": "https://dc.lft.to/lastmile_qr_scan"}, "fusion_lon": 0.0, "lat": 38.886102, "bike_id": "f724793108e3099577ae2770ba033f38", "type": "electric_scooter", "is_reserved": 0, "lon": -77.01249083333333}, {"fusion_lat": 0.0, "name": "a5bcc23d812bcee201d874dacf8b031f", "is_disabled": 0, "rental_uris": {"android": "https://dc.lft.to/lastmile_qr_scan", "ios": "https://dc.lft.to/lastmile_qr_scan"}, "fusion_lon": 0.0, "lat": 38.89219666666666, "bike_id": "a5bcc23d812bcee201d874dacf8b031f", "type": "electric_scooter", "is_reserved": 0, "lon": -77.04122766666667}, {"fusion_lat": 0.0, "name": "c4f6363424a960cd7dab660ac8fac422", "is_disabled": 0, "rental_uris": {"android": "https://dc.lft.to/lastmile_qr_scan", "ios": "https://dc.lft.to/lastmile_qr_scan"}, "fusion_lon": 0.0, "lat": 38.902154833333334, "bike_id": "c4f6363424a960cd7dab660ac8fac422", "type": "electric_scooter", "is_reserved": 0, "lon": -76.99504916666666}, {"fusion_lat": 0.0, "name": "98dafc6df4ab7744384e9473e9335293", "is_disabled": 0, "rental_uris": {"android": "https://dc.lft.to/lastmile_qr_scan", "ios": "https://dc.lft.to/lastmile_qr_scan"}, "fusion_lon": 0.0, "lat": 38.903747833333334, "bike_id": "98dafc6df4ab7744384e9473e9335293", "type": "electric_scooter", "is_reserved": 0, "lon": -76.995635}, {"fusion_lat": 0.0, "name": "ede2b3246daea0fd111dbccdc7bbba7e", "is_disabled": 0, "rental_uris": {"android": "https://dc.lft.to/lastmile_qr_scan", "ios": "https://dc.lft.to/lastmile_qr_scan"}, "fusion_lon": 0.0, "lat": 38.91568483333333, "bike_id": "ede2b3246daea0fd111dbccdc7bbba7e", "type": "electric_scooter", "is_reserved": 0, "lon": -77.03150783333334}, {"fusion_lat": 0.0, "name": "7ed7f464af1bfa565cd27c3365252e65", "is_disabled": 0, "rental_uris": {"android": "https://dc.lft.to/lastmile_qr_scan", "ios": "https://dc.lft.to/lastmile_qr_scan"}, "fusion_lon": 0.0, "lat": 38.92500116666667, "bike_id": "7ed7f464af1bfa565cd27c3365252e65", "type": "electric_scooter", "is_reserved": 0, "lon": -77.0510825}, {"fusion_lat": 0.0, "name": "63c1108702e2d1941967d8f75c2fc664", "is_disabled": 0, "rental_uris": {"android": "https://dc.lft.to/lastmile_qr_scan", "ios": "https://dc.lft.to/lastmile_qr_scan"}, "fusion_lon": 0.0, "lat": 38.93821, "bike_id": "63c1108702e2d1941967d8f75c2fc664", "type": "electric_scooter", "is_reserved": 0, "lon": -77.06020033333333}, {"fusion_lat": 0.0, "name": "1bf07120d151de5186edac45b6fa2352", "is_disabled": 0, "rental_uris": {"android": "https://dc.lft.to/lastmile_qr_scan", "ios": "https://dc.lft.to/lastmile_qr_scan"}, "fusion_lon": 0.0, "lat": 38.91932366666666, "bike_id": "1bf07120d151de5186edac45b6fa2352", "type": "electric_scooter", "is_reserved": 0, "lon": -77.02504933333333}, {"fusion_lat": 0.0, "name": "067df1bbc709981c3781a954157e4f31", "is_disabled": 0, "rental_uris": {"android": "https://dc.lft.to/lastmile_qr_scan", "ios": "https://dc.lft.to/lastmile_qr_scan"}, "fusion_lon": 0.0, "lat": 38.907754, "bike_id": "067df1bbc709981c3781a954157e4f31", "type": "electric_scooter", "is_reserved": 0, "lon": -77.03860033333333}, {"fusion_lat": 0.0, "name": "bd365c6dd22883a9e5f16a6a955f3b9f", "is_disabled": 0, "rental_uris": {"android": "https://dc.lft.to/lastmile_qr_scan", "ios": "https://dc.lft.to/lastmile_qr_scan"}, "fusion_lon": 0.0, "lat": 38.93397483333333, "bike_id": "bd365c6dd22883a9e5f16a6a955f3b9f", "type": "electric_scooter", "is_reserved": 0, "lon": -77.057677}, {"fusion_lat": 0.0, "name": "97658bc8fa441fdd0db6a94217717ecf", "is_disabled": 0, "rental_uris": {"android": "https://dc.lft.to/lastmile_qr_scan", "ios": "https://dc.lft.to/lastmile_qr_scan"}, "fusion_lon": 0.0, "lat": 38.865158, "bike_id": "97658bc8fa441fdd0db6a94217717ecf", "type": "electric_bike", "is_reserved": 0, "lon": -77.12936533333334}, {"fusion_lat": 0.0, "name": "b60bced2c579385a28b8ffcd73c9c790", "is_disabled": 0, "rental_uris": {"android": "https://dc.lft.to/lastmile_qr_scan", "ios": "https://dc.lft.to/lastmile_qr_scan"}, "fusion_lon": 0.0, "lat": 38.928754, "bike_id": "b60bced2c579385a28b8ffcd73c9c790", "type": "electric_scooter", "is_reserved": 0, "lon": -77.03224266666666}, {"fusion_lat": 0.0, "name": "b607e3538493172971c72103bedf6e19", "is_disabled": 0, "rental_uris": {"android": "https://dc.lft.to/lastmile_qr_scan", "ios": "https://dc.lft.to/lastmile_qr_scan"}, "fusion_lon": 0.0, "lat": 38.88318533333333, "bike_id": "b607e3538493172971c72103bedf6e19", "type": "electric_scooter", "is_reserved": 0, "lon": -77.0134855}, {"fusion_lat": 0.0, "name": "bb76eded3ce319e87302d2b82454366e", "is_disabled": 0, "rental_uris": {"android": "https://dc.lft.to/lastmile_qr_scan", "ios": "https://dc.lft.to/lastmile_qr_scan"}, "fusion_lon": 0.0, "lat": 38.907641, "bike_id": "bb76eded3ce319e87302d2b82454366e", "type": "electric_scooter", "is_reserved": 0, "lon": -77.06276966666667}, {"fusion_lat": 0.0, "name": "aef71e5485948ab3902b4fc8d94f2760", "is_disabled": 0, "rental_uris": {"android": "https://dc.lft.to/lastmile_qr_scan", "ios": "https://dc.lft.to/lastmile_qr_scan"}, "fusion_lon": 0.0, "lat": 38.91805883333333, "bike_id": "aef71e5485948ab3902b4fc8d94f2760", "type": "electric_scooter", "is_reserved": 0, "lon": -77.03456333333334}, {"fusion_lat": 0.0, "name": "56ca7f84504a49bbb38303296f64dff3", "is_disabled": 0, "rental_uris": {"android": "https://dc.lft.to/lastmile_qr_scan", "ios": "https://dc.lft.to/lastmile_qr_scan"}, "fusion_lon": 0.0, "lat": 38.918593666666666, "bike_id": "56ca7f84504a49bbb38303296f64dff3", "type": "electric_scooter", "is_reserved": 0, "lon": -77.03508583333333}, {"fusion_lat": 0.0, "name": "9853cfb2af72e5ae29c65122bbaf382d", "is_disabled": 0, "rental_uris": {"android": "https://dc.lft.to/lastmile_qr_scan", "ios": "https://dc.lft.to/lastmile_qr_scan"}, "fusion_lon": 0.0, "lat": 38.89521166666667, "bike_id": "9853cfb2af72e5ae29c65122bbaf382d", "type": "electric_scooter", "is_reserved": 0, "lon": -77.02682533333333}, {"fusion_lat": 0.0, "name": "c951111895da842b3610aa8dbe43cfc0", "is_disabled": 0, "rental_uris": {"android": "https://dc.lft.to/lastmile_qr_scan", "ios": "https://dc.lft.to/lastmile_qr_scan"}, "fusion_lon": 0.0, "lat": 38.9097835, "bike_id": "c951111895da842b3610aa8dbe43cfc0", "type": "electric_scooter", "is_reserved": 0, "lon": -77.048722}, {"fusion_lat": 0.0, "name": "4ea9d91860a149fd41cc9b234be251b7", "is_disabled": 0, "rental_uris": {"android": "https://dc.lft.to/lastmile_qr_scan", "ios": "https://dc.lft.to/lastmile_qr_scan"}, "fusion_lon": 0.0, "lat": 38.9035045, "bike_id": "4ea9d91860a149fd41cc9b234be251b7", "type": "electric_scooter", "is_reserved": 0, "lon": -76.97475616666667}, {"fusion_lat": 0.0, "name": "fc825fccf5271d9670aaa953d7462b40", "is_disabled": 0, "rental_uris": {"android": "https://dc.lft.to/lastmile_qr_scan", "ios": "https://dc.lft.to/lastmile_qr_scan"}, "fusion_lon": 0.0, "lat": 38.90645716666667, "bike_id": "fc825fccf5271d9670aaa953d7462b40", "type": "electric_scooter", "is_reserved": 0, "lon": -77.0141295}, {"fusion_lat": 0.0, "name": "d16417fd601505f5ee9597595efe513f", "is_disabled": 0, "rental_uris": {"android": "https://dc.lft.to/lastmile_qr_scan", "ios": "https://dc.lft.to/lastmile_qr_scan"}, "fusion_lon": 0.0, "lat": 38.8765545, "bike_id": "d16417fd601505f5ee9597595efe513f", "type": "electric_scooter", "is_reserved": 0, "lon": -77.001154}, {"fusion_lat": 0.0, "name": "adf79e05f77c5a181c921a2b57f6ae3c", "is_disabled": 0, "rental_uris": {"android": "https://dc.lft.to/lastmile_qr_scan", "ios": "https://dc.lft.to/lastmile_qr_scan"}, "fusion_lon": 0.0, "lat": 38.92221216666667, "bike_id": "adf79e05f77c5a181c921a2b57f6ae3c", "type": "electric_scooter", "is_reserved": 0, "lon": -76.98378883333334}, {"fusion_lat": 0.0, "name": "6bfaab09f5a7bd5e36de290e96adc354", "is_disabled": 0, "rental_uris": {"android": "https://dc.lft.to/lastmile_qr_scan", "ios": "https://dc.lft.to/lastmile_qr_scan"}, "fusion_lon": 0.0, "lat": 38.931278166666665, "bike_id": "6bfaab09f5a7bd5e36de290e96adc354", "type": "electric_scooter", "is_reserved": 0, "lon": -77.03849833333334}, {"fusion_lat": 0.0, "name": "f150beab3f5dd3757f14b6494e598365", "is_disabled": 0, "rental_uris": {"android": "https://dc.lft.to/lastmile_qr_scan", "ios": "https://dc.lft.to/lastmile_qr_scan"}, "fusion_lon": 0.0, "lat": 38.906183666666664, "bike_id": "f150beab3f5dd3757f14b6494e598365", "type": "electric_scooter", "is_reserved": 0, "lon": -77.05031983333333}, {"fusion_lat": 0.0, "name": "4b8d96d57ab865dc758096e4d4b99fed", "is_disabled": 0, "rental_uris": {"android": "https://dc.lft.to/lastmile_qr_scan", "ios": "https://dc.lft.to/lastmile_qr_scan"}, "fusion_lon": 0.0, "lat": 38.9026155, "bike_id": "4b8d96d57ab865dc758096e4d4b99fed", "type": "electric_bike", "is_reserved": 0, "lon": -77.06172283333333}, {"fusion_lat": 0.0, "name": "aafa33fa371084464cc161d02c3ab473", "is_disabled": 0, "rental_uris": {"android": "https://dc.lft.to/lastmile_qr_scan", "ios": "https://dc.lft.to/lastmile_qr_scan"}, "fusion_lon": 0.0, "lat": 38.909893333333336, "bike_id": "aafa33fa371084464cc161d02c3ab473", "type": "electric_scooter", "is_reserved": 0, "lon": -77.03198183333333}, {"fusion_lat": 0.0, "name": "b22137ad930b41e5f9382ce65131a438", "is_disabled": 0, "rental_uris": {"android": "https://dc.lft.to/lastmile_qr_scan", "ios": "https://dc.lft.to/lastmile_qr_scan"}, "fusion_lon": 0.0, "lat": 38.88350533333333, "bike_id": "b22137ad930b41e5f9382ce65131a438", "type": "electric_scooter", "is_reserved": 0, "lon": -76.99487816666667}, {"fusion_lat": 0.0, "name": "15b1a7d675536128695d85d986bd02f5", "is_disabled": 0, "rental_uris": {"android": "https://dc.lft.to/lastmile_qr_scan", "ios": "https://dc.lft.to/lastmile_qr_scan"}, "fusion_lon": 0.0, "lat": 38.8874555, "bike_id": "15b1a7d675536128695d85d986bd02f5", "type": "electric_scooter", "is_reserved": 0, "lon": -77.0236105}, {"fusion_lat": 0.0, "name": "7b8a7f621a419c3e0050e4b143a2b39e", "is_disabled": 0, "rental_uris": {"android": "https://dc.lft.to/lastmile_qr_scan", "ios": "https://dc.lft.to/lastmile_qr_scan"}, "fusion_lon": 0.0, "lat": 38.888754166666665, "bike_id": "7b8a7f621a419c3e0050e4b143a2b39e", "type": "electric_scooter", "is_reserved": 0, "lon": -76.98452033333334}, {"fusion_lat": 0.0, "name": "1670b1dc2dbfa48ba49f1929ac2aabcc", "is_disabled": 0, "rental_uris": {"android": "https://dc.lft.to/lastmile_qr_scan", "ios": "https://dc.lft.to/lastmile_qr_scan"}, "fusion_lon": 0.0, "lat": 38.9197315, "bike_id": "1670b1dc2dbfa48ba49f1929ac2aabcc", "type": "electric_scooter", "is_reserved": 0, "lon": -77.00105416666666}, {"fusion_lat": 0.0, "name": "b07f7e76d9fbe921b950e451b795d809", "is_disabled": 0, "rental_uris": {"android": "https://dc.lft.to/lastmile_qr_scan", "ios": "https://dc.lft.to/lastmile_qr_scan"}, "fusion_lon": 0.0, "lat": 38.90197633333333, "bike_id": "b07f7e76d9fbe921b950e451b795d809", "type": "electric_scooter", "is_reserved": 0, "lon": -76.92892716666667}, {"fusion_lat": 0.0, "name": "437c6e2143057c0cb599beee3dbafffb", "is_disabled": 0, "rental_uris": {"android": "https://dc.lft.to/lastmile_qr_scan", "ios": "https://dc.lft.to/lastmile_qr_scan"}, "fusion_lon": 0.0, "lat": 38.886472499999996, "bike_id": "437c6e2143057c0cb599beee3dbafffb", "type": "electric_scooter", "is_reserved": 0, "lon": -76.92589}, {"fusion_lat": 0.0, "name": "9fffc1a56b26590caf917142e1a1a12c", "is_disabled": 0, "rental_uris": {"android": "https://dc.lft.to/lastmile_qr_scan", "ios": "https://dc.lft.to/lastmile_qr_scan"}, "fusion_lon": 0.0, "lat": 38.9073075, "bike_id": "9fffc1a56b26590caf917142e1a1a12c", "type": "electric_scooter", "is_reserved": 0, "lon": -77.02536266666667}, {"fusion_lat": 0.0, "name": "ee5f93b9e996bd822ab7bc6c8abedbd6", "is_disabled": 0, "rental_uris": {"android": "https://dc.lft.to/lastmile_qr_scan", "ios": "https://dc.lft.to/lastmile_qr_scan"}, "fusion_lon": 0.0, "lat": 38.92045366666667, "bike_id": "ee5f93b9e996bd822ab7bc6c8abedbd6", "type": "electric_scooter", "is_reserved": 0, "lon": -77.00206633333333}, {"fusion_lat": 0.0, "name": "bf5fa4f04c9d7f9ef42042ed3098621b", "is_disabled": 0, "rental_uris": {"android": "https://dc.lft.to/lastmile_qr_scan", "ios": "https://dc.lft.to/lastmile_qr_scan"}, "fusion_lon": 0.0, "lat": 38.92830383333333, "bike_id": "bf5fa4f04c9d7f9ef42042ed3098621b", "type": "electric_scooter", "is_reserved": 0, "lon": -77.05437766666667}, {"fusion_lat": 0.0, "name": "6f4221238f996f250ba8ee0f621fe343", "is_disabled": 0, "rental_uris": {"android": "https://dc.lft.to/lastmile_qr_scan", "ios": "https://dc.lft.to/lastmile_qr_scan"}, "fusion_lon": 0.0, "lat": 38.9057285, "bike_id": "6f4221238f996f250ba8ee0f621fe343", "type": "electric_scooter", "is_reserved": 0, "lon": -77.03056633333334}, {"fusion_lat": 0.0, "name": "0a3ae8249ca0af3b6ce1435412f1d35f", "is_disabled": 0, "rental_uris": {"android": "https://dc.lft.to/lastmile_qr_scan", "ios": "https://dc.lft.to/lastmile_qr_scan"}, "fusion_lon": 0.0, "lat": 38.90316983333334, "bike_id": "0a3ae8249ca0af3b6ce1435412f1d35f", "type": "electric_scooter", "is_reserved": 0, "lon": -76.97801466666667}, {"fusion_lat": 0.0, "name": "5f0160a92a5096b8feda4f9ca193f1d6", "is_disabled": 0, "rental_uris": {"android": "https://dc.lft.to/lastmile_qr_scan", "ios": "https://dc.lft.to/lastmile_qr_scan"}, "fusion_lon": 0.0, "lat": 38.946300666666666, "bike_id": "5f0160a92a5096b8feda4f9ca193f1d6", "type": "electric_scooter", "is_reserved": 0, "lon": -77.03289}, {"fusion_lat": 0.0, "name": "a7792f20f024fdd6664e46b7761b3b1d", "is_disabled": 0, "rental_uris": {"android": "https://dc.lft.to/lastmile_qr_scan", "ios": "https://dc.lft.to/lastmile_qr_scan"}, "fusion_lon": 0.0, "lat": 38.8551295, "bike_id": "a7792f20f024fdd6664e46b7761b3b1d", "type": "electric_bike", "is_reserved": 0, "lon": -77.1053625}, {"fusion_lat": 0.0, "name": "94b2868e659f6014ab7a403a02166458", "is_disabled": 0, "rental_uris": {"android": "https://dc.lft.to/lastmile_qr_scan", "ios": "https://dc.lft.to/lastmile_qr_scan"}, "fusion_lon": 0.0, "lat": 38.90997433333333, "bike_id": "94b2868e659f6014ab7a403a02166458", "type": "electric_scooter", "is_reserved": 0, "lon": -77.044777}, {"fusion_lat": 0.0, "name": "2ad16f2a5a2b14598e5dbeaaee4ad1b2", "is_disabled": 0, "rental_uris": {"android": "https://dc.lft.to/lastmile_qr_scan", "ios": "https://dc.lft.to/lastmile_qr_scan"}, "fusion_lon": 0.0, "lat": 38.89611266666667, "bike_id": "2ad16f2a5a2b14598e5dbeaaee4ad1b2", "type": "electric_scooter", "is_reserved": 0, "lon": -76.94813516666666}, {"fusion_lat": 0.0, "name": "49b7f96509cec4608be5ce0e5eea9438", "is_disabled": 0, "rental_uris": {"android": "https://dc.lft.to/lastmile_qr_scan", "ios": "https://dc.lft.to/lastmile_qr_scan"}, "fusion_lon": 0.0, "lat": 38.90823783333333, "bike_id": "49b7f96509cec4608be5ce0e5eea9438", "type": "electric_scooter", "is_reserved": 0, "lon": -77.038454}, {"fusion_lat": 0.0, "name": "6d08b044b4321eefed46ee8886741f86", "is_disabled": 0, "rental_uris": {"android": "https://dc.lft.to/lastmile_qr_scan", "ios": "https://dc.lft.to/lastmile_qr_scan"}, "fusion_lon": 0.0, "lat": 38.9126045, "bike_id": "6d08b044b4321eefed46ee8886741f86", "type": "electric_scooter", "is_reserved": 0, "lon": -77.04735483333333}, {"fusion_lat": 0.0, "name": "cdecc043a6dbbeaa3f0fe650373d8212", "is_disabled": 0, "rental_uris": {"android": "https://dc.lft.to/lastmile_qr_scan", "ios": "https://dc.lft.to/lastmile_qr_scan"}, "fusion_lon": 0.0, "lat": 38.863406499999996, "bike_id": "cdecc043a6dbbeaa3f0fe650373d8212", "type": "electric_bike", "is_reserved": 0, "lon": -76.987269}, {"fusion_lat": 0.0, "name": "4f6e395af75af905d1c6d94cc239756f", "is_disabled": 0, "rental_uris": {"android": "https://dc.lft.to/lastmile_qr_scan", "ios": "https://dc.lft.to/lastmile_qr_scan"}, "fusion_lon": 0.0, "lat": 38.9228655, "bike_id": "4f6e395af75af905d1c6d94cc239756f", "type": "electric_scooter", "is_reserved": 0, "lon": -77.03659616666667}, {"fusion_lat": 0.0, "name": "271e52b2acb027ea965686d014657013", "is_disabled": 0, "rental_uris": {"android": "https://dc.lft.to/lastmile_qr_scan", "ios": "https://dc.lft.to/lastmile_qr_scan"}, "fusion_lon": 0.0, "lat": 38.916994333333335, "bike_id": "271e52b2acb027ea965686d014657013", "type": "electric_scooter", "is_reserved": 0, "lon": -77.023666}, {"fusion_lat": 0.0, "name": "6af2005ac8742a5c35c8eb86c79ead7e", "is_disabled": 0, "rental_uris": {"android": "https://dc.lft.to/lastmile_qr_scan", "ios": "https://dc.lft.to/lastmile_qr_scan"}, "fusion_lon": 0.0, "lat": 38.94075566666667, "bike_id": "6af2005ac8742a5c35c8eb86c79ead7e", "type": "electric_scooter", "is_reserved": 0, "lon": -77.01699216666667}, {"fusion_lat": 0.0, "name": "0b7daf20047f5c70da2249eb50973548", "is_disabled": 0, "rental_uris": {"android": "https://dc.lft.to/lastmile_qr_scan", "ios": "https://dc.lft.to/lastmile_qr_scan"}, "fusion_lon": 0.0, "lat": 38.917029166666666, "bike_id": "0b7daf20047f5c70da2249eb50973548", "type": "electric_scooter", "is_reserved": 0, "lon": -77.03101833333334}, {"fusion_lat": 0.0, "name": "e8099454d6f79425f7887c1c2c4f2770", "is_disabled": 0, "rental_uris": {"android": "https://dc.lft.to/lastmile_qr_scan", "ios": "https://dc.lft.to/lastmile_qr_scan"}, "fusion_lon": 0.0, "lat": 38.88257083333333, "bike_id": "e8099454d6f79425f7887c1c2c4f2770", "type": "electric_scooter", "is_reserved": 0, "lon": -76.99489733333333}, {"fusion_lat": 0.0, "name": "e4959814166e5c6c4a84d2fcc3edd80f", "is_disabled": 0, "rental_uris": {"android": "https://dc.lft.to/lastmile_qr_scan", "ios": "https://dc.lft.to/lastmile_qr_scan"}, "fusion_lon": 0.0, "lat": 38.86560466666667, "bike_id": "e4959814166e5c6c4a84d2fcc3edd80f", "type": "electric_scooter", "is_reserved": 0, "lon": -76.9835225}, {"fusion_lat": 0.0, "name": "ae6c89d2d3f69e130338eca6b49d287f", "is_disabled": 0, "rental_uris": {"android": "https://dc.lft.to/lastmile_qr_scan", "ios": "https://dc.lft.to/lastmile_qr_scan"}, "fusion_lon": 0.0, "lat": 38.911754, "bike_id": "ae6c89d2d3f69e130338eca6b49d287f", "type": "electric_scooter", "is_reserved": 0, "lon": -77.06859216666666},