{"data": {"bikes": [{"lat": 38.89223533333333, "fusion_lat": 0.0, "type": "electric_scooter", "bike_id": "7ca8081535af44339fc2787b67ab78b4", "rental_uris": {"ios": "https://dc.lft.to/lastmile_qr_scan", "android": "https://dc.lft.to/lastmile_qr_scan"}, "fusion_lon": 0.0, "lon": -77.04332466666666, "name": "7ca8081535af44339fc2787b67ab78b4", "is_reserved": 0, "is_disabled": 0}, {"lat": 38.941084333333336, "fusion_lat": 0.0, "type": "electric_scooter", "bike_id": "a84827205709ba96ac87ef74d774d4b0", "rental_uris": {"ios": "https://dc.lft.to/lastmile_qr_scan", "android": "https://dc.lft.to/lastmile_qr_scan"}, "fusion_lon": 0.0, "lon": -77.02647416666667, "name": "a84827205709ba96ac87ef74d774d4b0", "is_reserved": 0, "is_disabled": 0}, {"lat": 38.899223166666665, "fusion_lat": 0.0, "type": "electric_scooter", "bike_id": "64a53182e160866362392ece15292cc2", "rental_uris": {"ios": "https://dc.lft.to/lastmile_qr_scan", "android": "https://dc.lft.to/lastmile_qr_scan"}, "fusion_lon": 0.0, "lon": -77.0137635, "name": "64a53182e160866362392ece15292cc2", "is_reserved": 0, "is_disabled": 0}, {"lat": 38.9095295, "fusion_lat": 0.0, "type": "electric_scooter", "bike_id": "bcec0a48b9ef947e8b0decd23ebccc21", "rental_uris": {"ios": "https://dc.lft.to/lastmile_qr_scan", "android": "https://dc.lft.to/lastmile_qr_scan"}, "fusion_lon": 0.0, "lon": -77.02715233333333, "name": "bcec0a48b9ef947e8b0decd23ebccc21", "is_reserved": 0, "is_disabled": 0}, {"lat": 38.9949215, "fusion_lat": 0.0, "type": "electric_bike", "bike_id": "c64478837e36f1c907606637af120ca8", "rental_uris": {"ios": "https://dc.lft.to/lastmile_qr_scan", "android": "https://dc.lft.to/lastmile_qr_scan"}, "fusion_lon": 0.0, "lon": -77.0779095, "name": "c64478837e36f1c907606637af120ca8", "is_reserved": 0, "is_disabled": 0}, {"lat": 38.91798766666667, "fusion_lat": 0.0, "type": "electric_scooter", "bike_id": "9d64369bc8e9748eb494912cd20afeda", "rental_uris": {"ios": "https://dc.lft.to/lastmile_qr_scan", "android": "https://dc.lft.to/lastmile_qr_scan"}, "fusion_lon": 0.0, "lon": -77.02714716666667, "name": "9d64369bc8e9748eb494912cd20afeda", "is_reserved": 0, "is_disabled": 0}, {"lat": 38.92970583333334, "fusion_lat": 0.0, "type": "electric_scooter", "bike_id": "e5d0f774b085ff78f26dc4bb933e9dbd", "rental_uris": {"ios": "https://dc.lft.to/lastmile_qr_scan", "android": "https://dc.lft.to/lastmile_qr_scan"}, "fusion_lon": 0.0, "lon": -77.02828833333334, "name": "e5d0f774b085ff78f26dc4bb933e9dbd", "is_reserved": 0, "is_disabled": 0}, {"lat": 38.90263083333333, "fusion_lat": 0.0, "type": "electric_scooter", "bike_id": "80e1b7fcb5c018a22360ec827f6f2d96", "rental_uris": {"ios": "https://dc.lft.to/lastmile_qr_scan", "android": "https://dc.lft.to/lastmile_qr_scan"}, "fusion_lon": 0.0, "lon": -77.01713616666666, "name": "80e1b7fcb5c018a22360ec827f6f2d96", "is_reserved": 0, "is_disabled": 0}, {"lat": 38.92740116666667, "fusion_lat": 0.0, "type": "electric_scooter", "bike_id": "7f674737fcb97e1e657146590949e351", "rental_uris": {"ios": "https://dc.lft.to/lastmile_qr_scan", "android": "https://dc.lft.to/lastmile_qr_scan"}, "fusion_lon": 0.0, "lon": -77.022594, "name": "7f674737fcb97e1e657146590949e351", "is_reserved": 0, "is_disabled": 0}, {"lat": 38.910305, "fusion_lat": 0.0, "type": "electric_scooter", "bike_id": "3a456387ce7aa7649b15eb4e1288a22d", "rental_uris": {"ios": "https://dc.lft.to/lastmile_qr_scan", "android": "https://dc.lft.to/lastmile_qr_scan"}, "fusion_lon": 0.0, "lon": -77.04358883333333, "name": "3a456387ce7aa7649b15eb4e1288a22d", "is_reserved": 0, "is_disabled": 0}, {"lat": 38.92411416666667, "fusion_lat": 0.0, "type": "electric_scooter", "bike_id": "fe8689bd43ff747038c12a8b62108111", "rental_uris": {"ios": "https://dc.lft.to/lastmile_qr_scan", "android": "https://dc.lft.to/lastmile_qr_scan"}, "fusion_lon": 0.0, "lon": -77.02015483333334, "name": "fe8689bd43ff747038c12a8b62108111", "is_reserved": 0, "is_disabled": 0}, {"lat": 38.892332333333336, "fusion_lat": 0.0, "type": "electric_scooter", "bike_id": "b99f3ffbbe8a33ff7bf66298549ef03a", "rental_uris": {"ios": "https://dc.lft.to/lastmile_qr_scan", "android": "https://dc.lft.to/lastmile_qr_scan"}, "fusion_lon": 0.0, "lon": -77.050033, "name": "b99f3ffbbe8a33ff7bf66298549ef03a", "is_reserved": 0, "is_disabled": 0}, {"lat": 38.846110333333336, "fusion_lat": 0.0, "type": "electric_bike", "bike_id": "80ebf6a88b89a0da582ae64193a1b5f6", "rental_uris": {"ios": "https://dc.lft.to/lastmile_qr_scan", "android": "https://dc.lft.to/lastmile_qr_scan"}, "fusion_lon": 0.0, "lon": -76.9691525, "name": "80ebf6a88b89a0da582ae64193a1b5f6", "is_reserved": 0, "is_disabled": 0}, {"lat": 38.8723405, "fusion_lat": 0.0, "type": "electric_scooter", "bike_id": "7de9dce0bee1f3e4443218161fa96653", "rental_uris": {"ios": "https://dc.lft.to/lastmile_qr_scan", "android": "https://dc.lft.to/lastmile_qr_scan"}, "fusion_lon": 0.0, "lon": -77.00576766666667, "name": "7de9dce0bee1f3e4443218161fa96653", "is_reserved": 0, "is_disabled": 0}, {"lat": 38.898607166666665, "fusion_lat": 0.0, "type": "electric_scooter", "bike_id": "a066e1f033f0384b740135f52f9995a8", "rental_uris": {"ios": "https://dc.lft.to/lastmile_qr_scan", "android": "https://dc.lft.to/lastmile_qr_scan"}, "fusion_lon": 0.0, "lon": -77.041013, "name": "a066e1f033f0384b740135f52f9995a8", "is_reserved": 0, "is_disabled": 0}, {"lat": 38.95430116666667, "fusion_lat": 0.0, "type": "electric_scooter", "bike_id": "bbf6b07f2eeddb50d83403ffe18df30c", "rental_uris": {"ios": "https://dc.lft.to/lastmile_qr_scan", "android": "https://dc.lft.to/lastmile_qr_scan"}, "fusion_lon": 0.0, "lon": -77.01855016666667, "name": "bbf6b07f2eeddb50d83403ffe18df30c", "is_reserved": 0, "is_disabled": 0}, {"lat": 38.903188666666665, "fusion_lat": 0.0, "type": "electric_scooter", "bike_id": "fd0e33b9d4c38547d6b9b40bef7f177d", "rental_uris": {"ios": "https://dc.lft.to/lastmile_qr_scan", "android": "https://dc.lft.to/lastmile_qr_scan"}, "fusion_lon": 0.0, "lon": -77.05016566666667, "name": "fd0e33b9d4c38547d6b9b40bef7f177d", "is_reserved": 0, "is_disabled": 0}, {"lat": 38.89473483333333, "fusion_lat": 0.0, "type": "electric_scooter", "bike_id": "c023b70ec3a718af64455e5ab1d05c1e", "rental_uris": {"ios": "https://dc.lft.to/lastmile_qr_scan", "android": "https://dc.lft.to/lastmile_qr_scan"}, "fusion_lon": 0.0, "lon": -76.9860635, "name": "c023b70ec3a718af64455e5ab1d05c1e", "is_reserved": 0, "is_disabled": 0}, {"lat": 38.92873866666667, "fusion_lat": 0.0, "type": "electric_scooter", "bike_id": "5f2e6b27a6e9eb3da2f0bfb79039f333", "rental_uris": {"ios": "https://dc.lft.to/lastmile_qr_scan", "android": "https://dc.lft.to/lastmile_qr_scan"}, "fusion_lon": 0.0, "lon": -77.03240483333333, "name": "5f2e6b27a6e9eb3da2f0bfb79039f333", "is_reserved": 0, "is_disabled": 0}, {"lat": 38.928925666666665, "fusion_lat": 0.0, "type": "electric_scooter", "bike_id": "a623f48cd6b94b6a6fc8e07348ceefc0", "rental_uris": {"ios": "https://dc.lft.to/lastmile_qr_scan", "android": "https://dc.lft.to/lastmile_qr_scan"}, "fusion_lon": 0.0, "lon": -77.05812633333333, "name": "a623f48cd6b94b6a6fc8e07348ceefc0", "is_reserved": 0, "is_disabled": 0}, {"lat": 38.9217005, "fusion_lat": 0.0, "type": "electric_scooter", "bike_id": "7acbef5f56c5b96d6adcf6fcae9efc7c", "rental_uris": {"ios": "https://dc.lft.to/lastmile_qr_scan", "android": "https://dc.lft.to/lastmile_qr_scan"}, "fusion_lon": 0.0, "lon": -77.040131, "name": "7acbef5f56c5b96d6adcf6fcae9efc7c", "is_reserved": 0, "is_disabled": 0}, {"lat": 38.90673833333334, "fusion_lat": 0.0, "type": "electric_scooter", "bike_id": "0c3d70903f8fb8510be82afe70684ebe", "rental_uris": {"ios": "https://dc.lft.to/lastmile_qr_scan", "android": "https://dc.lft.to/lastmile_qr_scan"}, "fusion_lon": 0.0, "lon": -77.02725616666666, "name": "0c3d70903f8fb8510be82afe70684ebe", "is_reserved": 0, "is_disabled": 0}, {"lat": 38.87441716666667, "fusion_lat": 0.0, "type": "electric_scooter", "bike_id": "def0798d88b8f27c8b8b8d16c460b336", "rental_uris": {"ios": "https://dc.lft.to/lastmile_qr_scan", "android": "https://dc.lft.to/lastmile_qr_scan"}, "fusion_lon": 0.0, "lon": -77.00122333333333, "name": "def0798d88b8f27c8b8b8d16c460b336", "is_reserved": 0, "is_disabled": 0}, {"lat": 38.910762, "fusion_lat": 0.0, "type": "electric_scooter", "bike_id": "a857d4e2aab91bea93bef4e26216fe6d", "rental_uris": {"ios": "https://dc.lft.to/lastmile_qr_scan", "android": "https://dc.lft.to/lastmile_qr_scan"}, "fusion_lon": 0.0, "lon": -77.02724366666666, "name": "a857d4e2aab91bea93bef4e26216fe6d", "is_reserved": 0, "is_disabled": 0}, {"lat": 38.912725, "fusion_lat": 0.0, "type": "electric_scooter", "bike_id": "8cdaf665a4d99234e9f2468f1e74c0d9", "rental_uris": {"ios": "https://dc.lft.to/lastmile_qr_scan", "android": "https://dc.lft.to/lastmile_qr_scan"}, "fusion_lon": 0.0, "lon": -77.03797166666666, "name": "8cdaf665a4d99234e9f2468f1e74c0d9", "is_reserved": 0, "is_disabled": 0}, {"lat": 38.918209833333336, "fusion_lat": 0.0, "type": "electric_scooter", "bike_id": "57071503cb3e3f6bb6174319a1d6d0dd", "rental_uris": {"ios": "https://dc.lft.to/lastmile_qr_scan", "android": "https://dc.lft.to/lastmile_qr_scan"}, "fusion_lon": 0.0, "lon": -77.04177433333334, "name": "57071503cb3e3f6bb6174319a1d6d0dd", "is_reserved": 0, "is_disabled": 0}, {"lat": 38.915560666666664, "fusion_lat": 0.0, "type": "electric_scooter", "bike_id": "cdaed06bbc38adb8081d96bc2e97ef6a", "rental_uris": {"ios": "https://dc.lft.to/lastmile_qr_scan", "android": "https://dc.lft.to/lastmile_qr_scan"}, "fusion_lon": 0.0, "lon": -77.03176216666667, "name": "cdaed06bbc38adb8081d96bc2e97ef6a", "is_reserved": 0, "is_disabled": 0}, {"lat": 38.903910333333336, "fusion_lat": 0.0, "type": "electric_scooter", "bike_id": "f5116ca4407ba8306566c46179bf5a8a", "rental_uris": {"ios": "https://dc.lft.to/lastmile_qr_scan", "android": "https://dc.lft.to/lastmile_qr_scan"}, "fusion_lon": 0.0, "lon": -77.02067, "name": "f5116ca4407ba8306566c46179bf5a8a", "is_reserved": 0, "is_disabled": 0}, {"lat": 38.9162325, "fusion_lat": 0.0, "type": "electric_scooter", "bike_id": "7c5afe20c10c8c2f5d8e682645f1e42f", "rental_uris": {"ios": "https://dc.lft.to/lastmile_qr_scan", "android": "https://dc.lft.to/lastmile_qr_scan"}, "fusion_lon": 0.0, "lon": -77.0385685, "name": "7c5afe20c10c8c2f5d8e682645f1e42f", "is_reserved": 0, "is_disabled": 0}, {"lat": 38.89742733333333, "fusion_lat": 0.0, "type": "electric_scooter", "bike_id": "95294aecb410fc07c967a5577a271dfc", "rental_uris": {"ios": "https://dc.lft.to/lastmile_qr_scan", "android": "https://dc.lft.to/lastmile_qr_scan"}, "fusion_lon": 0.0, "lon": -77.00144766666666, "name": "95294aecb410fc07c967a5577a271dfc", "is_reserved": 0, "is_disabled": 0}, {"lat": 38.831045, "fusion_lat": 0.0, "type": "electric_bike", "bike_id": "5f568e6885465b4c958053153f27c44e", "rental_uris": {"ios": "https://dc.lft.to/lastmile_qr_scan", "android": "https://dc.lft.to/lastmile_qr_scan"}, "fusion_lon": 0.0, "lon": -77.11285733333334, "name": "5f568e6885465b4c958053153f27c44e", "is_reserved": 0, "is_disabled": 0}, {"lat": 38.91348383333333, "fusion_lat": 0.0, "type": "electric_scooter", "bike_id": "93dc984c398784510897f962af8339f0", "rental_uris": {"ios": "https://dc.lft.to/lastmile_qr_scan", "android": "https://dc.lft.to/lastmile_qr_scan"}, "fusion_lon": 0.0, "lon": -77.0295145, "name": "93dc984c398784510897f962af8339f0", "is_reserved": 0, "is_disabled": 0}, {"lat": 38.9012055, "fusion_lat": 0.0, "type": "electric_scooter", "bike_id": "6c06eb43c7e8e709228f648e88b66c1c", "rental_uris": {"ios": "https://dc.lft.to/lastmile_qr_scan", "android": "https://dc.lft.to/lastmile_qr_scan"}, "fusion_lon": 0.0, "lon": -77.01739283333333, "name": "6c06eb43c7e8e709228f648e88b66c1c", "is_reserved": 0, "is_disabled": 0}, {"lat": 38.91524866666666, "fusion_lat": 0.0, "type": "electric_scooter", "bike_id": "1ea39309edc1d2976001c46e632d3912", "rental_uris": {"ios": "https://dc.lft.to/lastmile_qr_scan", "android": "https://dc.lft.to/lastmile_qr_scan"}, "fusion_lon": 0.0, "lon": -77.01429666666667, "name": "1ea39309edc1d2976001c46e632d3912", "is_reserved": 0, "is_disabled": 0}, {"lat": 38.920459, "fusion_lat": 0.0, "type": "electric_scooter", "bike_id": "eba2794cfcb635b9be78409e77890ba6", "rental_uris": {"ios": "https://dc.lft.to/lastmile_qr_scan", "android": "https://dc.lft.to/lastmile_qr_scan"}, "fusion_lon": 0.0, "lon": -77.0412135, "name": "eba2794cfcb635b9be78409e77890ba6", "is_reserved": 0, "is_disabled": 0}, {"lat": 38.94183966666667, "fusion_lat": 0.0, "type": "electric_bike", "bike_id": "656285fc9df6b3fbe95c0f0383081853", "rental_uris": {"ios": "https://dc.lft.to/lastmile_qr_scan", "android": "https://dc.lft.to/lastmile_qr_scan"}, "fusion_lon": 0.0, "lon": -76.992512, "name": "656285fc9df6b3fbe95c0f0383081853", "is_reserved": 0, "is_disabled": 0}, {"lat": 38.919142, "fusion_lat": 0.0, "type": "electric_scooter", "bike_id": "c0c041330776d34f7da89ea0a24b77e0", "rental_uris": {"ios": "https://dc.lft.to/lastmile_qr_scan", "android": "https://dc.lft.to/lastmile_qr_scan"}, "fusion_lon": 0.0, "lon": -77.0251605, "name": "c0c041330776d34f7da89ea0a24b77e0", "is_reserved": 0, "is_disabled": 0}, {"lat": 38.923599833333334, "fusion_lat": 0.0, "type": "electric_scooter", "bike_id": "c787b3235a3dddfe856c049742bc88b0", "rental_uris": {"ios": "https://dc.lft.to/lastmile_qr_scan", "android": "https://dc.lft.to/lastmile_qr_scan"}, "fusion_lon": 0.0, "lon": -77.04411033333334, "name": "c787b3235a3dddfe856c049742bc88b0", "is_reserved": 0, "is_disabled": 0}, {"lat": 38.892212, "fusion_lat": 0.0, "type": "electric_scooter", "bike_id": "1ead0dff73891d63c97a0556df5dc837", "rental_uris": {"ios": "https://dc.lft.to/lastmile_qr_scan", "android": "https://dc.lft.to/lastmile_qr_scan"}, "fusion_lon": 0.0, "lon": -77.0278325, "name": "1ead0dff73891d63c97a0556df5dc837", "is_reserved": 0, "is_disabled": 0}, {"lat": 38.912623833333335, "fusion_lat": 0.0, "type": "electric_scooter", "bike_id": "4dea755af2f2930cdef121aa0a64a662", "rental_uris": {"ios": "https://dc.lft.to/lastmile_qr_scan", "android": "https://dc.lft.to/lastmile_qr_scan"}, "fusion_lon": 0.0, "lon": -77.04311833333334, "name": "4dea755af2f2930cdef121aa0a64a662", "is_reserved": 0, "is_disabled": 0}, {"lat": 38.917358, "fusion_lat": 0.0, "type": "electric_scooter", "bike_id": "8f185c49608210d033eb95a967397a9a", "rental_uris": {"ios": "https://dc.lft.to/lastmile_qr_scan", "android": "https://dc.lft.to/lastmile_qr_scan"}, "fusion_lon": 0.0, "lon": -77.04184466666666, "name": "8f185c49608210d033eb95a967397a9a", "is_reserved": 0, "is_disabled": 0}, {"lat": 38.89821466666667, "fusion_lat": 0.0, "type": "electric_scooter", "bike_id": "36141f1cfbcf2082e92f1354fe236eef", "rental_uris": {"ios": "https://dc.lft.to/lastmile_qr_scan", "android": "https://dc.lft.to/lastmile_qr_scan"}, "fusion_lon": 0.0, "lon": -77.05032683333333, "name": "36141f1cfbcf2082e92f1354fe236eef", "is_reserved": 0, "is_disabled": 0}, {"lat": 38.9244795, "fusion_lat": 0.0, "type": "electric_scooter", "bike_id": "da594ce256908537f7653f1a55bc949f", "rental_uris": {"ios": "https://dc.lft.to/lastmile_qr_scan", "android": "https://dc.lft.to/lastmile_qr_scan"}, "fusion_lon": 0.0, "lon": -77.02265283333334, "name": "da594ce256908537f7653f1a55bc949f", "is_reserved": 0, "is_disabled": 0}, {"lat": 38.89736333333333, "fusion_lat": 0.0, "type": "electric_scooter", "bike_id": "f1f8ba2d97a865ebc18fa77f13e419b4", "rental_uris": {"ios": "https://dc.lft.to/lastmile_qr_scan", "android": "https://dc.lft.to/lastmile_qr_scan"}, "fusion_lon": 0.0, "lon": -77.04366816666666, "name": "f1f8ba2d97a865ebc18fa77f13e419b4", "is_reserved": 0, "is_disabled": 0}, {"lat": 38.89546166666667, "fusion_lat": 0.0, "type": "electric_scooter", "bike_id": "44c19ee55a6024ebbf585d183d7d69ab", "rental_uris": {"ios": "https://dc.lft.to/lastmile_qr_scan", "android": "https://dc.lft.to/lastmile_qr_scan"}, "fusion_lon": 0.0, "lon": -76.98339166666666, "name": "44c19ee55a6024ebbf585d183d7d69ab", "is_reserved": 0, "is_disabled": 0}, {"lat": 38.90085116666667, "fusion_lat": 0.0, "type": "electric_scooter", "bike_id": "0402e513fc901ec4e8835665fcc82438", "rental_uris": {"ios": "https://dc.lft.to/lastmile_qr_scan", "android": "https://dc.lft.to/lastmile_qr_scan"}, "fusion_lon": 0.0, "lon": -76.9296145, "name": "0402e513fc901ec4e8835665fcc82438", "is_reserved": 0, "is_disabled": 0}, {"lat": 38.83740066666667, "fusion_lat": 0.0, "type": "electric_bike", "bike_id": "a5b3bc6c8885691cc0ea01dbc13ff21d", "rental_uris": {"ios": "https://dc.lft.to/lastmile_qr_scan", "android": "https://dc.lft.to/lastmile_qr_scan"}, "fusion_lon": 0.0, "lon": -76.99821, "name": "a5b3bc6c8885691cc0ea01dbc13ff21d", "is_reserved": 0, "is_disabled": 0}, {"lat": 38.96802316666667, "fusion_lat": 0.0, "type": "electric_scooter", "bike_id": "fb39d46478f55a7a8b020994c99d227d", "rental_uris": {"ios": "https://dc.lft.to/lastmile_qr_scan", "android": "https://dc.lft.to/lastmile_qr_scan"}, "fusion_lon": 0.0, "lon": -77.024348, "name": "fb39d46478f55a7a8b020994c99d227d", "is_reserved": 0, "is_disabled": 0}, {"lat": 38.90279266666667, "fusion_lat": 0.0, "type": "electric_scooter", "bike_id": "8a06c7d4ef31bda4ac7ad713a8c6aa69", "rental_uris": {"ios": "https://dc.lft.to/lastmile_qr_scan", "android": "https://dc.lft.to/lastmile_qr_scan"}, "fusion_lon": 0.0, "lon": -77.03926766666666, "name": "8a06c7d4ef31bda4ac7ad713a8c6aa69", "is_reserved": 0, "is_disabled": 0}, {"lat": 38.914833333333334, "fusion_lat": 0.0, "type": "electric_scooter", "bike_id": "a15452f69b6c96901a3ce4a492edb6e5", "rental_uris": {"ios": "https://dc.lft.to/lastmile_qr_scan", "android": "https://dc.lft.to/lastmile_qr_scan"}, "fusion_lon": 0.0, "lon": -77.0319515, "name": "a15452f69b6c96901a3ce4a492edb6e5", "is_reserved": 0, "is_disabled": 0}, {"lat": 38.88408483333333, "fusion_lat": 0.0, "type": "electric_scooter", "bike_id": "e3d72857b75e2ecd121c5fa9529f318f", "rental_uris": {"ios": "https://dc.lft.to/lastmile_qr_scan", "android": "https://dc.lft.to/lastmile_qr_scan"}, "fusion_lon": 0.0, "lon": -77.03185633333334, "name": "e3d72857b75e2ecd121c5fa9529f318f", "is_reserved": 0, "is_disabled": 0}, {"lat": 38.906005666666665, "fusion_lat": 0.0, "type": "electric_scooter", "bike_id": "4e43318ce62d168e229e06e8590c9ab4", "rental_uris": {"ios": "https://dc.lft.to/lastmile_qr_scan", "android": "https://dc.lft.to/lastmile_qr_scan"}, "fusion_lon": 0.0, "lon": -77.04041483333333, "name": "4e43318ce62d168e229e06e8590c9ab4", "is_reserved": 0, "is_disabled": 0}, {"lat": 38.884290166666666, "fusion_lat": 0.0, "type": "electric_scooter", "bike_id": "916772f9f3ff892ee41a44d792a949e2", "rental_uris": {"ios": "https://dc.lft.to/lastmile_qr_scan", "android": "https://dc.lft.to/lastmile_qr_scan"}, "fusion_lon": 0.0, "lon": -76.95760266666667, "name": "916772f9f3ff892ee41a44d792a949e2", "is_reserved": 0, "is_disabled": 0}, {"lat": 38.93625816666667, "fusion_lat": 0.0, "type": "electric_scooter", "bike_id": "deb09850b685a1c907a317701f469942", "rental_uris": {"ios": "https://dc.lft.to/lastmile_qr_scan", "android": "https://dc.lft.to/lastmile_qr_scan"}, "fusion_lon": 0.0, "lon": -77.02116733333334, "name": "deb09850b685a1c907a317701f469942", "is_reserved": 0, "is_disabled": 0}, {"lat": 38.90067583333333, "fusion_lat": 0.0, "type": "electric_scooter", "bike_id": "b3bb5d3caa2126beab304613bddb4718", "rental_uris": {"ios": "https://dc.lft.to/lastmile_qr_scan", "android": "https://dc.lft.to/lastmile_qr_scan"}, "fusion_lon": 0.0, "lon": -77.0503725, "name": "b3bb5d3caa2126beab304613bddb4718", "is_reserved": 0, "is_disabled": 0}, {"lat": 38.93186583333333, "fusion_lat": 0.0, "type": "electric_scooter", "bike_id": "43e8dfb3e7d83f11abcdf31b3f22814d", "rental_uris": {"ios": "https://dc.lft.to/lastmile_qr_scan", "android": "https://dc.lft.to/lastmile_qr_scan"}, "fusion_lon": 0.0, "lon": -77.01987383333334, "name": "43e8dfb3e7d83f11abcdf31b3f22814d", "is_reserved": 0, "is_disabled": 0}, {"lat": 38.83247816666667, "fusion_lat": 0.0, "type": "electric_bike", "bike_id": "21c6b142a71e74471473fa6b515ee219", "rental_uris": {"ios": "https://dc.lft.to/lastmile_qr_scan", "android": "https://dc.lft.to/lastmile_qr_scan"}, "fusion_lon": 0.0, "lon": -77.00730183333333, "name": "21c6b142a71e74471473fa6b515ee219", "is_reserved": 0, "is_disabled": 0}, {"lat": 38.892225333333336, "fusion_lat": 0.0, "type": "electric_scooter", "bike_id": "6bff0818b0e0ce2e21cac127949b5186", "rental_uris": {"ios": "https://dc.lft.to/lastmile_qr_scan", "android": "https://dc.lft.to/lastmile_qr_scan"}, "fusion_lon": 0.0, "lon": -77.03974783333334, "name": "6bff0818b0e0ce2e21cac127949b5186", "is_reserved": 0, "is_disabled": 0}, {"lat": 38.95678, "fusion_lat": 0.0, "type": "electric_scooter", "bike_id": "b55e53620c000a1685a35c8c8a8513fa", "rental_uris": {"ios": "https://dc.lft.to/lastmile_qr_scan", "android": "https://dc.lft.to/lastmile_qr_scan"}, "fusion_lon": 0.0, "lon": -77.01358383333333, "name": "b55e53620c000a1685a35c8c8a8513fa", "is_reserved": 0, "is_disabled": 0}, {"lat": 38.92345566666667, "fusion_lat": 0.0, "type": "electric_scooter", "bike_id": "6f30459fdd7789895784a1ca8fc3d6fb", "rental_uris": {"ios": "https://dc.lft.to/lastmile_qr_scan", "android": "https://dc.lft.to/lastmile_qr_scan"}, "fusion_lon": 0.0, "lon": -77.041495, "name": "6f30459fdd7789895784a1ca8fc3d6fb", "is_reserved": 0, "is_disabled": 0}, {"lat": 38.896119166666665, "fusion_lat": 0.0, "type": "electric_scooter", "bike_id": "e4f9b4420095d4e80c01afe37838f171", "rental_uris": {"ios": "https://dc.lft.to/lastmile_qr_scan", "android": "https://dc.lft.to/lastmile_qr_scan"}, "fusion_lon": 0.0, "lon": -77.02346883333334, "name": "e4f9b4420095d4e80c01afe37838f171", "is_reserved": 0, "is_disabled": 0}, {"lat": 38.9285345, "fusion_lat": 0.0, "type": "electric_scooter", "bike_id": "e1f7425136ab2902c35a9cac492cd654", "rental_uris": {"ios": "https://dc.lft.to/lastmile_qr_scan", "android": "https://dc.lft.to/lastmile_qr_scan"}, "fusion_lon": 0.0, "lon": -77.037428, "name": "e1f7425136ab2902c35a9cac492cd654", "is_reserved": 0, "is_disabled": 0}, {"lat": 38.901566333333335, "fusion_lat": 0.0, "type": "electric_scooter", "bike_id": "285624e1118a3537dfc1ffb4330e6b6d", "rental_uris": {"ios": "https://dc.lft.to/lastmile_qr_scan", "android": "https://dc.lft.to/lastmile_qr_scan"}, "fusion_lon": 0.0, "lon": -77.03505466666667, "name": "285624e1118a3537dfc1ffb4330e6b6d", "is_reserved": 0, "is_disabled": 0}, {"lat": 38.92694316666667, "fusion_lat": 0.0, "type": "electric_scooter", "bike_id": "2e9cb0450cf20e1545cb79edeadf9362", "rental_uris": {"ios": "https://dc.lft.to/lastmile_qr_scan", "android": "https://dc.lft.to/lastmile_qr_scan"}, "fusion_lon": 0.0, "lon": -77.022859, "name": "2e9cb0450cf20e1545cb79edeadf9362", "is_reserved": 0, "is_disabled": 0}, {"lat": 38.873886, "fusion_lat": 0.0, "type": "electric_scooter", "bike_id": "a6a9719fa61047bf6f6aa1376f3e198f", "rental_uris": {"ios": "https://dc.lft.to/lastmile_qr_scan", "android": "https://dc.lft.to/lastmile_qr_scan"}, "fusion_lon": 0.0, "lon": -77.000307, "name": "a6a9719fa61047bf6f6aa1376f3e198f", "is_reserved": 0, "is_disabled": 0}, {"lat": 38.917063166666665, "fusion_lat": 0.0, "type": "electric_scooter", "bike_id": "550cb4be15e2f688a7e51d404666dab9", "rental_uris": {"ios": "https://dc.lft.to/lastmile_qr_scan", "android": "https://dc.lft.to/lastmile_qr_scan"}, "fusion_lon": 0.0, "lon": -77.04176366666667, "name": "550cb4be15e2f688a7e51d404666dab9", "is_reserved": 0, "is_disabled": 0}, {"lat": 38.91659716666667, "fusion_lat": 0.0, "type": "electric_scooter", "bike_id": "72951b7da85bf6aa30e12b1eb4825791", "rental_uris": {"ios": "https://dc.lft.to/lastmile_qr_scan", "android": "https://dc.lft.to/lastmile_qr_scan"}, "fusion_lon": 0.0, "lon": -77.04391883333334, "name": "72951b7da85bf6aa30e12b1eb4825791", "is_reserved": 0, "is_disabled": 0}, {"lat": 38.91558216666667, "fusion_lat": 0.0, "type": "electric_scooter", "bike_id": "6071ec98de754a69ed0414a4b48846ea", "rental_uris": {"ios": "https://dc.lft.to/lastmile_qr_scan", "android": "https://dc.lft.to/lastmile_qr_scan"}, "fusion_lon": 0.0, "lon": -77.0320985, "name": "6071ec98de754a69ed0414a4b48846ea", "is_reserved": 0, "is_disabled": 0}, {"lat": 38.936305, "fusion_lat": 0.0, "type": "electric_scooter", "bike_id": "1d0d4ab25b4ebaeb7c35b2600f1386a4", "rental_uris": {"ios": "https://dc.lft.to/lastmile_qr_scan", "android": "https://dc.lft.to/lastmile_qr_scan"}, "fusion_lon": 0.0, "lon": -77.05879683333333, "name": "1d0d4ab25b4ebaeb7c35b2600f1386a4", "is_reserved": 0, "is_disabled": 0}, {"lat": 38.90393916666667, "fusion_lat": 0.0, "type": "electric_scooter", "bike_id": "2c3ce4d3af8c9a926c8ea5015c85782c", "rental_uris": {"ios": "https://dc.lft.to/lastmile_qr_scan", "android": "https://dc.lft.to/lastmile_qr_scan"}, "fusion_lon": 0.0, "lon": -77.005798, "name": "2c3ce4d3af8c9a926c8ea5015c85782c", "is_reserved": 0, "is_disabled": 0}, {"lat": 38.927956, "fusion_lat": 0.0, "type": "electric_scooter", "bike_id": "ae7a738c3390ac7cab78a0d45cf9cbc8", "rental_uris": {"ios": "https://dc.lft.to/lastmile_qr_scan", "android": "https://dc.lft.to/lastmile_qr_scan"}, "fusion_lon": 0.0, "lon": -77.0405665, "name": "ae7a738c3390ac7cab78a0d45cf9cbc8", "is_reserved": 0, "is_disabled": 0}, {"lat": 38.897877666666666, "fusion_lat": 0.0, "type": "electric_scooter", "bike_id": "6b7e5e273e3ec993ff3cacb2b44130c4", "rental_uris": {"ios": "https://dc.lft.to/lastmile_qr_scan", "android": "https://dc.lft.to/lastmile_qr_scan"}, "fusion_lon": 0.0, "lon": -77.01203633333333, "name": "6b7e5e273e3ec993ff3cacb2b44130c4", "is_reserved": 0, "is_disabled": 0}, {"lat": 38.8948305, "fusion_lat": 0.0, "type": "electric_scooter", "bike_id": "b0197bdae347c5bc0af75acb430a0746", "rental_uris": {"ios": "https://dc.lft.to/lastmile_qr_scan", "android": "https://dc.lft.to/lastmile_qr_scan"}, "fusion_lon": 0.0, "lon": -77.010863, "name": "b0197bdae347c5bc0af75acb430a0746", "is_reserved": 0, "is_disabled": 0}, {"lat": 38.91184166666667, "fusion_lat": 0.0, "type": "electric_scooter", "bike_id": "f9a7bef1babe3ff2ef27318bc10b40b5", "rental_uris": {"ios": "https://dc.lft.to/lastmile_qr_scan", "android": "https://dc.lft.to/lastmile_qr_scan"}, "fusion_lon": 0.0, "lon": -77.0386635, "name": "f9a7bef1babe3ff2ef27318bc10b40b5", "is_reserved": 0, "is_disabled": 0}, {"lat": 38.93097183333333, "fusion_lat": 0.0, "type": "electric_scooter", "bike_id": "f6a0047751828feca7200ffd148dc9de", "rental_uris": {"ios": "https://dc.lft.to/lastmile_qr_scan", "android": "https://dc.lft.to/lastmile_qr_scan"}, "fusion_lon": 0.0, "lon": -77.02462133333333, "name": "f6a0047751828feca7200ffd148dc9de", "is_reserved": 0, "is_disabled": 0}, {"lat": 38.91362016666667, "fusion_lat": 0.0, "type": "electric_scooter", "bike_id": "e18b08016d979ee3deab5d7026cb80f5", "rental_uris": {"ios": "https://dc.lft.to/lastmile_qr_scan", "android": "https://dc.lft.to/lastmile_qr_scan"}, "fusion_lon": 0.0, "lon": -77.0200025, "name": "e18b08016d979ee3deab5d7026cb80f5", "is_reserved": 0, "is_disabled": 0}, {"lat": 38.9205555, "fusion_lat": 0.0, "type": "electric_scooter", "bike_id": "ac2a6af065926642f8f85d9ac7e119d6", "rental_uris": {"ios": "https://dc.lft.to/lastmile_qr_scan", "android": "https://dc.lft.to/lastmile_qr_scan"}, "fusion_lon": 0.0, "lon": -77.00054816666666, "name": "ac2a6af065926642f8f85d9ac7e119d6", "is_reserved": 0, "is_disabled": 0}, {"lat": 38.90444466666667, "fusion_lat": 0.0, "type": "electric_scooter", "bike_id": "3f66c323a5ee10b10dc8012a20e64612", "rental_uris": {"ios": "https://dc.lft.to/lastmile_qr_scan", "android": "https://dc.lft.to/lastmile_qr_scan"}, "fusion_lon": 0.0, "lon": -76.9983445, "name": "3f66c323a5ee10b10dc8012a20e64612", "is_reserved": 0, "is_disabled": 0}, {"lat": 38.918437833333336, "fusion_lat": 0.0, "type": "electric_scooter", "bike_id": "f9eaabcf5d7fbc4debb1f35caddb2fd1", "rental_uris": {"ios": "https://dc.lft.to/lastmile_qr_scan", "android": "https://dc.lft.to/lastmile_qr_scan"}, "fusion_lon": 0.0, "lon": -76.96563266666666, "name": "f9eaabcf5d7fbc4debb1f35caddb2fd1", "is_reserved": 0, "is_disabled": 0}, {"lat": 38.9103665, "fusion_lat": 0.0, "type": "electric_scooter", "bike_id": "fec827393eaa7652ffa2e96c39a6f1b7", "rental_uris": {"ios": "https://dc.lft.to/lastmile_qr_scan", "android": "https://dc.lft.to/lastmile_qr_scan"}, "fusion_lon": 0.0, "lon": -77.02697783333333, "name": "fec827393eaa7652ffa2e96c39a6f1b7", "is_reserved": 0, "is_disabled": 0}, {"lat": 38.905575666666664, "fusion_lat": 0.0, "type": "electric_scooter", "bike_id": "395ce6dd921191f70f9d9bf0da2f2d95", "rental_uris": {"ios": "https://dc.lft.to/lastmile_qr_scan", "android": "https://dc.lft.to/lastmile_qr_scan"}, "fusion_lon": 0.0, "lon": -77.018531, "name": "395ce6dd921191f70f9d9bf0da2f2d95", "is_reserved": 0, "is_disabled": 0}, {"lat": 38.92221383333333, "fusion_lat": 0.0, "type": "electric_scooter", "bike_id": "9de699befd400d324da6e4a614dd5071", "rental_uris": {"ios": "https://dc.lft.to/lastmile_qr_scan", "android": "https://dc.lft.to/lastmile_qr_scan"}, "fusion_lon": 0.0, "lon": -77.021281, "name": "9de699befd400d324da6e4a614dd5071", "is_reserved": 0, "is_disabled": 0}, {"lat": 38.994285166666664, "fusion_lat": 0.0, "type": "electric_bike", "bike_id": "a844befc500c0d2f17335b10a8ae4748", "rental_uris": {"ios": "https://dc.lft.to/lastmile_qr_scan", "android": "https://dc.lft.to/lastmile_qr_scan"}, "fusion_lon": 0.0, "lon": -77.02661466666666, "name": "a844befc500c0d2f17335b10a8ae4748", "is_reserved": 0, "is_disabled": 0}, {"lat": 38.8938555, "fusion_lat": 0.0, "type": "electric_scooter", "bike_id": "756086e725e90647957dabe3b0fccd13", "rental_uris": {"ios": "https://dc.lft.to/lastmile_qr_scan", "android": "https://dc.lft.to/lastmile_qr_scan"}, "fusion_lon": 0.0, "lon": -76.9231635, "name": "756086e725e90647957dabe3b0fccd13", "is_reserved": 0, "is_disabled": 0}, {"lat": 38.893054666666664, "fusion_lat": 0.0, "type": "electric_scooter", "bike_id": "c0815114bc143def100cc3ee3a77de9b", "rental_uris": {"ios": "https://dc.lft.to/lastmile_qr_scan", "android": "https://dc.lft.to/lastmile_qr_scan"}, "fusion_lon": 0.0, "lon": -77.07871433333334, "name": "c0815114bc143def100cc3ee3a77de9b", "is_reserved": 0, "is_disabled": 0}, {"lat": 38.89246466666667, "fusion_lat": 0.0, "type": "electric_scooter", "bike_id": "a993f44245a47deeed1ec4d3055c3c37", "rental_uris": {"ios": "https://dc.lft.to/lastmile_qr_scan", "android": "https://dc.lft.to/lastmile_qr_scan"}, "fusion_lon": 0.0, "lon": -77.04656766666666, "name": "a993f44245a47deeed1ec4d3055c3c37", "is_reserved": 0, "is_disabled": 0}, {"lat": 38.86892566666667, "fusion_lat": 0.0, "type": "electric_bike", "bike_id": "081a588a4b7003a69257a2eec75545cc", "rental_uris": {"ios": "https://dc.lft.to/lastmile_qr_scan", "android": "https://dc.lft.to/lastmile_qr_scan"}, "fusion_lon": 0.0, "lon": -76.98521016666666, "name": "081a588a4b7003a69257a2eec75545cc", "is_reserved": 0, "is_disabled": 0}, {"lat": 39.052539333333335, "fusion_lat": 0.0, "type": "electric_bike", "bike_id": "5070761d52789e430e0e2e51101e18ed", "rental_uris": {"ios": "https://dc.lft.to/lastmile_qr_scan", "android": "https://dc.lft.to/lastmile_qr_scan"}, "fusion_lon": 0.0, "lon": -77.0806995, "name": "5070761d52789e430e0e2e51101e18ed", "is_reserved": 0, "is_disabled": 0}, {"lat": 38.9500925, "fusion_lat": 0.0, "type": "electric_scooter", "bike_id": "027042c351344c2c124eafef3245f00a", "rental_uris": {"ios": "https://dc.lft.to/lastmile_qr_scan", "android": "https://dc.lft.to/lastmile_qr_scan"}, "fusion_lon": 0.0, "lon": -77.08066783333334, "name": "027042c351344c2c124eafef3245f00a", "is_reserved": 0, "is_disabled": 0}, {"lat": 38.847567833333336, "fusion_lat": 0.0, "type": "electric_scooter", "bike_id": "25a734a8b38cf7d4dc92dd84ab0dd3f9", "rental_uris": {"ios": "https://dc.lft.to/lastmile_qr_scan", "android": "https://dc.lft.to/lastmile_qr_scan"}, "fusion_lon": 0.0, "lon": -76.99497183333334, "name": "25a734a8b38cf7d4dc92dd84ab0dd3f9", "is_reserved": 0, "is_disabled": 0}, {"lat": 38.89634983333333, "fusion_lat": 0.0, "type": "electric_scooter", "bike_id": "4b01d85ae34fd9c734f15f81738128e1", "rental_uris": {"ios": "https://dc.lft.to/lastmile_qr_scan", "android": "https://dc.lft.to/lastmile_qr_scan"}, "fusion_lon": 0.0, "lon": -77.02402116666667, "name": "4b01d85ae34fd9c734f15f81738128e1", "is_reserved": 0, "is_disabled": 0}, {"lat": 38.912722333333335, "fusion_lat": 0.0, "type": "electric_scooter", "bike_id": "5ec4073e8229a43aa857b849c6dc4bbf", "rental_uris": {"ios": "https://dc.lft.to/lastmile_qr_scan", "android": "https://dc.lft.to/lastmile_qr_scan"}, "fusion_lon": 0.0, "lon": -77.03856816666666, "name": "5ec4073e8229a43aa857b849c6dc4bbf", "is_reserved": 0, "is_disabled": 0}, {"lat": 38.878811, "fusion_lat": 0.0, "type": "electric_scooter", "bike_id": "1510692c13ee9c79050bc668536f1adb", "rental_uris": {"ios": "https://dc.lft.to/lastmile_qr_scan", "android": "https://dc.lft.to/lastmile_qr_scan"}, "fusion_lon": 0.0, "lon": -77.023225, "name": "1510692c13ee9c79050bc668536f1adb", "is_reserved": 0, "is_disabled": 0}, {"lat": 38.91574333333333, "fusion_lat": 0.0, "type": "electric_scooter", "bike_id": "f417b9aae01c6de39ce8228db15e5b9b", "rental_uris": {"ios": "https://dc.lft.to/lastmile_qr_scan", "android": "https://dc.lft.to/lastmile_qr_scan"}, "fusion_lon": 0.0, "lon": -77.01907183333333, "name": "f417b9aae01c6de39ce8228db15e5b9b", "is_reserved": 0, "is_disabled": 0}, {"lat": 38.89974983333333, "fusion_lat": 0.0, "type": "electric_scooter", "bike_id": "dddcf6826ea9c377391ac0723c1d7ae5", "rental_uris": {"ios": "https://dc.lft.to/lastmile_qr_scan", "android": "https://dc.lft.to/lastmile_qr_scan"}, "fusion_lon": 0.0, "lon": -76.98551266666666, "name": "dddcf6826ea9c377391ac0723c1d7ae5", "is_reserved": 0, "is_disabled": 0}, {"lat": 38.89552666666667, "fusion_lat": 0.0, "type": "electric_scooter", "bike_id": "c061374902604fe9247e2635d144e517", "rental_uris": {"ios": "https://dc.lft.to/lastmile_qr_scan", "android": "https://dc.lft.to/lastmile_qr_scan"}, "fusion_lon": 0.0, "lon": -76.98225533333333, "name": "c061374902604fe9247e2635d144e517", "is_reserved": 0, "is_disabled": 0}, {"lat": 38.909806833333334, "fusion_lat": 0.0, "type": "electric_scooter", "bike_id": "d141116025643757d4206001acf63114", "rental_uris": {"ios": "https://dc.lft.to/lastmile_qr_scan", "android": "https://dc.lft.to/lastmile_qr_scan"}, "fusion_lon": 0.0, "lon": -77.03369766666667, "name": "d141116025643757d4206001acf63114", "is_reserved": 0, "is_disabled": 0}, {"lat": 38.910257333333334, "fusion_lat": 0.0, "type": "electric_scooter", "bike_id": "70f34dfe26d8ff64bef759709d9986e5", "rental_uris": {"ios": "https://dc.lft.to/lastmile_qr_scan", "android": "https://dc.lft.to/lastmile_qr_scan"}, "fusion_lon": 0.0, "lon": -77.02939866666667, "name": "70f34dfe26d8ff64bef759709d9986e5", "is_reserved": 0, "is_disabled": 0}, {"lat": 38.885136, "fusion_lat": 0.0, "type": "electric_scooter", "bike_id": "db3786f63ce81dd407af64922de3fc7c", "rental_uris": {"ios": "https://dc.lft.to/lastmile_qr_scan", "android": "https://dc.lft.to/lastmile_qr_scan"}, "fusion_lon": 0.0, "lon": -76.99610083333333, "name": "db3786f63ce81dd407af64922de3fc7c", "is_reserved": 0, "is_disabled": 0}, {"lat": 38.923520333333336, "fusion_lat": 0.0, "type": "electric_scooter", "bike_id": "4b5886dbc34837ea49c82f0a1b42ce1f", "rental_uris": {"ios": "https://dc.lft.to/lastmile_qr_scan", "android": "https://dc.lft.to/lastmile_qr_scan"}, "fusion_lon": 0.0, "lon": -77.041585, "name": "4b5886dbc34837ea49c82f0a1b42ce1f", "is_reserved": 0, "is_disabled": 0}, {"lat": 38.89269983333333, "fusion_lat": 0.0, "type": "electric_scooter", "bike_id": "3a67e18f7754d0f6064808f2001b71e3", "rental_uris": {"ios": "https://dc.lft.to/lastmile_qr_scan", "android": "https://dc.lft.to/lastmile_qr_scan"}, "fusion_lon": 0.0, "lon": -77.00362766666667, "name": "3a67e18f7754d0f6064808f2001b71e3", "is_reserved": 0, "is_disabled": 0}, {"lat": 38.9444565, "fusion_lat": 0.0, "type": "electric_scooter", "bike_id": "7cc6abdeadba85456195424dd7e11973", "rental_uris": {"ios": "https://dc.lft.to/lastmile_qr_scan", "android": "https://dc.lft.to/lastmile_qr_scan"}, "fusion_lon": 0.0, "lon": -77.06350316666666, "name": "7cc6abdeadba85456195424dd7e11973", "is_reserved": 0, "is_disabled": 0}, {"lat": 38.916623333333334, "fusion_lat": 0.0, "type": "electric_scooter", "bike_id": "8aae5930f1c7c21e25e863cf2cda028a", "rental_uris": {"ios": "https://dc.lft.to/lastmile_qr_scan", "android": "https://dc.lft.to/lastmile_qr_scan"}, "fusion_lon": 0.0, "lon": -77.0247905, "name": "8aae5930f1c7c21e25e863cf2cda028a", "is_reserved": 0, "is_disabled": 0}, {"lat": 38.91548133333333, "fusion_lat": 0.0, "type": "electric_scooter", "bike_id": "664c79e9bd55e34761d9329b71c5562f", "rental_uris": {"ios": "https://dc.lft.to/lastmile_qr_scan", "android": "https://dc.lft.to/lastmile_qr_scan"}, "fusion_lon": 0.0, "lon": -77.02224183333334, "name": "664c79e9bd55e34761d9329b71c5562f", "is_reserved": 0, "is_disabled": 0}, {"lat": 38.809813, "fusion_lat": 0.0, "type": "electric_bike", "bike_id": "9b527a784ce39c0079e36e7f5412772b", "rental_uris": {"ios": "https://dc.lft.to/lastmile_qr_scan", "android": "https://dc.lft.to/lastmile_qr_scan"}, "fusion_lon": 0.0, "lon": -77.07661716666667, "name": "9b527a784ce39c0079e36e7f5412772b", "is_reserved": 0, "is_disabled": 0}, {"lat": 38.87637566666667, "fusion_lat": 0.0, "type": "electric_scooter", "bike_id": "31269818e4e9483790936c65a7e8bd69", "rental_uris": {"ios": "https://dc.lft.to/lastmile_qr_scan", "android": "https://dc.lft.to/lastmile_qr_scan"}, "fusion_lon": 0.0, "lon": -77.00308633333333, "name": "31269818e4e9483790936c65a7e8bd69", "is_reserved": 0, "is_disabled": 0}, {"lat": 38.92702366666666, "fusion_lat": 0.0, "type": "electric_scooter", "bike_id": "516ce17e8b76ddf6ea47c8d535536587", "rental_uris": {"ios": "https://dc.lft.to/lastmile_qr_scan", "android": "https://dc.lft.to/lastmile_qr_scan"}, "fusion_lon": 0.0, "lon": -77.0208355, "name": "516ce17e8b76ddf6ea47c8d535536587", "is_reserved": 0, "is_disabled": 0}, {"lat": 38.84129083333333, "fusion_lat": 0.0, "type": "electric_bike", "bike_id": "f3047a88c9e97f18dfc19fde452fcc68", "rental_uris": {"ios": "https://dc.lft.to/lastmile_qr_scan", "android": "https://dc.lft.to/lastmile_qr_scan"}, "fusion_lon": 0.0, "lon": -77.06312466666667, "name": "f3047a88c9e97f18dfc19fde452fcc68", "is_reserved": 0, "is_disabled": 0}, {"lat": 38.90277416666667, "fusion_lat": 0.0, "type": "electric_scooter", "bike_id": "99837f36248b1b5f6266414441e5b913", "rental_uris": {"ios": "https://dc.lft.to/lastmile_qr_scan", "android": "https://dc.lft.to/lastmile_qr_scan"}, "fusion_lon": 0.0, "lon": -77.04080266666666, "name": "99837f36248b1b5f6266414441e5b913", "is_reserved": 0, "is_disabled": 0}, {"lat": 38.901629166666666, "fusion_lat": 0.0, "type": "electric_scooter", "bike_id": "95d8712fe15fcf157428c262dca98485", "rental_uris": {"ios": "https://dc.lft.to/lastmile_qr_scan", "android": "https://dc.lft.to/lastmile_qr_scan"}, "fusion_lon": 0.0, "lon": -77.02704133333333, "name": "95d8712fe15fcf157428c262dca98485", "is_reserved": 0, "is_disabled": 0}, {"lat": 38.908573833333335, "fusion_lat": 0.0, "type": "electric_scooter", "bike_id": "f14a734c7e39d2fc894cffa1782e73a7", "rental_uris": {"ios": "https://dc.lft.to/lastmile_qr_scan", "android": "https://dc.lft.to/lastmile_qr_scan"}, "fusion_lon": 0.0, "lon": -77.02400133333333, "name": "f14a734c7e39d2fc894cffa1782e73a7", "is_reserved": 0, "is_disabled": 0}, {"lat": 38.900387, "fusion_lat": 0.0, "type": "electric_scooter", "bike_id": "bb6335af41b96e0d197e82c34e349193", "rental_uris": {"ios": "https://dc.lft.to/lastmile_qr_scan", "android": "https://dc.lft.to/lastmile_qr_scan"}, "fusion_lon": 0.0, "lon": -77.03995266666666, "name": "bb6335af41b96e0d197e82c34e349193", "is_reserved": 0, "is_disabled": 0}, {"lat": 38.887572166666665, "fusion_lat": 0.0, "type": "electric_scooter", "bike_id": "5324180210c895e26545b7f6a5010e34", "rental_uris": {"ios": "https://dc.lft.to/lastmile_qr_scan", "android": "https://dc.lft.to/lastmile_qr_scan"}, "fusion_lon": 0.0, "lon": -76.986924, "name": "5324180210c895e26545b7f6a5010e34", "is_reserved": 0, "is_disabled": 0}, {"lat": 38.897185, "fusion_lat": 0.0, "type": "electric_scooter", "bike_id": "d21bf4499d0fddb97945fae02ab7e0fa", "rental_uris": {"ios": "https://dc.lft.to/lastmile_qr_scan", "android": "https://dc.lft.to/lastmile_qr_scan"}, "fusion_lon": 0.0, "lon": -77.00797816666666, "name": "d21bf4499d0fddb97945fae02ab7e0fa", "is_reserved": 0, "is_disabled": 0}, {"lat": 38.90077, "fusion_lat": 0.0, "type": "electric_scooter", "bike_id": "0e1e056060ecdbd0a9a4a83c9d58d132", "rental_uris": {"ios": "https://dc.lft.to/lastmile_qr_scan", "android": "https://dc.lft.to/lastmile_qr_scan"}, "fusion_lon": 0.0, "lon": -77.04473583333333, "name": "0e1e056060ecdbd0a9a4a83c9d58d132", "is_reserved": 0, "is_disabled": 0}, {"lat": 38.92013733333334, "fusion_lat": 0.0, "type": "electric_scooter", "bike_id": "2b009469f65a3a9b0e7539d335a65596", "rental_uris": {"ios": "https://dc.lft.to/lastmile_qr_scan", "android": "https://dc.lft.to/lastmile_qr_scan"}, "fusion_lon": 0.0, "lon": -77.02187916666666, "name": "2b009469f65a3a9b0e7539d335a65596", "is_reserved": 0, "is_disabled": 0}, {"lat": 38.87716983333333, "fusion_lat": 0.0, "type": "electric_scooter", "bike_id": "fb8fbbf216fd1f1f5b61675ff53b42d9", "rental_uris": {"ios": "https://dc.lft.to/lastmile_qr_scan", "android": "https://dc.lft.to/lastmile_qr_scan"}, "fusion_lon": 0.0, "lon": -77.01755883333334, "name": "fb8fbbf216fd1f1f5b61675ff53b42d9", "is_reserved": 0, "is_disabled": 0}, {"lat": 38.90007766666667, "fusion_lat": 0.0, "type": "electric_scooter", "bike_id": "79f5fa48b21f9a981858ee7aa6417e51", "rental_uris": {"ios": "https://dc.lft.to/lastmile_qr_scan", "android": "https://dc.lft.to/lastmile_qr_scan"}, "fusion_lon": 0.0, "lon": -77.00672683333333, "name": "79f5fa48b21f9a981858ee7aa6417e51", "is_reserved": 0, "is_disabled": 0}, {"lat": 38.912010333333335, "fusion_lat": 0.0, "type": "electric_scooter", "bike_id": "3b2fd023f3334680d60d838c4035ef53", "rental_uris": {"ios": "https://dc.lft.to/lastmile_qr_scan", "android": "https://dc.lft.to/lastmile_qr_scan"}, "fusion_lon": 0.0, "lon": -77.04537516666667, "name": "3b2fd023f3334680d60d838c4035ef53", "is_reserved": 0, "is_disabled": 0}, {"lat": 38.93772533333333, "fusion_lat": 0.0, "type": "electric_scooter", "bike_id": "92acf9adbe514b1e3cc4f40ebfcfa6dc", "rental_uris": {"ios": "https://dc.lft.to/lastmile_qr_scan", "android": "https://dc.lft.to/lastmile_qr_scan"}, "fusion_lon": 0.0, "lon": -77.03282483333334, "name": "92acf9adbe514b1e3cc4f40ebfcfa6dc", "is_reserved": 0, "is_disabled": 0}, {"lat": 38.907509833333336, "fusion_lat": 0.0, "type": "electric_scooter", "bike_id": "4c62942a02367ba87e254f0e9803d94a", "rental_uris": {"ios": "https://dc.lft.to/lastmile_qr_scan", "android": "https://dc.lft.to/lastmile_qr_scan"}, "fusion_lon": 0.0, "lon": -77.0259905, "name": "4c62942a02367ba87e254f0e9803d94a", "is_reserved": 0, "is_disabled": 0}, {"lat": 38.90137, "fusion_lat": 0.0, "type": "electric_scooter", "bike_id": "77f51dd4df20d11d11b8986f8d92cd23", "rental_uris": {"ios": "https://dc.lft.to/lastmile_qr_scan", "android": "https://dc.lft.to/lastmile_qr_scan"}, "fusion_lon": 0.0, "lon": -77.02572916666666, "name": "77f51dd4df20d11d11b8986f8d92cd23", "is_reserved": 0, "is_disabled": 0}, {"lat": 38.8975675, "fusion_lat": 0.0, "type": "electric_scooter", "bike_id": "dc13f990ff96711c2b3b84eacc568134", "rental_uris": {"ios": "https://dc.lft.to/lastmile_qr_scan", "android": "https://dc.lft.to/lastmile_qr_scan"}, "fusion_lon": 0.0, "lon": -76.98646133333334, "name": "dc13f990ff96711c2b3b84eacc568134", "is_reserved": 0, "is_disabled": 0}, {"lat": 38.89668366666667, "fusion_lat": 0.0, "type": "electric_scooter", "bike_id": "6a63faa5c8d82a1bcb2187612a7216db", "rental_uris": {"ios": "https://dc.lft.to/lastmile_qr_scan", "android": "https://dc.lft.to/lastmile_qr_scan"}, "fusion_lon": 0.0, "lon": -76.93211583333333, "name": "6a63faa5c8d82a1bcb2187612a7216db", "is_reserved": 0, "is_disabled": 0}, {"lat": 38.90671716666667, "fusion_lat": 0.0, "type": "electric_scooter", "bike_id": "757096e0a7ad3e416b5268d490076930", "rental_uris": {"ios": "https://dc.lft.to/lastmile_qr_scan", "android": "https://dc.lft.to/lastmile_qr_scan"}, "fusion_lon": 0.0, "lon": -77.02721, "name": "757096e0a7ad3e416b5268d490076930", "is_reserved": 0, "is_disabled": 0}, {"lat": 38.8873895, "fusion_lat": 0.0, "type": "electric_scooter", "bike_id": "c420060b454a25a1a052e1d2092e79d4", "rental_uris": {"ios": "https://dc.lft.to/lastmile_qr_scan", "android": "https://dc.lft.to/lastmile_qr_scan"}, "fusion_lon": 0.0, "lon": -77.015327, "name": "c420060b454a25a1a052e1d2092e79d4", "is_reserved": 0, "is_disabled": 0}, {"lat": 38.89881483333333, "fusion_lat": 0.0, "type": "electric_scooter", "bike_id": "702d62d17000ce92601992dc4bb91685", "rental_uris": {"ios": "https://dc.lft.to/lastmile_qr_scan", "android": "https://dc.lft.to/lastmile_qr_scan"}, "fusion_lon": 0.0, "lon": -77.043557, "name": "702d62d17000ce92601992dc4bb91685", "is_reserved": 0, "is_disabled": 0}, {"lat": 38.926219833333334, "fusion_lat": 0.0, "type": "electric_scooter", "bike_id": "0f4f5112ca9fd60a1d10309d560e98f7", "rental_uris": {"ios": "https://dc.lft.to/lastmile_qr_scan", "android": "https://dc.lft.to/lastmile_qr_scan"}, "fusion_lon": 0.0, "lon": -77.04191066666667, "name": "0f4f5112ca9fd60a1d10309d560e98f7", "is_reserved": 0, "is_disabled": 0}, {"lat": 38.85086916666667, "fusion_lat": 0.0, "type": "electric_bike", "bike_id": "59033d20ecb48407a01b56b307f33c8f", "rental_uris": {"ios": "https://dc.lft.to/lastmile_qr_scan", "android": "https://dc.lft.to/lastmile_qr_scan"}, "fusion_lon": 0.0, "lon": -76.95706333333334, "name": "59033d20ecb48407a01b56b307f33c8f", "is_reserved": 0, "is_disabled": 0}, {"lat": 38.91819016666667, "fusion_lat": 0.0, "type": "electric_scooter", "bike_id": "9c5f696c2fd3e4e5fb6e12dd3e0ad4e8", "rental_uris": {"ios": "https://dc.lft.to/lastmile_qr_scan", "android": "https://dc.lft.to/lastmile_qr_scan"}, "fusion_lon": 0.0, "lon": -77.041778, "name": "9c5f696c2fd3e4e5fb6e12dd3e0ad4e8", "is_reserved": 0, "is_disabled": 0}, {"lat": 38.89822866666667, "fusion_lat": 0.0, "type": "electric_scooter", "bike_id": "5afad47b53b07a3b4c7470937a0a1ec0", "rental_uris": {"ios": "https://dc.lft.to/lastmile_qr_scan", "android": "https://dc.lft.to/lastmile_qr_scan"}, "fusion_lon": 0.0, "lon": -77.0315995, "name": "5afad47b53b07a3b4c7470937a0a1ec0", "is_reserved": 0, "is_disabled": 0}, {"lat": 38.96446066666667, "fusion_lat": 0.0, "type": "electric_scooter", "bike_id": "ba68fca260604ba7d9e257604b843918", "rental_uris": {"ios": "https://dc.lft.to/lastmile_qr_scan", "android": "https://dc.lft.to/lastmile_qr_scan"}, "fusion_lon": 0.0, "lon": -77.01998533333334, "name": "ba68fca260604ba7d9e257604b843918", "is_reserved": 0, "is_disabled": 0}, {"lat": 38.921541833333336, "fusion_lat": 0.0, "type": "electric_scooter", "bike_id": "7728b227fb01b3525b6cfd3ea33d5ca6", "rental_uris": {"ios": "https://dc.lft.to/lastmile_qr_scan", "android": "https://dc.lft.to/lastmile_qr_scan"}, "fusion_lon": 0.0, "lon": -77.03462366666666, "name": "7728b227fb01b3525b6cfd3ea33d5ca6", "is_reserved": 0, "is_disabled": 0}, {"lat": 38.873412333333334, "fusion_lat": 0.0, "type": "electric_scooter", "bike_id": "6c505a3211e6d6c6af8e349a5fbddde7", "rental_uris": {"ios": "https://dc.lft.to/lastmile_qr_scan", "android": "https://dc.lft.to/lastmile_qr_scan"}, "fusion_lon": 0.0, "lon": -76.9916465, "name": "6c505a3211e6d6c6af8e349a5fbddde7", "is_reserved": 0, "is_disabled": 0}, {"lat": 38.918380666666664, "fusion_lat": 0.0, "type": "electric_scooter", "bike_id": "4536b5a906ba97654eddef4e6e164193", "rental_uris": {"ios": "https://dc.lft.to/lastmile_qr_scan", "android": "https://dc.lft.to/lastmile_qr_scan"}, "fusion_lon": 0.0, "lon": -76.96555433333333, "name": "4536b5a906ba97654eddef4e6e164193", "is_reserved": 0, "is_disabled": 0}, {"lat": 38.923157333333336, "fusion_lat": 0.0, "type": "electric_scooter", "bike_id": "d95e0042dfb8af06debf573aca16dc3e", "rental_uris": {"ios": "https://dc.lft.to/lastmile_qr_scan", "android": "https://dc.lft.to/lastmile_qr_scan"}, "fusion_lon": 0.0, "lon": -77.02907416666666, "name": "d95e0042dfb8af06debf573aca16dc3e", "is_reserved": 0, "is_disabled": 0}, {"lat": 38.91266266666667, "fusion_lat": 0.0, "type": "electric_scooter", "bike_id": "84f93b4a356580509671c71a62a6b9ac", "rental_uris": {"ios": "https://dc.lft.to/lastmile_qr_scan", "android": "https://dc.lft.to/lastmile_qr_scan"}, "fusion_lon": 0.0, "lon": -77.03859166666666, "name": "84f93b4a356580509671c71a62a6b9ac", "is_reserved": 0, "is_disabled": 0}, {"lat": 38.95747133333333, "fusion_lat": 0.0, "type": "electric_scooter", "bike_id": "bdd41f7e9aa0a91f4b0ca8d6b3d12cf8", "rental_uris": {"ios": "https://dc.lft.to/lastmile_qr_scan", "android": "https://dc.lft.to/lastmile_qr_scan"}, "fusion_lon": 0.0, "lon": -77.0024035, "name": "bdd41f7e9aa0a91f4b0ca8d6b3d12cf8", "is_reserved": 0, "is_disabled": 0}, {"lat": 38.84280966666667, "fusion_lat": 0.0, "type": "electric_bike", "bike_id": "d48ba12ee3f1f030872059b18ef3cc50", "rental_uris": {"ios": "https://dc.lft.to/lastmile_qr_scan", "android": "https://dc.lft.to/lastmile_qr_scan"}, "fusion_lon": 0.0, "lon": -76.98848766666667, "name": "d48ba12ee3f1f030872059b18ef3cc50", "is_reserved": 0, "is_disabled": 0}, {"lat": 38.917121333333334, "fusion_lat": 0.0, "type": "electric_scooter", "bike_id": "48502ab5b2812244a1b47e95958d5ae5", "rental_uris": {"ios": "https://dc.lft.to/lastmile_qr_scan", "android": "https://dc.lft.to/lastmile_qr_scan"}, "fusion_lon": 0.0, "lon": -77.02504116666667, "name": "48502ab5b2812244a1b47e95958d5ae5", "is_reserved": 0, "is_disabled": 0}, {"lat": 38.9146525, "fusion_lat": 0.0, "type": "electric_scooter", "bike_id": "34b3172022e3714d7cbf710204a2d3fd", "rental_uris": {"ios": "https://dc.lft.to/lastmile_qr_scan", "android": "https://dc.lft.to/lastmile_qr_scan"}, "fusion_lon": 0.0, "lon": -77.01560633333334, "name": "34b3172022e3714d7cbf710204a2d3fd", "is_reserved": 0, "is_disabled": 0}, {"lat": 38.942631166666665, "fusion_lat": 0.0, "type": "electric_bike", "bike_id": "c65ba98e653a72669efc0c36c8f5f926", "rental_uris": {"ios": "https://dc.lft.to/lastmile_qr_scan", "android": "https://dc.lft.to/lastmile_qr_scan"}, "fusion_lon": 0.0, "lon": -77.0284255, "name": "c65ba98e653a72669efc0c36c8f5f926", "is_reserved": 0, "is_disabled": 0}, {"lat": 38.919140666666664, "fusion_lat": 0.0, "type": "electric_scooter", "bike_id": "b14d4305e3b84e4c536af255d4a0c039", "rental_uris": {"ios": "https://dc.lft.to/lastmile_qr_scan", "android": "https://dc.lft.to/lastmile_qr_scan"}, "fusion_lon": 0.0, "lon": -77.02501816666667, "name": "b14d4305e3b84e4c536af255d4a0c039", "is_reserved": 0, "is_disabled": 0}, {"lat": 38.92094616666667, "fusion_lat": 0.0, "type": "electric_scooter", "bike_id": "a665907b924a342cdfe8ef8ebd5b379b", "rental_uris": {"ios": "https://dc.lft.to/lastmile_qr_scan", "android": "https://dc.lft.to/lastmile_qr_scan"}, "fusion_lon": 0.0, "lon": -77.02221116666666, "name": "a665907b924a342cdfe8ef8ebd5b379b", "is_reserved": 0, "is_disabled": 0}, {"lat": 38.873701833333335, "fusion_lat": 0.0, "type": "electric_scooter", "bike_id": "5fac5314333da899a8d842fbd9d33071", "rental_uris": {"ios": "https://dc.lft.to/lastmile_qr_scan", "android": "https://dc.lft.to/lastmile_qr_scan"}, "fusion_lon": 0.0, "lon": -77.00166416666667, "name": "5fac5314333da899a8d842fbd9d33071", "is_reserved": 0, "is_disabled": 0}, {"lat": 38.886304333333335, "fusion_lat": 0.0, "type": "electric_scooter", "bike_id": "935d87ec812329f9a81e1d834f5bd184", "rental_uris": {"ios": "https://dc.lft.to/lastmile_qr_scan", "android": "https://dc.lft.to/lastmile_qr_scan"}, "fusion_lon": 0.0, "lon": -76.92594666666666, "name": "935d87ec812329f9a81e1d834f5bd184", "is_reserved": 0, "is_disabled": 0}, {"lat": 38.8786705, "fusion_lat": 0.0, "type": "electric_scooter", "bike_id": "f66688970430fc64bf06805a446d8b8d", "rental_uris": {"ios": "https://dc.lft.to/lastmile_qr_scan", "android": "https://dc.lft.to/lastmile_qr_scan"}, "fusion_lon": 0.0, "lon": -76.9626045, "name": "f66688970430fc64bf06805a446d8b8d", "is_reserved": 0, "is_disabled": 0}, {"lat": 38.919789, "fusion_lat": 0.0, "type": "electric_scooter", "bike_id": "78053a73f4124523fc52efbf75b66fa8", "rental_uris": {"ios": "https://dc.lft.to/lastmile_qr_scan", "android": "https://dc.lft.to/lastmile_qr_scan"}, "fusion_lon": 0.0, "lon": -77.0337225, "name": "78053a73f4124523fc52efbf75b66fa8", "is_reserved": 0, "is_disabled": 0}, {"lat": 38.91363833333333, "fusion_lat": 0.0, "type": "electric_scooter", "bike_id": "4c0a4355a2f53fe88fdf8eadf3865716", "rental_uris": {"ios": "https://dc.lft.to/lastmile_qr_scan", "android": "https://dc.lft.to/lastmile_qr_scan"}, "fusion_lon": 0.0, "lon": -77.03965183333334, "name": "4c0a4355a2f53fe88fdf8eadf3865716", "is_reserved": 0, "is_disabled": 0}, {"lat": 38.9191355, "fusion_lat": 0.0, "type": "electric_scooter", "bike_id": "6b447e0515c4bbebc830ba69357aa4b5", "rental_uris": {"ios": "https://dc.lft.to/lastmile_qr_scan", "android": "https://dc.lft.to/lastmile_qr_scan"}, "fusion_lon": 0.0, "lon": -77.04467183333334, "name": "6b447e0515c4bbebc830ba69357aa4b5", "is_reserved": 0, "is_disabled": 0}, {"lat": 38.906226333333336, "fusion_lat": 0.0, "type": "electric_scooter", "bike_id": "917d88b7b772592f7f4cf8510aa780b6", "rental_uris": {"ios": "https://dc.lft.to/lastmile_qr_scan", "android": "https://dc.lft.to/lastmile_qr_scan"}, "fusion_lon": 0.0, "lon": -77.03892933333333, "name": "917d88b7b772592f7f4cf8510aa780b6", "is_reserved": 0, "is_disabled": 0}, {"lat": 38.9128025, "fusion_lat": 0.0, "type": "electric_scooter", "bike_id": "8e5f87fab30a715f34edc76e1e407a6a", "rental_uris": {"ios": "https://dc.lft.to/lastmile_qr_scan", "android": "https://dc.lft.to/lastmile_qr_scan"}, "fusion_lon": 0.0, "lon": -77.0450875, "name": "8e5f87fab30a715f34edc76e1e407a6a", "is_reserved": 0, "is_disabled": 0}, {"lat": 38.899273, "fusion_lat": 0.0, "type": "electric_scooter", "bike_id": "e9f5838ee3bbac80b3fce59f1c40c800", "rental_uris": {"ios": "https://dc.lft.to/lastmile_qr_scan", "android": "https://dc.lft.to/lastmile_qr_scan"}, "fusion_lon": 0.0, "lon": -77.0500755, "name": "e9f5838ee3bbac80b3fce59f1c40c800", "is_reserved": 0, "is_disabled": 0}, {"lat": 38.905741666666664, "fusion_lat": 0.0, "type": "electric_scooter", "bike_id": "05ae0806b75dc132ea638b1849c8ff7f", "rental_uris": {"ios": "https://dc.lft.to/lastmile_qr_scan", "android": "https://dc.lft.to/lastmile_qr_scan"}, "fusion_lon": 0.0, "lon": -77.0185435, "name": "05ae0806b75dc132ea638b1849c8ff7f", "is_reserved": 0, "is_disabled": 0}, {"lat": 38.8982135, "fusion_lat": 0.0, "type": "electric_scooter", "bike_id": "0fdc758d664e3dd1d0e47a08f6c7fe9b", "rental_uris": {"ios": "https://dc.lft.to/lastmile_qr_scan", "android": "https://dc.lft.to/lastmile_qr_scan"}, "fusion_lon": 0.0, "lon": -77.015381, "name": "0fdc758d664e3dd1d0e47a08f6c7fe9b", "is_reserved": 0, "is_disabled": 0}, {"lat": 38.90717216666667, "fusion_lat": 0.0, "type": "electric_scooter", "bike_id": "2330b67683fd170482d5527eb603e5d0", "rental_uris": {"ios": "https://dc.lft.to/lastmile_qr_scan", "android": "https://dc.lft.to/lastmile_qr_scan"}, "fusion_lon": 0.0, "lon": -77.0762635, "name": "2330b67683fd170482d5527eb603e5d0", "is_reserved": 0, "is_disabled": 0}, {"lat": 38.897118166666665, "fusion_lat": 0.0, "type": "electric_scooter", "bike_id": "d7efc3d2f3079805a0e377f520c700d4", "rental_uris": {"ios": "https://dc.lft.to/lastmile_qr_scan", "android": "https://dc.lft.to/lastmile_qr_scan"}, "fusion_lon": 0.0, "lon": -77.00798566666667, "name": "d7efc3d2f3079805a0e377f520c700d4", "is_reserved": 0, "is_disabled": 0}, {"lat": 38.89876683333333, "fusion_lat": 0.0, "type": "electric_scooter", "bike_id": "9017af420fd5acf2db669a3bd825d164", "rental_uris": {"ios": "https://dc.lft.to/lastmile_qr_scan", "android": "https://dc.lft.to/lastmile_qr_scan"}, "fusion_lon": 0.0, "lon": -76.931889, "name": "9017af420fd5acf2db669a3bd825d164", "is_reserved": 0, "is_disabled": 0}, {"lat": 38.901222, "fusion_lat": 0.0, "type": "electric_scooter", "bike_id": "433f07faa803660c9c985c72a652fdcc", "rental_uris": {"ios": "https://dc.lft.to/lastmile_qr_scan", "android": "https://dc.lft.to/lastmile_qr_scan"}, "fusion_lon": 0.0, "lon": -77.017522, "name": "433f07faa803660c9c985c72a652fdcc", "is_reserved": 0, "is_disabled": 0}, {"lat": 38.89859383333334, "fusion_lat": 0.0, "type": "electric_scooter", "bike_id": "cd0d17b10902af55bae9d8ea6cf9bec4", "rental_uris": {"ios": "https://dc.lft.to/lastmile_qr_scan", "android": "https://dc.lft.to/lastmile_qr_scan"}, "fusion_lon": 0.0, "lon": -77.01379216666666, "name": "cd0d17b10902af55bae9d8ea6cf9bec4", "is_reserved": 0, "is_disabled": 0}, {"lat": 38.889344, "fusion_lat": 0.0, "type": "electric_scooter", "bike_id": "309c906638055cff046541655e8c34e8", "rental_uris": {"ios": "https://dc.lft.to/lastmile_qr_scan", "android": "https://dc.lft.to/lastmile_qr_scan"}, "fusion_lon": 0.0, "lon": -76.99373566666667, "name": "309c906638055cff046541655e8c34e8", "is_reserved": 0, "is_disabled": 0}, {"lat": 38.912630166666666, "fusion_lat": 0.0, "type": "electric_scooter", "bike_id": "a6f5a8a25a35778586049d4ade02003f", "rental_uris": {"ios": "https://dc.lft.to/lastmile_qr_scan", "android": "https://dc.lft.to/lastmile_qr_scan"}, "fusion_lon": 0.0, "lon": -77.031822, "name": "a6f5a8a25a35778586049d4ade02003f", "is_reserved": 0, "is_disabled": 0}, {"lat": 38.899653, "fusion_lat": 0.0, "type": "electric_scooter", "bike_id": "223bdd8e9db2bd9415c091ce8b5ba885", "rental_uris": {"ios": "https://dc.lft.to/lastmile_qr_scan", "android": "https://dc.lft.to/lastmile_qr_scan"}, "fusion_lon": 0.0, "lon": -77.0465985, "name": "223bdd8e9db2bd9415c091ce8b5ba885", "is_reserved": 0, "is_disabled": 0}, {"lat": 38.847555, "fusion_lat": 0.0, "type": "electric_scooter", "bike_id": "6c631dbe53dd5ed6cd6cd14970c2ca73", "rental_uris": {"ios": "https://dc.lft.to/lastmile_qr_scan", "android": "https://dc.lft.to/lastmile_qr_scan"}, "fusion_lon": 0.0, "lon": -76.9949935, "name": "6c631dbe53dd5ed6cd6cd14970c2ca73", "is_reserved": 0, "is_disabled": 0}, {"lat": 38.89852533333333, "fusion_lat": 0.0, "type": "electric_scooter", "bike_id": "dd6c924fceca23cd51d03bafdfa722b1", "rental_uris": {"ios": "https://dc.lft.to/lastmile_qr_scan", "android": "https://dc.lft.to/lastmile_qr_scan"}, "fusion_lon": 0.0, "lon": -77.028559, "name": "dd6c924fceca23cd51d03bafdfa722b1", "is_reserved": 0, "is_disabled": 0}, {"lat": 38.9074015, "fusion_lat": 0.0, "type": "electric_scooter", "bike_id": "75aae46b82036dd3337683954c427f70", "rental_uris": {"ios": "https://dc.lft.to/lastmile_qr_scan", "android": "https://dc.lft.to/lastmile_qr_scan"}, "fusion_lon": 0.0, "lon": -77.01309616666667, "name": "75aae46b82036dd3337683954c427f70", "is_reserved": 0, "is_disabled": 0}, {"lat": 38.924444666666666, "fusion_lat": 0.0, "type": "electric_scooter", "bike_id": "7a50e4c6766b4f53f52846e5a23c5494", "rental_uris": {"ios": "https://dc.lft.to/lastmile_qr_scan", "android": "https://dc.lft.to/lastmile_qr_scan"}, "fusion_lon": 0.0, "lon": -77.02026316666667, "name": "7a50e4c6766b4f53f52846e5a23c5494", "is_reserved": 0, "is_disabled": 0}, {"lat": 38.898353166666666, "fusion_lat": 0.0, "type": "electric_scooter", "bike_id": "b507c8ce231667c5b1e658a3bc89d0f7", "rental_uris": {"ios": "https://dc.lft.to/lastmile_qr_scan", "android": "https://dc.lft.to/lastmile_qr_scan"}, "fusion_lon": 0.0, "lon": -77.00749766666667, "name": "b507c8ce231667c5b1e658a3bc89d0f7", "is_reserved": 0, "is_disabled": 0}, {"lat": 38.90848, "fusion_lat": 0.0, "type": "electric_scooter", "bike_id": "8f576d76ecc584ee18fb1c0807a1d615", "rental_uris": {"ios": "https://dc.lft.to/lastmile_qr_scan", "android": "https://dc.lft.to/lastmile_qr_scan"}, "fusion_lon": 0.0, "lon": -77.03194066666667, "name": "8f576d76ecc584ee18fb1c0807a1d615", "is_reserved": 0, "is_disabled": 0}, {"lat": 38.9243735, "fusion_lat": 0.0, "type": "electric_scooter", "bike_id": "9de29b5aa7cac3928b7fd9a02d271fa5", "rental_uris": {"ios": "https://dc.lft.to/lastmile_qr_scan", "android": "https://dc.lft.to/lastmile_qr_scan"}, "fusion_lon": 0.0, "lon": -76.98989583333334, "name": "9de29b5aa7cac3928b7fd9a02d271fa5", "is_reserved": 0, "is_disabled": 0}, {"lat": 38.908084833333334, "fusion_lat": 0.0, "type": "electric_scooter", "bike_id": "48251c0699b73c263cb16670d6d3912e", "rental_uris": {"ios": "https://dc.lft.to/lastmile_qr_scan", "android": "https://dc.lft.to/lastmile_qr_scan"}, "fusion_lon": 0.0, "lon": -77.02537166666667, "name": "48251c0699b73c263cb16670d6d3912e", "is_reserved": 0, "is_disabled": 0}, {"lat": 38.89693966666667, "fusion_lat": 0.0, "type": "electric_bike", "bike_id": "da2407d98652cb79f271776decc48895", "rental_uris": {"ios": "https://dc.lft.to/lastmile_qr_scan", "android": "https://dc.lft.to/lastmile_qr_scan"}, "fusion_lon": 0.0, "lon": -76.963068, "name": "da2407d98652cb79f271776decc48895", "is_reserved": 0, "is_disabled": 0}, {"lat": 38.8876935, "fusion_lat": 0.0, "type": "electric_scooter", "bike_id": "8a32b0702ddc920aedf36a4c7915378f", "rental_uris": {"ios": "https://dc.lft.to/lastmile_qr_scan", "android": "https://dc.lft.to/lastmile_qr_scan"}, "fusion_lon": 0.0, "lon": -76.982951, "name": "8a32b0702ddc920aedf36a4c7915378f", "is_reserved": 0, "is_disabled": 0}, {"lat": 38.9159445, "fusion_lat": 0.0, "type": "electric_scooter", "bike_id": "6eff6b2283b4b0ec94b96b77692c0f74", "rental_uris": {"ios": "https://dc.lft.to/lastmile_qr_scan", "android": "https://dc.lft.to/lastmile_qr_scan"}, "fusion_lon": 0.0, "lon": -77.01477466666667, "name": "6eff6b2283b4b0ec94b96b77692c0f74", "is_reserved": 0, "is_disabled": 0}, {"lat": 38.91848, "fusion_lat": 0.0, "type": "electric_scooter", "bike_id": "fe55c60914f4a0d722b0d547b8381135", "rental_uris": {"ios": "https://dc.lft.to/lastmile_qr_scan", "android": "https://dc.lft.to/lastmile_qr_scan"}, "fusion_lon": 0.0, "lon": -76.96560983333333, "name": "fe55c60914f4a0d722b0d547b8381135", "is_reserved": 0, "is_disabled": 0}, {"lat": 38.90001916666667, "fusion_lat": 0.0, "type": "electric_scooter", "bike_id": "417ab4fde2fe979e0a9f62b3e2244fd5", "rental_uris": {"ios": "https://dc.lft.to/lastmile_qr_scan", "android": "https://dc.lft.to/lastmile_qr_scan"}, "fusion_lon": 0.0, "lon": -77.02091783333333, "name": "417ab4fde2fe979e0a9f62b3e2244fd5", "is_reserved": 0, "is_disabled": 0}, {"lat": 38.9321355, "fusion_lat": 0.0, "type": "electric_scooter", "bike_id": "8a6b81176c2e4b2daac9fe3bebbae869", "rental_uris": {"ios": "https://dc.lft.to/lastmile_qr_scan", "android": "https://dc.lft.to/lastmile_qr_scan"}, "fusion_lon": 0.0, "lon": -77.03521483333333, "name": "8a6b81176c2e4b2daac9fe3bebbae869", "is_reserved": 0, "is_disabled": 0}, {"lat": 38.901519666666665, "fusion_lat": 0.0, "type": "electric_scooter", "bike_id": "65c958ae9803a44896e81e003a607d25", "rental_uris": {"ios": "https://dc.lft.to/lastmile_qr_scan", "android": "https://dc.lft.to/lastmile_qr_scan"}, "fusion_lon": 0.0, "lon": -76.97426633333333, "name": "65c958ae9803a44896e81e003a607d25", "is_reserved": 0, "is_disabled": 0}, {"lat": 38.9198385, "fusion_lat": 0.0, "type": "electric_scooter", "bike_id": "b3b60fc610fff1f537a680f4c8c313a8", "rental_uris": {"ios": "https://dc.lft.to/lastmile_qr_scan", "android": "https://dc.lft.to/lastmile_qr_scan"}, "fusion_lon": 0.0, "lon": -76.973048, "name": "b3b60fc610fff1f537a680f4c8c313a8", "is_reserved": 0, "is_disabled": 0}, {"lat": 38.906734, "fusion_lat": 0.0, "type": "electric_scooter", "bike_id": "4d0e556e1a7ecc57ea850250e23ab9ea", "rental_uris": {"ios": "https://dc.lft.to/lastmile_qr_scan", "android": "https://dc.lft.to/lastmile_qr_scan"}, "fusion_lon": 0.0, "lon": -77.035499, "name": "4d0e556e1a7ecc57ea850250e23ab9ea", "is_reserved": 0, "is_disabled": 0}, {"lat": 38.89803633333333, "fusion_lat": 0.0, "type": "electric_scooter", "bike_id": "71bd87d4b6d7b71689dacca9f2cafb3c", "rental_uris": {"ios": "https://dc.lft.to/lastmile_qr_scan", "android": "https://dc.lft.to/lastmile_qr_scan"}, "fusion_lon": 0.0, "lon": -77.0419635, "name": "71bd87d4b6d7b71689dacca9f2cafb3c", "is_reserved": 0, "is_disabled": 0}, {"lat": 38.9049565, "fusion_lat": 0.0, "type": "electric_scooter", "bike_id": "3d5a47a3dec6654174d1b7bacf88f9ea", "rental_uris": {"ios": "https://dc.lft.to/lastmile_qr_scan", "android": "https://dc.lft.to/lastmile_qr_scan"}, "fusion_lon": 0.0, "lon": -77.02809833333333, "name": "3d5a47a3dec6654174d1b7bacf88f9ea", "is_reserved": 0, "is_disabled": 0}, {"lat": 38.9111285, "fusion_lat": 0.0, "type": "electric_scooter", "bike_id": "0d9bcaa1dac7e88b4673205361248c53", "rental_uris": {"ios": "https://dc.lft.to/lastmile_qr_scan", "android": "https://dc.lft.to/lastmile_qr_scan"}, "fusion_lon": 0.0, "lon": -77.03088583333333, "name": "0d9bcaa1dac7e88b4673205361248c53", "is_reserved": 0, "is_disabled": 0}, {"lat": 38.92034733333333, "fusion_lat": 0.0, "type": "electric_scooter", "bike_id": "ba917e2a10d1b2c6af311fd967d6d847", "rental_uris": {"ios": "https://dc.lft.to/lastmile_qr_scan", "android": "https://dc.lft.to/lastmile_qr_scan"}, "fusion_lon": 0.0, "lon": -77.01222883333334, "name": "ba917e2a10d1b2c6af311fd967d6d847", "is_reserved": 0, "is_disabled": 0}, {"lat": 38.918129666666665, "fusion_lat": 0.0, "type": "electric_scooter", "bike_id": "78318f81eb56ed25b1ce6d3125c00ce3", "rental_uris": {"ios": "https://dc.lft.to/lastmile_qr_scan", "android": "https://dc.lft.to/lastmile_qr_scan"}, "fusion_lon": 0.0, "lon": -77.03459616666666, "name": "78318f81eb56ed25b1ce6d3125c00ce3", "is_reserved": 0, "is_disabled": 0}, {"lat": 38.911002333333336, "fusion_lat": 0.0, "type": "electric_scooter", "bike_id": "88b72a3b579d5304802f9e01bdfc4f23", "rental_uris": {"ios": "https://dc.lft.to/lastmile_qr_scan", "android": "https://dc.lft.to/lastmile_qr_scan"}, "fusion_lon": 0.0, "lon": -77.045016, "name": "88b72a3b579d5304802f9e01bdfc4f23", "is_reserved": 0, "is_disabled": 0}, {"lat": 38.922365166666665, "fusion_lat": 0.0, "type": "electric_scooter", "bike_id": "109636252618def2142aff76b9abd432", "rental_uris": {"ios": "https://dc.lft.to/lastmile_qr_scan", "android": "https://dc.lft.to/lastmile_qr_scan"}, "fusion_lon": 0.0, "lon": -77.0182945, "name": "109636252618def2142aff76b9abd432", "is_reserved": 0, "is_disabled": 0}, {"lat": 38.917583666666665, "fusion_lat": 0.0, "type": "electric_scooter", "bike_id": "fece3eb13af783385f0699ea1b756566", "rental_uris": {"ios": "https://dc.lft.to/lastmile_qr_scan", "android": "https://dc.lft.to/lastmile_qr_scan"}, "fusion_lon": 0.0, "lon": -77.0319605, "name": "fece3eb13af783385f0699ea1b756566", "is_reserved": 0, "is_disabled": 0}, {"lat": 38.916331, "fusion_lat": 0.0, "type": "electric_scooter", "bike_id": "b195fabccf341f3266af54782c65f97b", "rental_uris": {"ios": "https://dc.lft.to/lastmile_qr_scan", "android": "https://dc.lft.to/lastmile_qr_scan"}, "fusion_lon": 0.0, "lon": -77.022323, "name": "b195fabccf341f3266af54782c65f97b", "is_reserved": 0, "is_disabled": 0}, {"lat": 38.8849655, "fusion_lat": 0.0, "type": "electric_scooter", "bike_id": "2c9eb3c2a4cc365ba275270ca74de9b9", "rental_uris": {"ios": "https://dc.lft.to/lastmile_qr_scan", "android": "https://dc.lft.to/lastmile_qr_scan"}, "fusion_lon": 0.0, "lon": -77.02969416666667, "name": "2c9eb3c2a4cc365ba275270ca74de9b9", "is_reserved": 0, "is_disabled": 0}, {"lat": 38.9052695, "fusion_lat": 0.0, "type": "electric_scooter", "bike_id": "5d9b6ba26945df175847e2a0b866d953", "rental_uris": {"ios": "https://dc.lft.to/lastmile_qr_scan", "android": "https://dc.lft.to/lastmile_qr_scan"}, "fusion_lon": 0.0, "lon": -77.06466966666666, "name": "5d9b6ba26945df175847e2a0b866d953", "is_reserved": 0, "is_disabled": 0}, {"lat": 38.902530666666664, "fusion_lat": 0.0, "type": "electric_scooter", "bike_id": "2e6da75c76eba0bd332219b1eeec82a4", "rental_uris": {"ios": "https://dc.lft.to/lastmile_qr_scan", "android": "https://dc.lft.to/lastmile_qr_scan"}, "fusion_lon": 0.0, "lon": -77.035661, "name": "2e6da75c76eba0bd332219b1eeec82a4", "is_reserved": 0, "is_disabled": 0}, {"lat": 38.87979083333333, "fusion_lat": 0.0, "type": "electric_bike", "bike_id": "41454b66268a3f0ae23e4a567a341ba7", "rental_uris": {"ios": "https://dc.lft.to/lastmile_qr_scan", "android": "https://dc.lft.to/lastmile_qr_scan"}, "fusion_lon": 0.0, "lon": -76.98484666666667, "name": "41454b66268a3f0ae23e4a567a341ba7", "is_reserved": 0, "is_disabled": 0}, {"lat": 38.927990333333334, "fusion_lat": 0.0, "type": "electric_scooter", "bike_id": "89a959b8961be401ce99d37a5cb171bf", "rental_uris": {"ios": "https://dc.lft.to/lastmile_qr_scan", "android": "https://dc.lft.to/lastmile_qr_scan"}, "fusion_lon": 0.0, "lon": -77.015529, "name": "89a959b8961be401ce99d37a5cb171bf", "is_reserved": 0, "is_disabled": 0}, {"lat": 38.900288, "fusion_lat": 0.0, "type": "electric_scooter", "bike_id": "b79d22539e1f364b862358421e02c4a5", "rental_uris": {"ios": "https://dc.lft.to/lastmile_qr_scan", "android": "https://dc.lft.to/lastmile_qr_scan"}, "fusion_lon": 0.0, "lon": -77.01222333333334, "name": "b79d22539e1f364b862358421e02c4a5", "is_reserved": 0, "is_disabled": 0}, {"lat": 38.956312, "fusion_lat": 0.0, "type": "electric_bike", "bike_id": "87a9653b31f3933bced6bc46317fbe48", "rental_uris": {"ios": "https://dc.lft.to/lastmile_qr_scan", "android": "https://dc.lft.to/lastmile_qr_scan"}, "fusion_lon": 0.0, "lon": -76.93866233333334, "name": "87a9653b31f3933bced6bc46317fbe48", "is_reserved": 0, "is_disabled": 0}, {"lat": 38.907613833333336, "fusion_lat": 0.0, "type": "electric_scooter", "bike_id": "470a2da3da22949ccb7f7081bba0b527", "rental_uris": {"ios": "https://dc.lft.to/lastmile_qr_scan", "android": "https://dc.lft.to/lastmile_qr_scan"}, "fusion_lon": 0.0, "lon": -77.00042116666667, "name": "470a2da3da22949ccb7f7081bba0b527", "is_reserved": 0, "is_disabled": 0}, {"lat": 38.91010983333334, "fusion_lat": 0.0, "type": "electric_scooter", "bike_id": "c33ac8cd3470283c426b69aa4ad0a3dd", "rental_uris": {"ios": "https://dc.lft.to/lastmile_qr_scan", "android": "https://dc.lft.to/lastmile_qr_scan"}, "fusion_lon": 0.0, "lon": -77.038567, "name": "c33ac8cd3470283c426b69aa4ad0a3dd", "is_reserved": 0, "is_disabled": 0}, {"lat": 38.86727233333333, "fusion_lat": 0.0, "type": "electric_scooter", "bike_id": "359efb889c202e31883f12a96162f40b", "rental_uris": {"ios": "https://dc.lft.to/lastmile_qr_scan", "android": "https://dc.lft.to/lastmile_qr_scan"}, "fusion_lon": 0.0, "lon": -77.01349916666666, "name": "359efb889c202e31883f12a96162f40b", "is_reserved": 0, "is_disabled": 0}, {"lat": 38.914907666666664, "fusion_lat": 0.0, "type": "electric_scooter", "bike_id": "a55178b8c74e37c78d88cb2c8fb88365", "rental_uris": {"ios": "https://dc.lft.to/lastmile_qr_scan", "android": "https://dc.lft.to/lastmile_qr_scan"}, "fusion_lon": 0.0, "lon": -77.0323085, "name": "a55178b8c74e37c78d88cb2c8fb88365", "is_reserved": 0, "is_disabled": 0}, {"lat": 38.918640333333336, "fusion_lat": 0.0, "type": "electric_scooter", "bike_id": "5ef0997027cb48b181288eb8b389b7a3", "rental_uris": {"ios": "https://dc.lft.to/lastmile_qr_scan", "android": "https://dc.lft.to/lastmile_qr_scan"}, "fusion_lon": 0.0, "lon": -77.015611, "name": "5ef0997027cb48b181288eb8b389b7a3", "is_reserved": 0, "is_disabled": 0}, {"lat": 38.898497666666664, "fusion_lat": 0.0, "type": "electric_scooter", "bike_id": "f348d0a842b2ad49589c99aa92f6fa95", "rental_uris": {"ios": "https://dc.lft.to/lastmile_qr_scan", "android": "https://dc.lft.to/lastmile_qr_scan"}, "fusion_lon": 0.0, "lon": -77.0400695, "name": "f348d0a842b2ad49589c99aa92f6fa95", "is_reserved": 0, "is_disabled": 0}, {"lat": 38.898749, "fusion_lat": 0.0, "type": "electric_scooter", "bike_id": "fde9cc32afb54d02217543ef3dfd4e38", "rental_uris": {"ios": "https://dc.lft.to/lastmile_qr_scan", "android": "https://dc.lft.to/lastmile_qr_scan"}, "fusion_lon": 0.0, "lon": -76.93194783333334, "name": "fde9cc32afb54d02217543ef3dfd4e38", "is_reserved": 0, "is_disabled": 0}, {"lat": 38.8975235, "fusion_lat": 0.0, "type": "electric_scooter", "bike_id": "21c7bacacf78d4d96b56ba1efadb6f91", "rental_uris": {"ios": "https://dc.lft.to/lastmile_qr_scan", "android": "https://dc.lft.to/lastmile_qr_scan"}, "fusion_lon": 0.0, "lon": -77.00752233333333, "name": "21c7bacacf78d4d96b56ba1efadb6f91", "is_reserved": 0, "is_disabled": 0}, {"lat": 38.90367483333333, "fusion_lat": 0.0, "type": "electric_scooter", "bike_id": "95cf0aa5e700f3eb07a1f41b5e9b6e07", "rental_uris": {"ios": "https://dc.lft.to/lastmile_qr_scan", "android": "https://dc.lft.to/lastmile_qr_scan"}, "fusion_lon": 0.0, "lon": -77.02214716666667, "name": "95cf0aa5e700f3eb07a1f41b5e9b6e07", "is_reserved": 0, "is_disabled": 0}, {"lat": 38.91108833333333, "fusion_lat": 0.0, "type": "electric_scooter", "bike_id": "c9804380ad4fcba3ceb6996f3c2f42a6", "rental_uris": {"ios": "https://dc.lft.to/lastmile_qr_scan", "android": "https://dc.lft.to/lastmile_qr_scan"}, "fusion_lon": 0.0, "lon": -77.02418883333333, "name": "c9804380ad4fcba3ceb6996f3c2f42a6", "is_reserved": 0, "is_disabled": 0}, {"lat": 38.857223833333336, "fusion_lat": 0.0, "type": "electric_bike", "bike_id": "d2424b8969b27c36cd71b7fc9146d9fe", "rental_uris": {"ios": "https://dc.lft.to/lastmile_qr_scan", "android": "https://dc.lft.to/lastmile_qr_scan"}, "fusion_lon": 0.0, "lon": -76.97772583333334, "name": "d2424b8969b27c36cd71b7fc9146d9fe", "is_reserved": 0, "is_disabled": 0}, {"lat": 38.9224075, "fusion_lat": 0.0, "type": "electric_scooter", "bike_id": "0becbde5eb71893d674e2c61d7c279a5", "rental_uris": {"ios": "https://dc.lft.to/lastmile_qr_scan", "android": "https://dc.lft.to/lastmile_qr_scan"}, "fusion_lon": 0.0, "lon": -77.022009, "name": "0becbde5eb71893d674e2c61d7c279a5", "is_reserved": 0, "is_disabled": 0}, {"lat": 38.934165166666666, "fusion_lat": 0.0, "type": "electric_bike", "bike_id": "75fed237294ca8935e1bbf99f0b4f874", "rental_uris": {"ios": "https://dc.lft.to/lastmile_qr_scan", "android": "https://dc.lft.to/lastmile_qr_scan"}, "fusion_lon": 0.0, "lon": -77.04305366666667, "name": "75fed237294ca8935e1bbf99f0b4f874", "is_reserved": 0, "is_disabled": 0}, {"lat": 38.88486266666666, "fusion_lat": 0.0, "type": "electric_scooter", "bike_id": "e668118bca85ce1551ebbd60e35da294", "rental_uris": {"ios": "https://dc.lft.to/lastmile_qr_scan", "android": "https://dc.lft.to/lastmile_qr_scan"}, "fusion_lon": 0.0, "lon": -76.99703466666666, "name": "e668118bca85ce1551ebbd60e35da294", "is_reserved": 0, "is_disabled": 0}, {"lat": 38.91843033333333, "fusion_lat": 0.0, "type": "electric_scooter", "bike_id": "106917ade71e4fdf10c1f8e0dd47367b", "rental_uris": {"ios": "https://dc.lft.to/lastmile_qr_scan", "android": "https://dc.lft.to/lastmile_qr_scan"}, "fusion_lon": 0.0, "lon": -77.04015583333333, "name": "106917ade71e4fdf10c1f8e0dd47367b", "is_reserved": 0, "is_disabled": 0}, {"lat": 38.91577316666667, "fusion_lat": 0.0, "type": "electric_scooter", "bike_id": "01810a51bb8893dc2ae9701b573d04ff", "rental_uris": {"ios": "https://dc.lft.to/lastmile_qr_scan", "android": "https://dc.lft.to/lastmile_qr_scan"}, "fusion_lon": 0.0, "lon": -77.02189016666667, "name": "01810a51bb8893dc2ae9701b573d04ff", "is_reserved": 0, "is_disabled": 0}, {"lat": 38.924930833333335, "fusion_lat": 0.0, "type": "electric_scooter", "bike_id": "7b9267621de216ae566fc901888c557f", "rental_uris": {"ios": "https://dc.lft.to/lastmile_qr_scan", "android": "https://dc.lft.to/lastmile_qr_scan"}, "fusion_lon": 0.0, "lon": -77.02452783333334, "name": "7b9267621de216ae566fc901888c557f", "is_reserved": 0, "is_disabled": 0}, {"lat": 38.909449333333335, "fusion_lat": 0.0, "type": "electric_scooter", "bike_id": "277081793680af1d62d424554daf966d", "rental_uris": {"ios": "https://dc.lft.to/lastmile_qr_scan", "android": "https://dc.lft.to/lastmile_qr_scan"}, "fusion_lon": 0.0, "lon": -77.03442016666666, "name": "277081793680af1d62d424554daf966d", "is_reserved": 0, "is_disabled": 0}, {"lat": 38.916741, "fusion_lat": 0.0, "type": "electric_scooter", "bike_id": "c6d00e3bb2cfa4df45b8d2d35648f4aa", "rental_uris": {"ios": "https://dc.lft.to/lastmile_qr_scan", "android": "https://dc.lft.to/lastmile_qr_scan"}, "fusion_lon": 0.0, "lon": -77.02720283333333, "name": "c6d00e3bb2cfa4df45b8d2d35648f4aa", "is_reserved": 0, "is_disabled": 0}, {"lat": 38.911247333333336, "fusion_lat": 0.0, "type": "electric_scooter", "bike_id": "366982f9f895dafb61b0a11cef3c9082", "rental_uris": {"ios": "https://dc.lft.to/lastmile_qr_scan", "android": "https://dc.lft.to/lastmile_qr_scan"}, "fusion_lon": 0.0, "lon": -77.03186816666667, "name": "366982f9f895dafb61b0a11cef3c9082", "is_reserved": 0, "is_disabled": 0}, {"lat": 38.917444833333334, "fusion_lat": 0.0, "type": "electric_scooter", "bike_id": "04e4adf306f702699172f738e21c3332", "rental_uris": {"ios": "https://dc.lft.to/lastmile_qr_scan", "android": "https://dc.lft.to/lastmile_qr_scan"}, "fusion_lon": 0.0, "lon": -77.06939, "name": "04e4adf306f702699172f738e21c3332", "is_reserved": 0, "is_disabled": 0}, {"lat": 38.915768666666665, "fusion_lat": 0.0, "type": "electric_scooter", "bike_id": "82ff5d8a2c7a2861aa475a4a7aa26c9e", "rental_uris": {"ios": "https://dc.lft.to/lastmile_qr_scan", "android": "https://dc.lft.to/lastmile_qr_scan"}, "fusion_lon": 0.0, "lon": -77.02196466666666, "name": "82ff5d8a2c7a2861aa475a4a7aa26c9e", "is_reserved": 0, "is_disabled": 0}, {"lat": 38.95770983333333, "fusion_lat": 0.0, "type": "electric_scooter", "bike_id": "3e1efb5a090a13cb0774b50faa5eade3", "rental_uris": {"ios": "https://dc.lft.to/lastmile_qr_scan", "android": "https://dc.lft.to/lastmile_qr_scan"}, "fusion_lon": 0.0, "lon": -77.01494, "name": "3e1efb5a090a13cb0774b50faa5eade3", "is_reserved": 0, "is_disabled": 0}, {"lat": 38.901638166666665, "fusion_lat": 0.0, "type": "electric_scooter", "bike_id": "e54f3094a1ab0b76ecc096fc8f420d48", "rental_uris": {"ios": "https://dc.lft.to/lastmile_qr_scan", "android": "https://dc.lft.to/lastmile_qr_scan"}, "fusion_lon": 0.0, "lon": -77.0465125, "name": "e54f3094a1ab0b76ecc096fc8f420d48", "is_reserved": 0, "is_disabled": 0}, {"lat": 38.91775366666667, "fusion_lat": 0.0, "type": "electric_scooter", "bike_id": "d1cef01039897ab3f3fa305fa7d636dc", "rental_uris": {"ios": "https://dc.lft.to/lastmile_qr_scan", "android": "https://dc.lft.to/lastmile_qr_scan"}, "fusion_lon": 0.0, "lon": -77.03185166666667, "name": "d1cef01039897ab3f3fa305fa7d636dc", "is_reserved": 0, "is_disabled": 0}, {"lat": 38.87490416666667, "fusion_lat": 0.0, "type": "electric_scooter", "bike_id": "6a4946c75af90ef9061a51d796991bf8", "rental_uris": {"ios": "https://dc.lft.to/lastmile_qr_scan", "android": "https://dc.lft.to/lastmile_qr_scan"}, "fusion_lon": 0.0, "lon": -77.00178133333333, "name": "6a4946c75af90ef9061a51d796991bf8", "is_reserved": 0, "is_disabled": 0}, {"lat": 38.90027, "fusion_lat": 0.0, "type": "electric_scooter", "bike_id": "8ee8d4c5e937513bd50203b0d099988e", "rental_uris": {"ios": "https://dc.lft.to/lastmile_qr_scan", "android": "https://dc.lft.to/lastmile_qr_scan"}, "fusion_lon": 0.0, "lon": -76.99188666666667, "name": "8ee8d4c5e937513bd50203b0d099988e", "is_reserved": 0, "is_disabled": 0}, {"lat": 38.87400216666666, "fusion_lat": 0.0, "type": "electric_scooter", "bike_id": "2adb040b39c28064166b84a7cf71bd56", "rental_uris": {"ios": "https://dc.lft.to/lastmile_qr_scan", "android": "https://dc.lft.to/lastmile_qr_scan"}, "fusion_lon": 0.0, "lon": -77.00031183333333, "name": "2adb040b39c28064166b84a7cf71bd56", "is_reserved": 0, "is_disabled": 0}, {"lat": 38.903070666666665, "fusion_lat": 0.0, "type": "electric_scooter", "bike_id": "81499e72c0d4b52addfc3e19b2c5253a", "rental_uris": {"ios": "https://dc.lft.to/lastmile_qr_scan", "android": "https://dc.lft.to/lastmile_qr_scan"}, "fusion_lon": 0.0, "lon": -77.0612045, "name": "81499e72c0d4b52addfc3e19b2c5253a", "is_reserved": 0, "is_disabled": 0}, {"lat": 38.89996566666667, "fusion_lat": 0.0, "type": "electric_scooter", "bike_id": "ffff600092e344ceb3a4fe2931d47d7b", "rental_uris": {"ios": "https://dc.lft.to/lastmile_qr_scan", "android": "https://dc.lft.to/lastmile_qr_scan"}, "fusion_lon": 0.0, "lon": -77.02140516666667, "name": "ffff600092e344ceb3a4fe2931d47d7b", "is_reserved": 0, "is_disabled": 0}, {"lat": 38.92740083333333, "fusion_lat": 0.0, "type": "electric_scooter", "bike_id": "51855bc26c43415242e3a466b47debfd", "rental_uris": {"ios": "https://dc.lft.to/lastmile_qr_scan", "android": "https://dc.lft.to/lastmile_qr_scan"}, "fusion_lon": 0.0, "lon": -77.03352966666667, "name": "51855bc26c43415242e3a466b47debfd", "is_reserved": 0, "is_disabled": 0}, {"lat": 38.916823666666666, "fusion_lat": 0.0, "type": "electric_scooter", "bike_id": "190ecb7825d26d610b93e635819009b7", "rental_uris": {"ios": "https://dc.lft.to/lastmile_qr_scan", "android": "https://dc.lft.to/lastmile_qr_scan"}, "fusion_lon": 0.0, "lon": -77.02956666666667, "name": "190ecb7825d26d610b93e635819009b7", "is_reserved": 0, "is_disabled": 0}, {"lat": 38.94652083333333, "fusion_lat": 0.0, "type": "electric_scooter", "bike_id": "51e7b440dffca764876730adecf6f56c", "rental_uris": {"ios": "https://dc.lft.to/lastmile_qr_scan", "android": "https://dc.lft.to/lastmile_qr_scan"}, "fusion_lon": 0.0, "lon": -77.02967883333334, "name": "51e7b440dffca764876730adecf6f56c", "is_reserved": 0, "is_disabled": 0}, {"lat": 38.8923415, "fusion_lat": 0.0, "type": "electric_scooter", "bike_id": "5d866664d8ee2b932a5a60f417122156", "rental_uris": {"ios": "https://dc.lft.to/lastmile_qr_scan", "android": "https://dc.lft.to/lastmile_qr_scan"}, "fusion_lon": 0.0, "lon": -77.04880166666666, "name": "5d866664d8ee2b932a5a60f417122156", "is_reserved": 0, "is_disabled": 0}, {"lat": 38.932649166666664, "fusion_lat": 0.0, "type": "electric_scooter", "bike_id": "472e7008b3eef6caeb5d54c7132a7b0e", "rental_uris": {"ios": "https://dc.lft.to/lastmile_qr_scan", "android": "https://dc.lft.to/lastmile_qr_scan"}, "fusion_lon": 0.0, "lon": -77.02094466666667, "name": "472e7008b3eef6caeb5d54c7132a7b0e", "is_reserved": 0, "is_disabled": 0}, {"lat": 38.92699483333333, "fusion_lat": 0.0, "type": "electric_scooter", "bike_id": "93fcd85b794c31c448b877e0aaaa84ba", "rental_uris": {"ios": "https://dc.lft.to/lastmile_qr_scan", "android": "https://dc.lft.to/lastmile_qr_scan"}, "fusion_lon": 0.0, "lon": -76.99768333333333, "name": "93fcd85b794c31c448b877e0aaaa84ba", "is_reserved": 0, "is_disabled": 0}, {"lat": 38.899802666666666, "fusion_lat": 0.0, "type": "electric_scooter", "bike_id": "1bea989cf03e1dcfb5ee5c38d4938089", "rental_uris": {"ios": "https://dc.lft.to/lastmile_qr_scan", "android": "https://dc.lft.to/lastmile_qr_scan"}, "fusion_lon": 0.0, "lon": -77.01571883333334, "name": "1bea989cf03e1dcfb5ee5c38d4938089", "is_reserved": 0, "is_disabled": 0}, {"lat": 38.902637666666664, "fusion_lat": 0.0, "type": "electric_scooter", "bike_id": "9538ede921206b9199e802b63a37f528", "rental_uris": {"ios": "https://dc.lft.to/lastmile_qr_scan", "android": "https://dc.lft.to/lastmile_qr_scan"}, "fusion_lon": 0.0, "lon": -77.0382775, "name": "9538ede921206b9199e802b63a37f528", "is_reserved": 0, "is_disabled": 0}, {"lat": 38.911319166666665, "fusion_lat": 0.0, "type": "electric_scooter", "bike_id": "872c6f6f52e321ad814143819295b6f5", "rental_uris": {"ios": "https://dc.lft.to/lastmile_qr_scan", "android": "https://dc.lft.to/lastmile_qr_scan"}, "fusion_lon": 0.0, "lon": -77.0282115, "name": "872c6f6f52e321ad814143819295b6f5", "is_reserved": 0, "is_disabled": 0}, {"lat": 38.92427083333333, "fusion_lat": 0.0, "type": "electric_scooter", "bike_id": "cf74a00dd9bf5c123e75c5ddcd514029", "rental_uris": {"ios": "https://dc.lft.to/lastmile_qr_scan", "android": "https://dc.lft.to/lastmile_qr_scan"}, "fusion_lon": 0.0, "lon": -77.051789, "name": "cf74a00dd9bf5c123e75c5ddcd514029", "is_reserved": 0, "is_disabled": 0}, {"lat": 38.903299833333335, "fusion_lat": 0.0, "type": "electric_scooter", "bike_id": "ab0743ef65d44c4acf5386aae3bbdd50", "rental_uris": {"ios": "https://dc.lft.to/lastmile_qr_scan", "android": "https://dc.lft.to/lastmile_qr_scan"}, "fusion_lon": 0.0, "lon": -77.01627433333333, "name": "ab0743ef65d44c4acf5386aae3bbdd50", "is_reserved": 0, "is_disabled": 0}, {"lat": 38.91611666666667, "fusion_lat": 0.0, "type": "electric_scooter", "bike_id": "96af893c52776e71d29cb116f751aa53", "rental_uris": {"ios": "https://dc.lft.to/lastmile_qr_scan", "android": "https://dc.lft.to/lastmile_qr_scan"}, "fusion_lon": 0.0, "lon": -77.0393595, "name": "96af893c52776e71d29cb116f751aa53", "is_reserved": 0, "is_disabled": 0}, {"lat": 38.899908333333336, "fusion_lat": 0.0, "type": "electric_scooter", "bike_id": "4b537cb6760bdb658b71149e32a40516", "rental_uris": {"ios": "https://dc.lft.to/lastmile_qr_scan", "android": "https://dc.lft.to/lastmile_qr_scan"}, "fusion_lon": 0.0, "lon": -77.02715933333333, "name": "4b537cb6760bdb658b71149e32a40516", "is_reserved": 0, "is_disabled": 0}, {"lat": 38.911171, "fusion_lat": 0.0, "type": "electric_scooter", "bike_id": "795631439b65430d199f805ebf774d85", "rental_uris": {"ios": "https://dc.lft.to/lastmile_qr_scan", "android": "https://dc.lft.to/lastmile_qr_scan"}, "fusion_lon": 0.0, "lon": -77.03758416666666, "name": "795631439b65430d199f805ebf774d85", "is_reserved": 0, "is_disabled": 0}, {"lat": 38.9203285, "fusion_lat": 0.0, "type": "electric_scooter", "bike_id": "e9c25a88553c8fd44fb7fa5b15567e1e", "rental_uris": {"ios": "https://dc.lft.to/lastmile_qr_scan", "android": "https://dc.lft.to/lastmile_qr_scan"}, "fusion_lon": 0.0, "lon": -77.03667766666666, "name": "e9c25a88553c8fd44fb7fa5b15567e1e", "is_reserved": 0, "is_disabled": 0}, {"lat": 38.9004795, "fusion_lat": 0.0, "type": "electric_scooter", "bike_id": "779016bdfa7eece32807bb7f79bf364c", "rental_uris": {"ios": "https://dc.lft.to/lastmile_qr_scan", "android": "https://dc.lft.to/lastmile_qr_scan"}, "fusion_lon": 0.0, "lon": -77.0242335, "name": "779016bdfa7eece32807bb7f79bf364c", "is_reserved": 0, "is_disabled": 0}, {"lat": 38.922386333333336, "fusion_lat": 0.0, "type": "electric_scooter", "bike_id": "8b162d015f29887f114a3c96d6a18935", "rental_uris": {"ios": "https://dc.lft.to/lastmile_qr_scan", "android": "https://dc.lft.to/lastmile_qr_scan"}, "fusion_lon": 0.0, "lon": -77.02828483333333, "name": "8b162d015f29887f114a3c96d6a18935", "is_reserved": 0, "is_disabled": 0}, {"lat": 38.9213345, "fusion_lat": 0.0, "type": "electric_scooter", "bike_id": "b82de3e1e4b77ee7334ca0681f6f7919", "rental_uris": {"ios": "https://dc.lft.to/lastmile_qr_scan", "android": "https://dc.lft.to/lastmile_qr_scan"}, "fusion_lon": 0.0, "lon": -77.01796766666666, "name": "b82de3e1e4b77ee7334ca0681f6f7919", "is_reserved": 0, "is_disabled": 0}, {"lat": 38.9162945, "fusion_lat": 0.0, "type": "electric_scooter", "bike_id": "bdbbbef7df20ae4c60f4f5bdd19a9357", "rental_uris": {"ios": "https://dc.lft.to/lastmile_qr_scan", "android": "https://dc.lft.to/lastmile_qr_scan"}, "fusion_lon": 0.0, "lon": -77.05073816666666, "name": "bdbbbef7df20ae4c60f4f5bdd19a9357", "is_reserved": 0, "is_disabled": 0}, {"lat": 38.92235766666667, "fusion_lat": 0.0, "type": "electric_scooter", "bike_id": "a981e1a5a2ddf66efee6e6905a239aad", "rental_uris": {"ios": "https://dc.lft.to/lastmile_qr_scan", "android": "https://dc.lft.to/lastmile_qr_scan"}, "fusion_lon": 0.0, "lon": -77.0335855, "name": "a981e1a5a2ddf66efee6e6905a239aad", "is_reserved": 0, "is_disabled": 0}, {"lat": 38.887482166666665, "fusion_lat": 0.0, "type": "electric_scooter", "bike_id": "9c956812816dbcbc965cb2ab0f1cc4f9", "rental_uris": {"ios": "https://dc.lft.to/lastmile_qr_scan", "android": "https://dc.lft.to/lastmile_qr_scan"}, "fusion_lon": 0.0, "lon": -77.027773, "name": "9c956812816dbcbc965cb2ab0f1cc4f9", "is_reserved": 0, "is_disabled": 0}, {"lat": 38.924208166666666, "fusion_lat": 0.0, "type": "electric_scooter", "bike_id": "37fd7a89f7d88dbcf093c54bf2de22d3", "rental_uris": {"ios": "https://dc.lft.to/lastmile_qr_scan", "android": "https://dc.lft.to/lastmile_qr_scan"}, "fusion_lon": 0.0, "lon": -77.02262, "name": "37fd7a89f7d88dbcf093c54bf2de22d3", "is_reserved": 0, "is_disabled": 0}, {"lat": 38.91256166666667, "fusion_lat": 0.0, "type": "electric_scooter", "bike_id": "79206af56bb267afc59984d01787e318", "rental_uris": {"ios": "https://dc.lft.to/lastmile_qr_scan", "android": "https://dc.lft.to/lastmile_qr_scan"}, "fusion_lon": 0.0, "lon": -77.03178233333334, "name": "79206af56bb267afc59984d01787e318", "is_reserved": 0, "is_disabled": 0}, {"lat": 38.9053965, "fusion_lat": 0.0, "type": "electric_scooter", "bike_id": "bfd7f156e741bfdc03f959b702887540", "rental_uris": {"ios": "https://dc.lft.to/lastmile_qr_scan", "android": "https://dc.lft.to/lastmile_qr_scan"}, "fusion_lon": 0.0, "lon": -77.050382, "name": "bfd7f156e741bfdc03f959b702887540", "is_reserved": 0, "is_disabled": 0}, {"lat": 38.94086216666667, "fusion_lat": 0.0, "type": "electric_scooter", "bike_id": "0487cdee02b507e6d73bd615f3d36299", "rental_uris": {"ios": "https://dc.lft.to/lastmile_qr_scan", "android": "https://dc.lft.to/lastmile_qr_scan"}, "fusion_lon": 0.0, "lon": -77.02723283333333, "name": "0487cdee02b507e6d73bd615f3d36299", "is_reserved": 0, "is_disabled": 0}, {"lat": 38.88434516666667, "fusion_lat": 0.0, "type": "electric_scooter", "bike_id": "a563723c5edb8b3a40f53fb76cb09251", "rental_uris": {"ios": "https://dc.lft.to/lastmile_qr_scan", "android": "https://dc.lft.to/lastmile_qr_scan"}, "fusion_lon": 0.0, "lon": -76.95755933333334, "name": "a563723c5edb8b3a40f53fb76cb09251", "is_reserved": 0, "is_disabled": 0}, {"lat": 38.938794, "fusion_lat": 0.0, "type": "electric_bike", "bike_id": "a83b3e105abf75b484fc564e143ded39", "rental_uris": {"ios": "https://dc.lft.to/lastmile_qr_scan", "android": "https://dc.lft.to/lastmile_qr_scan"}, "fusion_lon": 0.0, "lon": -77.02467233333333, "name": "a83b3e105abf75b484fc564e143ded39", "is_reserved": 0, "is_disabled": 0}, {"lat": 38.91405733333333, "fusion_lat": 0.0, "type": "electric_scooter", "bike_id": "2d354e5a33e2c13b83efb5c9fee44200", "rental_uris": {"ios": "https://dc.lft.to/lastmile_qr_scan", "android": "https://dc.lft.to/lastmile_qr_scan"}, "fusion_lon": 0.0, "lon": -77.03174316666667, "name": "2d354e5a33e2c13b83efb5c9fee44200", "is_reserved": 0, "is_disabled": 0}, {"lat": 38.90013316666667, "fusion_lat": 0.0, "type": "electric_scooter", "bike_id": "a468cb3efe8162920a4b5de953392991", "rental_uris": {"ios": "https://dc.lft.to/lastmile_qr_scan", "android": "https://dc.lft.to/lastmile_qr_scan"}, "fusion_lon": 0.0, "lon": -77.00145566666667, "name": "a468cb3efe8162920a4b5de953392991", "is_reserved": 0, "is_disabled": 0}, {"lat": 38.9193285, "fusion_lat": 0.0, "type": "electric_scooter", "bike_id": "5fa01e3ea46a731fb91e2a5003263f92", "rental_uris": {"ios": "https://dc.lft.to/lastmile_qr_scan", "android": "https://dc.lft.to/lastmile_qr_scan"}, "fusion_lon": 0.0, "lon": -77.03183566666667, "name": "5fa01e3ea46a731fb91e2a5003263f92", "is_reserved": 0, "is_disabled": 0}, {"lat": 38.89984033333333, "fusion_lat": 0.0, "type": "electric_scooter", "bike_id": "f5b3f5ff87517988a3b27101805ec1ea", "rental_uris": {"ios": "https://dc.lft.to/lastmile_qr_scan", "android": "https://dc.lft.to/lastmile_qr_scan"}, "fusion_lon": 0.0, "lon": -77.02455433333333, "name": "f5b3f5ff87517988a3b27101805ec1ea", "is_reserved": 0, "is_disabled": 0}, {"lat": 38.865049666666664, "fusion_lat": 0.0, "type": "electric_bike", "bike_id": "f4aa5e5b722630d0fde3501f596c7991", "rental_uris": {"ios": "https://dc.lft.to/lastmile_qr_scan", "android": "https://dc.lft.to/lastmile_qr_scan"}, "fusion_lon": 0.0, "lon": -76.97745633333334, "name": "f4aa5e5b722630d0fde3501f596c7991", "is_reserved": 0, "is_disabled": 0}, {"lat": 38.910270833333335, "fusion_lat": 0.0, "type": "electric_scooter", "bike_id": "8ee7058637bc067ce1c0e3869e2997ad", "rental_uris": {"ios": "https://dc.lft.to/lastmile_qr_scan", "android": "https://dc.lft.to/lastmile_qr_scan"}, "fusion_lon": 0.0, "lon": -77.02932533333333, "name": "8ee7058637bc067ce1c0e3869e2997ad", "is_reserved": 0, "is_disabled": 0}, {"lat": 38.89911016666667, "fusion_lat": 0.0, "type": "electric_scooter", "bike_id": "a7c7580c9a24ce7308c6be9269eb5994", "rental_uris": {"ios": "https://dc.lft.to/lastmile_qr_scan", "android": "https://dc.lft.to/lastmile_qr_scan"}, "fusion_lon": 0.0, "lon": -77.04488766666667, "name": "a7c7580c9a24ce7308c6be9269eb5994", "is_reserved": 0, "is_disabled": 0}, {"lat": 38.914612, "fusion_lat": 0.0, "type": "electric_scooter", "bike_id": "2064d185af14f61550ef582c2561377e", "rental_uris": {"ios": "https://dc.lft.to/lastmile_qr_scan", "android": "https://dc.lft.to/lastmile_qr_scan"}, "fusion_lon": 0.0, "lon": -77.00216516666667, "name": "2064d185af14f61550ef582c2561377e", "is_reserved": 0, "is_disabled": 0}, {"lat": 38.924601, "fusion_lat": 0.0, "type": "electric_scooter", "bike_id": "b976bcd3ecd3ccf33a0028141dfe602e", "rental_uris": {"ios": "https://dc.lft.to/lastmile_qr_scan", "android": "https://dc.lft.to/lastmile_qr_scan"}, "fusion_lon": 0.0, "lon": -77.02162633333333, "name": "b976bcd3ecd3ccf33a0028141dfe602e", "is_reserved": 0, "is_disabled": 0}, {"lat": 38.9160155, "fusion_lat": 0.0, "type": "electric_scooter", "bike_id": "e3e3f57c32ba0c7d5a426793742f523f", "rental_uris": {"ios": "https://dc.lft.to/lastmile_qr_scan", "android": "https://dc.lft.to/lastmile_qr_scan"}, "fusion_lon": 0.0, "lon": -77.04162633333334, "name": "e3e3f57c32ba0c7d5a426793742f523f", "is_reserved": 0, "is_disabled": 0}, {"lat": 38.924271, "fusion_lat": 0.0, "type": "electric_scooter", "bike_id": "6ef134b1dd8ffc0b33071ef56bb9bb88", "rental_uris": {"ios": "https://dc.lft.to/lastmile_qr_scan", "android": "https://dc.lft.to/lastmile_qr_scan"}, "fusion_lon": 0.0, "lon": -77.02242666666666, "name": "6ef134b1dd8ffc0b33071ef56bb9bb88", "is_reserved": 0, "is_disabled": 0}, {"lat": 38.92176216666667, "fusion_lat": 0.0, "type": "electric_scooter", "bike_id": "50ae32b91fcebcf500cf646900c2ef22", "rental_uris": {"ios": "https://dc.lft.to/lastmile_qr_scan", "android": "https://dc.lft.to/lastmile_qr_scan"}, "fusion_lon": 0.0, "lon": -77.03837766666666, "name": "50ae32b91fcebcf500cf646900c2ef22", "is_reserved": 0, "is_disabled": 0}, {"lat": 38.893528833333335, "fusion_lat": 0.0, "type": "electric_scooter", "bike_id": "6d79de92f1b4e68ef9231630b0263220", "rental_uris": {"ios": "https://dc.lft.to/lastmile_qr_scan", "android": "https://dc.lft.to/lastmile_qr_scan"}, "fusion_lon": 0.0, "lon": -76.9866105, "name": "6d79de92f1b4e68ef9231630b0263220", "is_reserved": 0, "is_disabled": 0}, {"lat": 38.889382, "fusion_lat": 0.0, "type": "electric_scooter", "bike_id": "28a917f9bfbbdbd04bed28d2a32a3831", "rental_uris": {"ios": "https://dc.lft.to/lastmile_qr_scan", "android": "https://dc.lft.to/lastmile_qr_scan"}, "fusion_lon": 0.0, "lon": -77.085304, "name": "28a917f9bfbbdbd04bed28d2a32a3831", "is_reserved": 0, "is_disabled": 0}, {"lat": 38.9172465, "fusion_lat": 0.0, "type": "electric_scooter", "bike_id": "8e848b09dcf256934e5787a4316e0544", "rental_uris": {"ios": "https://dc.lft.to/lastmile_qr_scan", "android": "https://dc.lft.to/lastmile_qr_scan"}, "fusion_lon": 0.0, "lon": -77.02700516666667, "name": "8e848b09dcf256934e5787a4316e0544", "is_reserved": 0, "is_disabled": 0}, {"lat": 38.95801616666667, "fusion_lat": 0.0, "type": "electric_scooter", "bike_id": "37a7b00507853f7fe078c7f9942685a7", "rental_uris": {"ios": "https://dc.lft.to/lastmile_qr_scan", "android": "https://dc.lft.to/lastmile_qr_scan"}, "fusion_lon": 0.0, "lon": -77.01515916666666, "name": "37a7b00507853f7fe078c7f9942685a7", "is_reserved": 0, "is_disabled": 0}, {"lat": 38.916327833333334, "fusion_lat": 0.0, "type": "electric_scooter", "bike_id": "5224f9d50418bbdca521b134a3b9560e", "rental_uris": {"ios": "https://dc.lft.to/lastmile_qr_scan", "android": "https://dc.lft.to/lastmile_qr_scan"}, "fusion_lon": 0.0, "lon": -77.05076033333333, "name": "5224f9d50418bbdca521b134a3b9560e", "is_reserved": 0, "is_disabled": 0}, {"lat": 38.898270833333335, "fusion_lat": 0.0, "type": "electric_scooter", "bike_id": "839078442ff9b456ff0a82d8dd7bb5d6", "rental_uris": {"ios": "https://dc.lft.to/lastmile_qr_scan", "android": "https://dc.lft.to/lastmile_qr_scan"}, "fusion_lon": 0.0, "lon": -76.94651216666666, "name": "839078442ff9b456ff0a82d8dd7bb5d6", "is_reserved": 0, "is_disabled": 0}, {"lat": 38.9122955, "fusion_lat": 0.0, "type": "electric_scooter", "bike_id": "0c2eb0c5ee181178e1c13ecc8f33ed8f", "rental_uris": {"ios": "https://dc.lft.to/lastmile_qr_scan", "android": "https://dc.lft.to/lastmile_qr_scan"}, "fusion_lon": 0.0, "lon": -77.04475333333333, "name": "0c2eb0c5ee181178e1c13ecc8f33ed8f", "is_reserved": 0, "is_disabled": 0}, {"lat": 38.910266166666666, "fusion_lat": 0.0, "type": "electric_scooter", "bike_id": "c826f4908dc3cc3dc6d249c118a9cc10", "rental_uris": {"ios": "https://dc.lft.to/lastmile_qr_scan", "android": "https://dc.lft.to/lastmile_qr_scan"}, "fusion_lon": 0.0, "lon": -77.03312233333334, "name": "c826f4908dc3cc3dc6d249c118a9cc10", "is_reserved": 0, "is_disabled": 0}, {"lat": 38.937005166666665, "fusion_lat": 0.0, "type": "electric_scooter", "bike_id": "be9ef9d650c6eca4fea70eb129fd4f5d", "rental_uris": {"ios": "https://dc.lft.to/lastmile_qr_scan", "android": "https://dc.lft.to/lastmile_qr_scan"}, "fusion_lon": 0.0, "lon": -77.05600233333334, "name": "be9ef9d650c6eca4fea70eb129fd4f5d", "is_reserved": 0, "is_disabled": 0}, {"lat": 38.935343333333336, "fusion_lat": 0.0, "type": "electric_scooter", "bike_id": "6cc6309eae7496afa0d7f37fe4102dbb", "rental_uris": {"ios": "https://dc.lft.to/lastmile_qr_scan", "android": "https://dc.lft.to/lastmile_qr_scan"}, "fusion_lon": 0.0, "lon": -77.0347365, "name": "6cc6309eae7496afa0d7f37fe4102dbb", "is_reserved": 0, "is_disabled": 0}, {"lat": 38.9156165, "fusion_lat": 0.0, "type": "electric_scooter", "bike_id": "70e24c23cf01577d7392c92e7ae9ce34", "rental_uris": {"ios": "https://dc.lft.to/lastmile_qr_scan", "android": "https://dc.lft.to/lastmile_qr_scan"}, "fusion_lon": 0.0, "lon": -77.01968233333334, "name": "70e24c23cf01577d7392c92e7ae9ce34", "is_reserved": 0, "is_disabled": 0}, {"lat": 38.935577333333335, "fusion_lat": 0.0, "type": "electric_scooter", "bike_id": "846ae1c01ea1ba594f9adcb39b94f8f7", "rental_uris": {"ios": "https://dc.lft.to/lastmile_qr_scan", "android": "https://dc.lft.to/lastmile_qr_scan"}, "fusion_lon": 0.0, "lon": -77.074693, "name": "846ae1c01ea1ba594f9adcb39b94f8f7", "is_reserved": 0, "is_disabled": 0}, {"lat": 38.836101166666666, "fusion_lat": 0.0, "type": "electric_bike", "bike_id": "4698b2cfb09423c50aade8359116223a", "rental_uris": {"ios": "https://dc.lft.to/lastmile_qr_scan", "android": "https://dc.lft.to/lastmile_qr_scan"}, "fusion_lon": 0.0, "lon": -77.00384033333333, "name": "4698b2cfb09423c50aade8359116223a", "is_reserved": 0, "is_disabled": 0}, {"lat": 38.9069025, "fusion_lat": 0.0, "type": "electric_scooter", "bike_id": "e9c44e022598232eb0988174cc7903f0", "rental_uris": {"ios": "https://dc.lft.to/lastmile_qr_scan", "android": "https://dc.lft.to/lastmile_qr_scan"}, "fusion_lon": 0.0, "lon": -77.042106, "name": "e9c44e022598232eb0988174cc7903f0", "is_reserved": 0, "is_disabled": 0}, {"lat": 38.90569, "fusion_lat": 0.0, "type": "electric_scooter", "bike_id": "6f8ce9ca5972c6d9e8c17d6fb86fc173", "rental_uris": {"ios": "https://dc.lft.to/lastmile_qr_scan", "android": "https://dc.lft.to/lastmile_qr_scan"}, "fusion_lon": 0.0, "lon": -77.02596066666666, "name": "6f8ce9ca5972c6d9e8c17d6fb86fc173", "is_reserved": 0, "is_disabled": 0}, {"lat": 38.848484166666665, "fusion_lat": 0.0, "type": "electric_bike", "bike_id": "9f2be17d6e9acb8e36356113256922bb", "rental_uris": {"ios": "https://dc.lft.to/lastmile_qr_scan", "android": "https://dc.lft.to/lastmile_qr_scan"}, "fusion_lon": 0.0, "lon": -77.08486633333334, "name": "9f2be17d6e9acb8e36356113256922bb", "is_reserved": 0, "is_disabled": 0}, {"lat": 38.90409416666667, "fusion_lat": 0.0, "type": "electric_scooter", "bike_id": "43da6dbf05ca0b84a51705ae4ca0c834", "rental_uris": {"ios": "https://dc.lft.to/lastmile_qr_scan", "android": "https://dc.lft.to/lastmile_qr_scan"}, "fusion_lon": 0.0, "lon": -76.97334283333333, "name": "43da6dbf05ca0b84a51705ae4ca0c834", "is_reserved": 0, "is_disabled": 0},