{"data": {"bikes": [{"rental_uris": {"android": "https://dc.lft.to/lastmile_qr_scan", "ios": "https://dc.lft.to/lastmile_qr_scan"}, "type": "electric_scooter", "lon": -77.02379816666667, "name": "deadb582550c94318d68ee7fdeb40975", "bike_id": "deadb582550c94318d68ee7fdeb40975", "fusion_lat": 0.0, "is_reserved": 0, "lat": 38.90711833333334, "fusion_lon": 0.0, "is_disabled": 0}, {"rental_uris": {"android": "https://dc.lft.to/lastmile_qr_scan", "ios": "https://dc.lft.to/lastmile_qr_scan"}, "type": "electric_scooter", "lon": -76.99681616666666, "name": "600ae4c799db47c40fa062769580d4bb", "bike_id": "600ae4c799db47c40fa062769580d4bb", "fusion_lat": 0.0, "is_reserved": 0, "lat": 38.88703866666667, "fusion_lon": 0.0, "is_disabled": 0}, {"rental_uris": {"android": "https://dc.lft.to/lastmile_qr_scan", "ios": "https://dc.lft.to/lastmile_qr_scan"}, "type": "electric_scooter", "lon": -77.0384015, "name": "b5815bc3b11d8420833f0c93b0204e3c", "bike_id": "b5815bc3b11d8420833f0c93b0204e3c", "fusion_lat": 0.0, "is_reserved": 0, "lat": 38.9153805, "fusion_lon": 0.0, "is_disabled": 0}, {"rental_uris": {"android": "https://dc.lft.to/lastmile_qr_scan", "ios": "https://dc.lft.to/lastmile_qr_scan"}, "type": "electric_scooter", "lon": -77.04322833333333, "name": "fa228adfe505c2e1c2cf52eadc7a4207", "bike_id": "fa228adfe505c2e1c2cf52eadc7a4207", "fusion_lat": 0.0, "is_reserved": 0, "lat": 38.89225533333333, "fusion_lon": 0.0, "is_disabled": 0}, {"rental_uris": {"android": "https://dc.lft.to/lastmile_qr_scan", "ios": "https://dc.lft.to/lastmile_qr_scan"}, "type": "electric_bike", "lon": -77.00505516666666, "name": "c74c4b6e108435d779cd0139d5068420", "bike_id": "c74c4b6e108435d779cd0139d5068420", "fusion_lat": 0.0, "is_reserved": 0, "lat": 38.875345333333335, "fusion_lon": 0.0, "is_disabled": 0}, {"rental_uris": {"android": "https://dc.lft.to/lastmile_qr_scan", "ios": "https://dc.lft.to/lastmile_qr_scan"}, "type": "electric_scooter", "lon": -77.0377005, "name": "65f51900dfcfb69ee227fc6bce0b40a4", "bike_id": "65f51900dfcfb69ee227fc6bce0b40a4", "fusion_lat": 0.0, "is_reserved": 0, "lat": 38.9069285, "fusion_lon": 0.0, "is_disabled": 0}, {"rental_uris": {"android": "https://dc.lft.to/lastmile_qr_scan", "ios": "https://dc.lft.to/lastmile_qr_scan"}, "type": "electric_scooter", "lon": -76.99610566666667, "name": "4194cdcd00a6937ef353bf896e0a19f2", "bike_id": "4194cdcd00a6937ef353bf896e0a19f2", "fusion_lat": 0.0, "is_reserved": 0, "lat": 38.8976525, "fusion_lon": 0.0, "is_disabled": 0}, {"rental_uris": {"android": "https://dc.lft.to/lastmile_qr_scan", "ios": "https://dc.lft.to/lastmile_qr_scan"}, "type": "electric_scooter", "lon": -77.018372, "name": "968d57d19bf6d2ceffb21cd3c52820d1", "bike_id": "968d57d19bf6d2ceffb21cd3c52820d1", "fusion_lat": 0.0, "is_reserved": 0, "lat": 38.909623333333336, "fusion_lon": 0.0, "is_disabled": 0}, {"rental_uris": {"android": "https://dc.lft.to/lastmile_qr_scan", "ios": "https://dc.lft.to/lastmile_qr_scan"}, "type": "electric_scooter", "lon": -77.06885216666667, "name": "a77a06a4191af1f7286181b63e85d09d", "bike_id": "a77a06a4191af1f7286181b63e85d09d", "fusion_lat": 0.0, "is_reserved": 0, "lat": 38.905156833333336, "fusion_lon": 0.0, "is_disabled": 0}, {"rental_uris": {"android": "https://dc.lft.to/lastmile_qr_scan", "ios": "https://dc.lft.to/lastmile_qr_scan"}, "type": "electric_scooter", "lon": -77.02167233333333, "name": "4232203a31513513cf4cf1341c0afbbe", "bike_id": "4232203a31513513cf4cf1341c0afbbe", "fusion_lat": 0.0, "is_reserved": 0, "lat": 38.887461, "fusion_lon": 0.0, "is_disabled": 0}, {"rental_uris": {"android": "https://dc.lft.to/lastmile_qr_scan", "ios": "https://dc.lft.to/lastmile_qr_scan"}, "type": "electric_scooter", "lon": -77.021947, "name": "07f8a492247b595620f48f5794fd83a0", "bike_id": "07f8a492247b595620f48f5794fd83a0", "fusion_lat": 0.0, "is_reserved": 0, "lat": 38.89630533333333, "fusion_lon": 0.0, "is_disabled": 0}, {"rental_uris": {"android": "https://dc.lft.to/lastmile_qr_scan", "ios": "https://dc.lft.to/lastmile_qr_scan"}, "type": "electric_bike", "lon": -76.94566866666666, "name": "f890e6fb6b4904cf81cfff713f9d02fc", "bike_id": "f890e6fb6b4904cf81cfff713f9d02fc", "fusion_lat": 0.0, "is_reserved": 0, "lat": 38.866252833333334, "fusion_lon": 0.0, "is_disabled": 0}, {"rental_uris": {"android": "https://dc.lft.to/lastmile_qr_scan", "ios": "https://dc.lft.to/lastmile_qr_scan"}, "type": "electric_scooter", "lon": -77.0307585, "name": "c9f895f52c261b81d26a6f21f8d977df", "bike_id": "c9f895f52c261b81d26a6f21f8d977df", "fusion_lat": 0.0, "is_reserved": 0, "lat": 38.92732133333333, "fusion_lon": 0.0, "is_disabled": 0}, {"rental_uris": {"android": "https://dc.lft.to/lastmile_qr_scan", "ios": "https://dc.lft.to/lastmile_qr_scan"}, "type": "electric_scooter", "lon": -77.02341416666667, "name": "229327d36c7d5d4ca61462c3ea230baa", "bike_id": "229327d36c7d5d4ca61462c3ea230baa", "fusion_lat": 0.0, "is_reserved": 0, "lat": 38.96208766666667, "fusion_lon": 0.0, "is_disabled": 0}, {"rental_uris": {"android": "https://dc.lft.to/lastmile_qr_scan", "ios": "https://dc.lft.to/lastmile_qr_scan"}, "type": "electric_scooter", "lon": -77.02962083333334, "name": "a20357ee9d351280e9814a1d7c1f8450", "bike_id": "a20357ee9d351280e9814a1d7c1f8450", "fusion_lat": 0.0, "is_reserved": 0, "lat": 38.923146333333335, "fusion_lon": 0.0, "is_disabled": 0}, {"rental_uris": {"android": "https://dc.lft.to/lastmile_qr_scan", "ios": "https://dc.lft.to/lastmile_qr_scan"}, "type": "electric_scooter", "lon": -77.04832433333333, "name": "a926111f2ed0b67c638bbff54bc773e0", "bike_id": "a926111f2ed0b67c638bbff54bc773e0", "fusion_lat": 0.0, "is_reserved": 0, "lat": 38.90460233333334, "fusion_lon": 0.0, "is_disabled": 0}, {"rental_uris": {"android": "https://dc.lft.to/lastmile_qr_scan", "ios": "https://dc.lft.to/lastmile_qr_scan"}, "type": "electric_scooter", "lon": -77.07137216666666, "name": "77890e45ef64acf3074e64500460e919", "bike_id": "77890e45ef64acf3074e64500460e919", "fusion_lat": 0.0, "is_reserved": 0, "lat": 38.93820133333333, "fusion_lon": 0.0, "is_disabled": 0}, {"rental_uris": {"android": "https://dc.lft.to/lastmile_qr_scan", "ios": "https://dc.lft.to/lastmile_qr_scan"}, "type": "electric_bike", "lon": -77.12499316666667, "name": "0a7d9144c68baf10ac747ca33cbb0a47", "bike_id": "0a7d9144c68baf10ac747ca33cbb0a47", "fusion_lat": 0.0, "is_reserved": 0, "lat": 39.02415383333334, "fusion_lon": 0.0, "is_disabled": 0}, {"rental_uris": {"android": "https://dc.lft.to/lastmile_qr_scan", "ios": "https://dc.lft.to/lastmile_qr_scan"}, "type": "electric_scooter", "lon": -77.0354355, "name": "177c19a1c5112e1b13e51a6315ef40c4", "bike_id": "177c19a1c5112e1b13e51a6315ef40c4", "fusion_lat": 0.0, "is_reserved": 0, "lat": 38.90369, "fusion_lon": 0.0, "is_disabled": 0}, {"rental_uris": {"android": "https://dc.lft.to/lastmile_qr_scan", "ios": "https://dc.lft.to/lastmile_qr_scan"}, "type": "electric_scooter", "lon": -76.938383, "name": "f2afa761a6b824050ff542f4238d7df5", "bike_id": "f2afa761a6b824050ff542f4238d7df5", "fusion_lat": 0.0, "is_reserved": 0, "lat": 38.89010016666667, "fusion_lon": 0.0, "is_disabled": 0}, {"rental_uris": {"android": "https://dc.lft.to/lastmile_qr_scan", "ios": "https://dc.lft.to/lastmile_qr_scan"}, "type": "electric_scooter", "lon": -77.026885, "name": "e0f393ee1f042da9517e5fd909ff0f84", "bike_id": "e0f393ee1f042da9517e5fd909ff0f84", "fusion_lat": 0.0, "is_reserved": 0, "lat": 38.90684516666666, "fusion_lon": 0.0, "is_disabled": 0}, {"rental_uris": {"android": "https://dc.lft.to/lastmile_qr_scan", "ios": "https://dc.lft.to/lastmile_qr_scan"}, "type": "electric_scooter", "lon": -77.0786235, "name": "7672bc0a63fddba9c7ab523e8fd3097f", "bike_id": "7672bc0a63fddba9c7ab523e8fd3097f", "fusion_lat": 0.0, "is_reserved": 0, "lat": 38.91912833333333, "fusion_lon": 0.0, "is_disabled": 0}, {"rental_uris": {"android": "https://dc.lft.to/lastmile_qr_scan", "ios": "https://dc.lft.to/lastmile_qr_scan"}, "type": "electric_scooter", "lon": -77.02343516666667, "name": "12946a14de6556730d068bde2276c099", "bike_id": "12946a14de6556730d068bde2276c099", "fusion_lat": 0.0, "is_reserved": 0, "lat": 38.9298555, "fusion_lon": 0.0, "is_disabled": 0}, {"rental_uris": {"android": "https://dc.lft.to/lastmile_qr_scan", "ios": "https://dc.lft.to/lastmile_qr_scan"}, "type": "electric_scooter", "lon": -77.04295916666666, "name": "a60206a8134b0900237bb0a17a7d1bc9", "bike_id": "a60206a8134b0900237bb0a17a7d1bc9", "fusion_lat": 0.0, "is_reserved": 0, "lat": 38.926716666666664, "fusion_lon": 0.0, "is_disabled": 0}, {"rental_uris": {"android": "https://dc.lft.to/lastmile_qr_scan", "ios": "https://dc.lft.to/lastmile_qr_scan"}, "type": "electric_scooter", "lon": -76.98339733333333, "name": "c52efd89da71a2028432af7b9c654d32", "bike_id": "c52efd89da71a2028432af7b9c654d32", "fusion_lat": 0.0, "is_reserved": 0, "lat": 38.864735333333336, "fusion_lon": 0.0, "is_disabled": 0}, {"rental_uris": {"android": "https://dc.lft.to/lastmile_qr_scan", "ios": "https://dc.lft.to/lastmile_qr_scan"}, "type": "electric_bike", "lon": -77.006687, "name": "36209e3b5784a2cb5d21f5c02bbd7492", "bike_id": "36209e3b5784a2cb5d21f5c02bbd7492", "fusion_lat": 0.0, "is_reserved": 0, "lat": 38.945072833333334, "fusion_lon": 0.0, "is_disabled": 0}, {"rental_uris": {"android": "https://dc.lft.to/lastmile_qr_scan", "ios": "https://dc.lft.to/lastmile_qr_scan"}, "type": "electric_scooter", "lon": -77.0240395, "name": "62b1142179c3a39e9e561eb9f35e09b0", "bike_id": "62b1142179c3a39e9e561eb9f35e09b0", "fusion_lat": 0.0, "is_reserved": 0, "lat": 38.920831, "fusion_lon": 0.0, "is_disabled": 0}, {"rental_uris": {"android": "https://dc.lft.to/lastmile_qr_scan", "ios": "https://dc.lft.to/lastmile_qr_scan"}, "type": "electric_scooter", "lon": -77.00247583333334, "name": "8e999fbf40c1b4e4bfa99ca410b07832", "bike_id": "8e999fbf40c1b4e4bfa99ca410b07832", "fusion_lat": 0.0, "is_reserved": 0, "lat": 38.90881133333333, "fusion_lon": 0.0, "is_disabled": 0}, {"rental_uris": {"android": "https://dc.lft.to/lastmile_qr_scan", "ios": "https://dc.lft.to/lastmile_qr_scan"}, "type": "electric_scooter", "lon": -77.04359866666667, "name": "8112031b17cbcc71732d3d6c9103d448", "bike_id": "8112031b17cbcc71732d3d6c9103d448", "fusion_lat": 0.0, "is_reserved": 0, "lat": 38.921247666666666, "fusion_lon": 0.0, "is_disabled": 0}, {"rental_uris": {"android": "https://dc.lft.to/lastmile_qr_scan", "ios": "https://dc.lft.to/lastmile_qr_scan"}, "type": "electric_scooter", "lon": -76.98670466666667, "name": "eba1e1bb379f83a0792bf35c6b76141c", "bike_id": "eba1e1bb379f83a0792bf35c6b76141c", "fusion_lat": 0.0, "is_reserved": 0, "lat": 38.9001555, "fusion_lon": 0.0, "is_disabled": 0}, {"rental_uris": {"android": "https://dc.lft.to/lastmile_qr_scan", "ios": "https://dc.lft.to/lastmile_qr_scan"}, "type": "electric_scooter", "lon": -77.02274333333334, "name": "434f96716b804ac99481709b27544e2a", "bike_id": "434f96716b804ac99481709b27544e2a", "fusion_lat": 0.0, "is_reserved": 0, "lat": 38.917406, "fusion_lon": 0.0, "is_disabled": 0}, {"rental_uris": {"android": "https://dc.lft.to/lastmile_qr_scan", "ios": "https://dc.lft.to/lastmile_qr_scan"}, "type": "electric_scooter", "lon": -77.02510733333334, "name": "427b76f3ef79c92d93a0f48812a61868", "bike_id": "427b76f3ef79c92d93a0f48812a61868", "fusion_lat": 0.0, "is_reserved": 0, "lat": 38.94177366666667, "fusion_lon": 0.0, "is_disabled": 0}, {"rental_uris": {"android": "https://dc.lft.to/lastmile_qr_scan", "ios": "https://dc.lft.to/lastmile_qr_scan"}, "type": "electric_scooter", "lon": -77.00581716666667, "name": "2ae2244d225cf00dd15ef5528feb6c18", "bike_id": "2ae2244d225cf00dd15ef5528feb6c18", "fusion_lat": 0.0, "is_reserved": 0, "lat": 38.905505833333336, "fusion_lon": 0.0, "is_disabled": 0}, {"rental_uris": {"android": "https://dc.lft.to/lastmile_qr_scan", "ios": "https://dc.lft.to/lastmile_qr_scan"}, "type": "electric_scooter", "lon": -76.98047833333334, "name": "71fe00110e724d52cae4fe4bd5dbf9da", "bike_id": "71fe00110e724d52cae4fe4bd5dbf9da", "fusion_lat": 0.0, "is_reserved": 0, "lat": 38.9167985, "fusion_lon": 0.0, "is_disabled": 0}, {"rental_uris": {"android": "https://dc.lft.to/lastmile_qr_scan", "ios": "https://dc.lft.to/lastmile_qr_scan"}, "type": "electric_scooter", "lon": -77.05439183333333, "name": "2496edc986796d4a211b7b7f22a1d575", "bike_id": "2496edc986796d4a211b7b7f22a1d575", "fusion_lat": 0.0, "is_reserved": 0, "lat": 38.89599583333333, "fusion_lon": 0.0, "is_disabled": 0}, {"rental_uris": {"android": "https://dc.lft.to/lastmile_qr_scan", "ios": "https://dc.lft.to/lastmile_qr_scan"}, "type": "electric_scooter", "lon": -77.03354383333334, "name": "7f09dde7ce3b0259b731c923cb43e336", "bike_id": "7f09dde7ce3b0259b731c923cb43e336", "fusion_lat": 0.0, "is_reserved": 0, "lat": 38.91193083333334, "fusion_lon": 0.0, "is_disabled": 0}, {"rental_uris": {"android": "https://dc.lft.to/lastmile_qr_scan", "ios": "https://dc.lft.to/lastmile_qr_scan"}, "type": "electric_scooter", "lon": -76.94736083333333, "name": "111d90ebd2d35ffa773b10fe74c18d9b", "bike_id": "111d90ebd2d35ffa773b10fe74c18d9b", "fusion_lat": 0.0, "is_reserved": 0, "lat": 38.8968695, "fusion_lon": 0.0, "is_disabled": 0}, {"rental_uris": {"android": "https://dc.lft.to/lastmile_qr_scan", "ios": "https://dc.lft.to/lastmile_qr_scan"}, "type": "electric_scooter", "lon": -76.99944916666666, "name": "632ac3b6bbb6a56811c92dd2681bd25b", "bike_id": "632ac3b6bbb6a56811c92dd2681bd25b", "fusion_lat": 0.0, "is_reserved": 0, "lat": 38.842943, "fusion_lon": 0.0, "is_disabled": 0}, {"rental_uris": {"android": "https://dc.lft.to/lastmile_qr_scan", "ios": "https://dc.lft.to/lastmile_qr_scan"}, "type": "electric_bike", "lon": -77.0857555, "name": "32f8ecfe5baba4bb4e6eb571d8df3952", "bike_id": "32f8ecfe5baba4bb4e6eb571d8df3952", "fusion_lat": 0.0, "is_reserved": 0, "lat": 38.874251, "fusion_lon": 0.0, "is_disabled": 0}, {"rental_uris": {"android": "https://dc.lft.to/lastmile_qr_scan", "ios": "https://dc.lft.to/lastmile_qr_scan"}, "type": "electric_scooter", "lon": -77.02191316666666, "name": "c77b510c7e5c8ebf23bb09beb3fe18f1", "bike_id": "c77b510c7e5c8ebf23bb09beb3fe18f1", "fusion_lat": 0.0, "is_reserved": 0, "lat": 38.9108895, "fusion_lon": 0.0, "is_disabled": 0}, {"rental_uris": {"android": "https://dc.lft.to/lastmile_qr_scan", "ios": "https://dc.lft.to/lastmile_qr_scan"}, "type": "electric_scooter", "lon": -77.03444, "name": "8c772c74cb15c5fcf04c40650fd7fe7a", "bike_id": "8c772c74cb15c5fcf04c40650fd7fe7a", "fusion_lat": 0.0, "is_reserved": 0, "lat": 38.90579683333333, "fusion_lon": 0.0, "is_disabled": 0}, {"rental_uris": {"android": "https://dc.lft.to/lastmile_qr_scan", "ios": "https://dc.lft.to/lastmile_qr_scan"}, "type": "electric_scooter", "lon": -77.0302285, "name": "6996dc3225f2b533614bfaea94680d02", "bike_id": "6996dc3225f2b533614bfaea94680d02", "fusion_lat": 0.0, "is_reserved": 0, "lat": 38.926819, "fusion_lon": 0.0, "is_disabled": 0}, {"rental_uris": {"android": "https://dc.lft.to/lastmile_qr_scan", "ios": "https://dc.lft.to/lastmile_qr_scan"}, "type": "electric_scooter", "lon": -77.02968716666666, "name": "fb4d48cd9ae281452a5b99df0289ce80", "bike_id": "fb4d48cd9ae281452a5b99df0289ce80", "fusion_lat": 0.0, "is_reserved": 0, "lat": 38.90734916666667, "fusion_lon": 0.0, "is_disabled": 0}, {"rental_uris": {"android": "https://dc.lft.to/lastmile_qr_scan", "ios": "https://dc.lft.to/lastmile_qr_scan"}, "type": "electric_scooter", "lon": -76.98058816666666, "name": "6f143ef6afc17bde5afa2ffc3ef453e3", "bike_id": "6f143ef6afc17bde5afa2ffc3ef453e3", "fusion_lat": 0.0, "is_reserved": 0, "lat": 38.901776166666664, "fusion_lon": 0.0, "is_disabled": 0}, {"rental_uris": {"android": "https://dc.lft.to/lastmile_qr_scan", "ios": "https://dc.lft.to/lastmile_qr_scan"}, "type": "electric_scooter", "lon": -77.026881, "name": "2554ea8cd1d5391f2180982faa61bc93", "bike_id": "2554ea8cd1d5391f2180982faa61bc93", "fusion_lat": 0.0, "is_reserved": 0, "lat": 38.899991166666666, "fusion_lon": 0.0, "is_disabled": 0}, {"rental_uris": {"android": "https://dc.lft.to/lastmile_qr_scan", "ios": "https://dc.lft.to/lastmile_qr_scan"}, "type": "electric_bike", "lon": -77.02486766666667, "name": "7c0958b781212ee95fc947c49754243e", "bike_id": "7c0958b781212ee95fc947c49754243e", "fusion_lat": 0.0, "is_reserved": 0, "lat": 38.97404316666667, "fusion_lon": 0.0, "is_disabled": 0}, {"rental_uris": {"android": "https://dc.lft.to/lastmile_qr_scan", "ios": "https://dc.lft.to/lastmile_qr_scan"}, "type": "electric_scooter", "lon": -77.00735116666667, "name": "38556f60ff6567d39ef4b0a306627694", "bike_id": "38556f60ff6567d39ef4b0a306627694", "fusion_lat": 0.0, "is_reserved": 0, "lat": 38.955256, "fusion_lon": 0.0, "is_disabled": 0}, {"rental_uris": {"android": "https://dc.lft.to/lastmile_qr_scan", "ios": "https://dc.lft.to/lastmile_qr_scan"}, "type": "electric_scooter", "lon": -77.067798, "name": "1d3cd19774c15a69e21a8dc82e926e18", "bike_id": "1d3cd19774c15a69e21a8dc82e926e18", "fusion_lat": 0.0, "is_reserved": 0, "lat": 38.952109666666665, "fusion_lon": 0.0, "is_disabled": 0}, {"rental_uris": {"android": "https://dc.lft.to/lastmile_qr_scan", "ios": "https://dc.lft.to/lastmile_qr_scan"}, "type": "electric_scooter", "lon": -77.02009916666667, "name": "d8793649e5db1bf3ff7e3d4178bb8bbb", "bike_id": "d8793649e5db1bf3ff7e3d4178bb8bbb", "fusion_lat": 0.0, "is_reserved": 0, "lat": 38.924102500000004, "fusion_lon": 0.0, "is_disabled": 0}, {"rental_uris": {"android": "https://dc.lft.to/lastmile_qr_scan", "ios": "https://dc.lft.to/lastmile_qr_scan"}, "type": "electric_scooter", "lon": -77.0327085, "name": "0cc50cbea8e126fef711da300635e5d8", "bike_id": "0cc50cbea8e126fef711da300635e5d8", "fusion_lat": 0.0, "is_reserved": 0, "lat": 38.91913366666667, "fusion_lon": 0.0, "is_disabled": 0}, {"rental_uris": {"android": "https://dc.lft.to/lastmile_qr_scan", "ios": "https://dc.lft.to/lastmile_qr_scan"}, "type": "electric_scooter", "lon": -77.025002, "name": "a754860947c522948d6086ca629531d9", "bike_id": "a754860947c522948d6086ca629531d9", "fusion_lat": 0.0, "is_reserved": 0, "lat": 38.942045666666665, "fusion_lon": 0.0, "is_disabled": 0}, {"rental_uris": {"android": "https://dc.lft.to/lastmile_qr_scan", "ios": "https://dc.lft.to/lastmile_qr_scan"}, "type": "electric_scooter", "lon": -77.00961683333334, "name": "a8639976bb264dfbfec2a7829854834c", "bike_id": "a8639976bb264dfbfec2a7829854834c", "fusion_lat": 0.0, "is_reserved": 0, "lat": 38.881298, "fusion_lon": 0.0, "is_disabled": 0}, {"rental_uris": {"android": "https://dc.lft.to/lastmile_qr_scan", "ios": "https://dc.lft.to/lastmile_qr_scan"}, "type": "electric_scooter", "lon": -76.990723, "name": "cbfc54da65ffd4f40b39702a3e01f8e1", "bike_id": "cbfc54da65ffd4f40b39702a3e01f8e1", "fusion_lat": 0.0, "is_reserved": 0, "lat": 38.9294355, "fusion_lon": 0.0, "is_disabled": 0}, {"rental_uris": {"android": "https://dc.lft.to/lastmile_qr_scan", "ios": "https://dc.lft.to/lastmile_qr_scan"}, "type": "electric_scooter", "lon": -77.03847116666667, "name": "86cdfe5c95750961a9b7724814222aa3", "bike_id": "86cdfe5c95750961a9b7724814222aa3", "fusion_lat": 0.0, "is_reserved": 0, "lat": 38.91544783333333, "fusion_lon": 0.0, "is_disabled": 0}, {"rental_uris": {"android": "https://dc.lft.to/lastmile_qr_scan", "ios": "https://dc.lft.to/lastmile_qr_scan"}, "type": "electric_scooter", "lon": -77.02962966666666, "name": "48d67647892d43960d72ff1b339aea5e", "bike_id": "48d67647892d43960d72ff1b339aea5e", "fusion_lat": 0.0, "is_reserved": 0, "lat": 38.906398333333335, "fusion_lon": 0.0, "is_disabled": 0}, {"rental_uris": {"android": "https://dc.lft.to/lastmile_qr_scan", "ios": "https://dc.lft.to/lastmile_qr_scan"}, "type": "electric_scooter", "lon": -77.01351983333333, "name": "8db9ee5048a2509413510f8129ce9aa0", "bike_id": "8db9ee5048a2509413510f8129ce9aa0", "fusion_lat": 0.0, "is_reserved": 0, "lat": 38.9038705, "fusion_lon": 0.0, "is_disabled": 0}, {"rental_uris": {"android": "https://dc.lft.to/lastmile_qr_scan", "ios": "https://dc.lft.to/lastmile_qr_scan"}, "type": "electric_scooter", "lon": -77.04339416666667, "name": "4770aea94d830f8cb8b2753a1be3f6db", "bike_id": "4770aea94d830f8cb8b2753a1be3f6db", "fusion_lat": 0.0, "is_reserved": 0, "lat": 38.913778666666666, "fusion_lon": 0.0, "is_disabled": 0}, {"rental_uris": {"android": "https://dc.lft.to/lastmile_qr_scan", "ios": "https://dc.lft.to/lastmile_qr_scan"}, "type": "electric_scooter", "lon": -77.03841616666666, "name": "027d9bc6fd51da60bd2ad4d361f5e29f", "bike_id": "027d9bc6fd51da60bd2ad4d361f5e29f", "fusion_lat": 0.0, "is_reserved": 0, "lat": 38.911904166666666, "fusion_lon": 0.0, "is_disabled": 0}, {"rental_uris": {"android": "https://dc.lft.to/lastmile_qr_scan", "ios": "https://dc.lft.to/lastmile_qr_scan"}, "type": "electric_scooter", "lon": -77.052637, "name": "3670c0a2f7f7d3296f44af5f0485ff97", "bike_id": "3670c0a2f7f7d3296f44af5f0485ff97", "fusion_lat": 0.0, "is_reserved": 0, "lat": 38.92750066666667, "fusion_lon": 0.0, "is_disabled": 0}, {"rental_uris": {"android": "https://dc.lft.to/lastmile_qr_scan", "ios": "https://dc.lft.to/lastmile_qr_scan"}, "type": "electric_scooter", "lon": -76.990081, "name": "c0ba37d1a4e1d26d447a3c1073cbebba", "bike_id": "c0ba37d1a4e1d26d447a3c1073cbebba", "fusion_lat": 0.0, "is_reserved": 0, "lat": 38.911389166666666, "fusion_lon": 0.0, "is_disabled": 0}, {"rental_uris": {"android": "https://dc.lft.to/lastmile_qr_scan", "ios": "https://dc.lft.to/lastmile_qr_scan"}, "type": "electric_scooter", "lon": -77.03857416666666, "name": "b45bafd45e72f075c620ba92a1999c48", "bike_id": "b45bafd45e72f075c620ba92a1999c48", "fusion_lat": 0.0, "is_reserved": 0, "lat": 38.917075833333335, "fusion_lon": 0.0, "is_disabled": 0}, {"rental_uris": {"android": "https://dc.lft.to/lastmile_qr_scan", "ios": "https://dc.lft.to/lastmile_qr_scan"}, "type": "electric_scooter", "lon": -77.01037183333334, "name": "7fc35ed34517b5c7726b890c5b9cb468", "bike_id": "7fc35ed34517b5c7726b890c5b9cb468", "fusion_lat": 0.0, "is_reserved": 0, "lat": 38.8844765, "fusion_lon": 0.0, "is_disabled": 0}, {"rental_uris": {"android": "https://dc.lft.to/lastmile_qr_scan", "ios": "https://dc.lft.to/lastmile_qr_scan"}, "type": "electric_scooter", "lon": -77.02565083333333, "name": "58b2b0fa8c89cd5092dfa98b9b1c217c", "bike_id": "58b2b0fa8c89cd5092dfa98b9b1c217c", "fusion_lat": 0.0, "is_reserved": 0, "lat": 38.925846166666666, "fusion_lon": 0.0, "is_disabled": 0}, {"rental_uris": {"android": "https://dc.lft.to/lastmile_qr_scan", "ios": "https://dc.lft.to/lastmile_qr_scan"}, "type": "electric_bike", "lon": -76.91125166666667, "name": "1196c98ebca1fc57dba30d4f8f27cb00", "bike_id": "1196c98ebca1fc57dba30d4f8f27cb00", "fusion_lat": 0.0, "is_reserved": 0, "lat": 39.01036783333333, "fusion_lon": 0.0, "is_disabled": 0}, {"rental_uris": {"android": "https://dc.lft.to/lastmile_qr_scan", "ios": "https://dc.lft.to/lastmile_qr_scan"}, "type": "electric_scooter", "lon": -76.941458, "name": "0391017777feaf9daefe155c5ee2445f", "bike_id": "0391017777feaf9daefe155c5ee2445f", "fusion_lat": 0.0, "is_reserved": 0, "lat": 38.891149166666665, "fusion_lon": 0.0, "is_disabled": 0}, {"rental_uris": {"android": "https://dc.lft.to/lastmile_qr_scan", "ios": "https://dc.lft.to/lastmile_qr_scan"}, "type": "electric_scooter", "lon": -76.97908283333334, "name": "3a2a4a3caf201af74e2771aa38da420a", "bike_id": "3a2a4a3caf201af74e2771aa38da420a", "fusion_lat": 0.0, "is_reserved": 0, "lat": 38.903878166666665, "fusion_lon": 0.0, "is_disabled": 0}, {"rental_uris": {"android": "https://dc.lft.to/lastmile_qr_scan", "ios": "https://dc.lft.to/lastmile_qr_scan"}, "type": "electric_scooter", "lon": -76.98587066666667, "name": "2d48c66599c721e6b22d4827a4576de4", "bike_id": "2d48c66599c721e6b22d4827a4576de4", "fusion_lat": 0.0, "is_reserved": 0, "lat": 38.88974066666667, "fusion_lon": 0.0, "is_disabled": 0}, {"rental_uris": {"android": "https://dc.lft.to/lastmile_qr_scan", "ios": "https://dc.lft.to/lastmile_qr_scan"}, "type": "electric_scooter", "lon": -77.04018333333333, "name": "771800124bc666b004a97a941e379d1d", "bike_id": "771800124bc666b004a97a941e379d1d", "fusion_lat": 0.0, "is_reserved": 0, "lat": 38.9245795, "fusion_lon": 0.0, "is_disabled": 0}, {"rental_uris": {"android": "https://dc.lft.to/lastmile_qr_scan", "ios": "https://dc.lft.to/lastmile_qr_scan"}, "type": "electric_scooter", "lon": -77.0317405, "name": "f915285d90e6c0ade26a16639d83cfcb", "bike_id": "f915285d90e6c0ade26a16639d83cfcb", "fusion_lat": 0.0, "is_reserved": 0, "lat": 38.91883033333333, "fusion_lon": 0.0, "is_disabled": 0}, {"rental_uris": {"android": "https://dc.lft.to/lastmile_qr_scan", "ios": "https://dc.lft.to/lastmile_qr_scan"}, "type": "electric_bike", "lon": -77.0241295, "name": "021bed0592e544060aed5a92da678fac", "bike_id": "021bed0592e544060aed5a92da678fac", "fusion_lat": 0.0, "is_reserved": 0, "lat": 38.949107, "fusion_lon": 0.0, "is_disabled": 0}, {"rental_uris": {"android": "https://dc.lft.to/lastmile_qr_scan", "ios": "https://dc.lft.to/lastmile_qr_scan"}, "type": "electric_scooter", "lon": -77.02286816666667, "name": "230a865b7ddf5a1a00c925d8f6c16348", "bike_id": "230a865b7ddf5a1a00c925d8f6c16348", "fusion_lat": 0.0, "is_reserved": 0, "lat": 38.91608016666667, "fusion_lon": 0.0, "is_disabled": 0}, {"rental_uris": {"android": "https://dc.lft.to/lastmile_qr_scan", "ios": "https://dc.lft.to/lastmile_qr_scan"}, "type": "electric_scooter", "lon": -77.02446866666666, "name": "b580a5159b59b555571006bbbc462d1c", "bike_id": "b580a5159b59b555571006bbbc462d1c", "fusion_lat": 0.0, "is_reserved": 0, "lat": 38.91846366666667, "fusion_lon": 0.0, "is_disabled": 0}, {"rental_uris": {"android": "https://dc.lft.to/lastmile_qr_scan", "ios": "https://dc.lft.to/lastmile_qr_scan"}, "type": "electric_scooter", "lon": -77.0168605, "name": "34a90f637f6a00faad844235d5ce208a", "bike_id": "34a90f637f6a00faad844235d5ce208a", "fusion_lat": 0.0, "is_reserved": 0, "lat": 38.91102866666667, "fusion_lon": 0.0, "is_disabled": 0}, {"rental_uris": {"android": "https://dc.lft.to/lastmile_qr_scan", "ios": "https://dc.lft.to/lastmile_qr_scan"}, "type": "electric_scooter", "lon": -77.010244, "name": "eeb17155b51a853f5aa150ec02513f9c", "bike_id": "eeb17155b51a853f5aa150ec02513f9c", "fusion_lat": 0.0, "is_reserved": 0, "lat": 38.906539333333335, "fusion_lon": 0.0, "is_disabled": 0}, {"rental_uris": {"android": "https://dc.lft.to/lastmile_qr_scan", "ios": "https://dc.lft.to/lastmile_qr_scan"}, "type": "electric_bike", "lon": -76.952036, "name": "41ba2bdd356aca7090a83d75078f7352", "bike_id": "41ba2bdd356aca7090a83d75078f7352", "fusion_lat": 0.0, "is_reserved": 0, "lat": 38.936693166666664, "fusion_lon": 0.0, "is_disabled": 0}, {"rental_uris": {"android": "https://dc.lft.to/lastmile_qr_scan", "ios": "https://dc.lft.to/lastmile_qr_scan"}, "type": "electric_scooter", "lon": -77.02035566666666, "name": "a36043bdab13850b875480c88ad91963", "bike_id": "a36043bdab13850b875480c88ad91963", "fusion_lat": 0.0, "is_reserved": 0, "lat": 38.899806833333336, "fusion_lon": 0.0, "is_disabled": 0}, {"rental_uris": {"android": "https://dc.lft.to/lastmile_qr_scan", "ios": "https://dc.lft.to/lastmile_qr_scan"}, "type": "electric_scooter", "lon": -76.990914, "name": "6198f7d2113931eefb27bd46677ee069", "bike_id": "6198f7d2113931eefb27bd46677ee069", "fusion_lat": 0.0, "is_reserved": 0, "lat": 38.863562333333334, "fusion_lon": 0.0, "is_disabled": 0}, {"rental_uris": {"android": "https://dc.lft.to/lastmile_qr_scan", "ios": "https://dc.lft.to/lastmile_qr_scan"}, "type": "electric_scooter", "lon": -77.02728633333334, "name": "5a102b51f80b9154f817bc8c57851b72", "bike_id": "5a102b51f80b9154f817bc8c57851b72", "fusion_lat": 0.0, "is_reserved": 0, "lat": 38.93984316666667, "fusion_lon": 0.0, "is_disabled": 0}, {"rental_uris": {"android": "https://dc.lft.to/lastmile_qr_scan", "ios": "https://dc.lft.to/lastmile_qr_scan"}, "type": "electric_scooter", "lon": -76.9872635, "name": "657ace9bdea9fb333b1bb1584d4505dc", "bike_id": "657ace9bdea9fb333b1bb1584d4505dc", "fusion_lat": 0.0, "is_reserved": 0, "lat": 38.86712583333333, "fusion_lon": 0.0, "is_disabled": 0}, {"rental_uris": {"android": "https://dc.lft.to/lastmile_qr_scan", "ios": "https://dc.lft.to/lastmile_qr_scan"}, "type": "electric_scooter", "lon": -77.06459133333334, "name": "4294e8c5d60ef416b3f21fff313eb343", "bike_id": "4294e8c5d60ef416b3f21fff313eb343", "fusion_lat": 0.0, "is_reserved": 0, "lat": 38.90982916666667, "fusion_lon": 0.0, "is_disabled": 0}, {"rental_uris": {"android": "https://dc.lft.to/lastmile_qr_scan", "ios": "https://dc.lft.to/lastmile_qr_scan"}, "type": "electric_scooter", "lon": -77.048643, "name": "32074a34cd3c0d57ea4f0619361e6144", "bike_id": "32074a34cd3c0d57ea4f0619361e6144", "fusion_lat": 0.0, "is_reserved": 0, "lat": 38.903688833333334, "fusion_lon": 0.0, "is_disabled": 0}, {"rental_uris": {"android": "https://dc.lft.to/lastmile_qr_scan", "ios": "https://dc.lft.to/lastmile_qr_scan"}, "type": "electric_scooter", "lon": -77.02758716666666, "name": "ceae8385257211fe8e851f4874bfa9e9", "bike_id": "ceae8385257211fe8e851f4874bfa9e9", "fusion_lat": 0.0, "is_reserved": 0, "lat": 38.95399166666667, "fusion_lon": 0.0, "is_disabled": 0}, {"rental_uris": {"android": "https://dc.lft.to/lastmile_qr_scan", "ios": "https://dc.lft.to/lastmile_qr_scan"}, "type": "electric_scooter", "lon": -77.02341866666667, "name": "a1c396ad11546a39d7d77527045b5971", "bike_id": "a1c396ad11546a39d7d77527045b5971", "fusion_lat": 0.0, "is_reserved": 0, "lat": 38.9226455, "fusion_lon": 0.0, "is_disabled": 0}, {"rental_uris": {"android": "https://dc.lft.to/lastmile_qr_scan", "ios": "https://dc.lft.to/lastmile_qr_scan"}, "type": "electric_scooter", "lon": -77.03182466666667, "name": "ecda1c6dc6a375388e439f68659d0e71", "bike_id": "ecda1c6dc6a375388e439f68659d0e71", "fusion_lat": 0.0, "is_reserved": 0, "lat": 38.8933055, "fusion_lon": 0.0, "is_disabled": 0}, {"rental_uris": {"android": "https://dc.lft.to/lastmile_qr_scan", "ios": "https://dc.lft.to/lastmile_qr_scan"}, "type": "electric_scooter", "lon": -77.02383833333333, "name": "1385c90d8c5616f32ff9d58ea1827d6f", "bike_id": "1385c90d8c5616f32ff9d58ea1827d6f", "fusion_lat": 0.0, "is_reserved": 0, "lat": 38.90709733333333, "fusion_lon": 0.0, "is_disabled": 0}, {"rental_uris": {"android": "https://dc.lft.to/lastmile_qr_scan", "ios": "https://dc.lft.to/lastmile_qr_scan"}, "type": "electric_scooter", "lon": -76.987084, "name": "8d9678dab2da4bdc9ec0de47e69258ba", "bike_id": "8d9678dab2da4bdc9ec0de47e69258ba", "fusion_lat": 0.0, "is_reserved": 0, "lat": 38.866966, "fusion_lon": 0.0, "is_disabled": 0}, {"rental_uris": {"android": "https://dc.lft.to/lastmile_qr_scan", "ios": "https://dc.lft.to/lastmile_qr_scan"}, "type": "electric_scooter", "lon": -77.01812183333334, "name": "7e7f246f95123bf453076c938a93c4e5", "bike_id": "7e7f246f95123bf453076c938a93c4e5", "fusion_lat": 0.0, "is_reserved": 0, "lat": 38.921692, "fusion_lon": 0.0, "is_disabled": 0}, {"rental_uris": {"android": "https://dc.lft.to/lastmile_qr_scan", "ios": "https://dc.lft.to/lastmile_qr_scan"}, "type": "electric_scooter", "lon": -77.04349683333334, "name": "8e0982010d8e60b953f943ba83b366b6", "bike_id": "8e0982010d8e60b953f943ba83b366b6", "fusion_lat": 0.0, "is_reserved": 0, "lat": 38.90517083333334, "fusion_lon": 0.0, "is_disabled": 0}, {"rental_uris": {"android": "https://dc.lft.to/lastmile_qr_scan", "ios": "https://dc.lft.to/lastmile_qr_scan"}, "type": "electric_scooter", "lon": -77.00896866666666, "name": "5b566aa7817b603ac7a553acdf3f2ab5", "bike_id": "5b566aa7817b603ac7a553acdf3f2ab5", "fusion_lat": 0.0, "is_reserved": 0, "lat": 38.873193, "fusion_lon": 0.0, "is_disabled": 0}, {"rental_uris": {"android": "https://dc.lft.to/lastmile_qr_scan", "ios": "https://dc.lft.to/lastmile_qr_scan"}, "type": "electric_bike", "lon": -77.1250035, "name": "59e9b33321a710fac9f7ee4e5759aebd", "bike_id": "59e9b33321a710fac9f7ee4e5759aebd", "fusion_lat": 0.0, "is_reserved": 0, "lat": 39.0242545, "fusion_lon": 0.0, "is_disabled": 0}, {"rental_uris": {"android": "https://dc.lft.to/lastmile_qr_scan", "ios": "https://dc.lft.to/lastmile_qr_scan"}, "type": "electric_scooter", "lon": -76.99266083333333, "name": "74d035cc3aecc1b167fe6fa776f51ff1", "bike_id": "74d035cc3aecc1b167fe6fa776f51ff1", "fusion_lat": 0.0, "is_reserved": 0, "lat": 38.892978666666664, "fusion_lon": 0.0, "is_disabled": 0}, {"rental_uris": {"android": "https://dc.lft.to/lastmile_qr_scan", "ios": "https://dc.lft.to/lastmile_qr_scan"}, "type": "electric_bike", "lon": -76.99567133333333, "name": "b2866585afd1cd5619eba42e4cd32622", "bike_id": "b2866585afd1cd5619eba42e4cd32622", "fusion_lat": 0.0, "is_reserved": 0, "lat": 39.007872666666664, "fusion_lon": 0.0, "is_disabled": 0}, {"rental_uris": {"android": "https://dc.lft.to/lastmile_qr_scan", "ios": "https://dc.lft.to/lastmile_qr_scan"}, "type": "electric_scooter", "lon": -77.045061, "name": "4886cad38fa7ec2d22e892461cd88534", "bike_id": "4886cad38fa7ec2d22e892461cd88534", "fusion_lat": 0.0, "is_reserved": 0, "lat": 38.892229666666665, "fusion_lon": 0.0, "is_disabled": 0}, {"rental_uris": {"android": "https://dc.lft.to/lastmile_qr_scan", "ios": "https://dc.lft.to/lastmile_qr_scan"}, "type": "electric_bike", "lon": -77.09561833333333, "name": "e9c2df025d6dadae99a88f156a55e34d", "bike_id": "e9c2df025d6dadae99a88f156a55e34d", "fusion_lat": 0.0, "is_reserved": 0, "lat": 38.91705016666667, "fusion_lon": 0.0, "is_disabled": 0}, {"rental_uris": {"android": "https://dc.lft.to/lastmile_qr_scan", "ios": "https://dc.lft.to/lastmile_qr_scan"}, "type": "electric_scooter", "lon": -77.07156883333333, "name": "8f146ef1d84b96ba82b388958ac2015f", "bike_id": "8f146ef1d84b96ba82b388958ac2015f", "fusion_lat": 0.0, "is_reserved": 0, "lat": 38.95834, "fusion_lon": 0.0, "is_disabled": 0}, {"rental_uris": {"android": "https://dc.lft.to/lastmile_qr_scan", "ios": "https://dc.lft.to/lastmile_qr_scan"}, "type": "electric_scooter", "lon": -77.00163616666667, "name": "4c300740ef3383b2184ab9895c07d676", "bike_id": "4c300740ef3383b2184ab9895c07d676", "fusion_lat": 0.0, "is_reserved": 0, "lat": 38.90516183333333, "fusion_lon": 0.0, "is_disabled": 0}, {"rental_uris": {"android": "https://dc.lft.to/lastmile_qr_scan", "ios": "https://dc.lft.to/lastmile_qr_scan"}, "type": "electric_scooter", "lon": -77.04328666666666, "name": "59fe32e138446cd33792a1e387184ffe", "bike_id": "59fe32e138446cd33792a1e387184ffe", "fusion_lat": 0.0, "is_reserved": 0, "lat": 38.908432833333336, "fusion_lon": 0.0, "is_disabled": 0}, {"rental_uris": {"android": "https://dc.lft.to/lastmile_qr_scan", "ios": "https://dc.lft.to/lastmile_qr_scan"}, "type": "electric_scooter", "lon": -77.022924, "name": "4b5bc046136ece2cac1e4d6f9e06a82f", "bike_id": "4b5bc046136ece2cac1e4d6f9e06a82f", "fusion_lat": 0.0, "is_reserved": 0, "lat": 38.91744116666667, "fusion_lon": 0.0, "is_disabled": 0}, {"rental_uris": {"android": "https://dc.lft.to/lastmile_qr_scan", "ios": "https://dc.lft.to/lastmile_qr_scan"}, "type": "electric_bike", "lon": -77.0144875, "name": "b46dc7d32bc8b944ed5bd572dfdab10c", "bike_id": "b46dc7d32bc8b944ed5bd572dfdab10c", "fusion_lat": 0.0, "is_reserved": 0, "lat": 38.876746833333335, "fusion_lon": 0.0, "is_disabled": 0}, {"rental_uris": {"android": "https://dc.lft.to/lastmile_qr_scan", "ios": "https://dc.lft.to/lastmile_qr_scan"}, "type": "electric_scooter", "lon": -77.03264933333334, "name": "eab7c9bffb55b684684accee88003cf9", "bike_id": "eab7c9bffb55b684684accee88003cf9", "fusion_lat": 0.0, "is_reserved": 0, "lat": 38.93254733333333, "fusion_lon": 0.0, "is_disabled": 0}, {"rental_uris": {"android": "https://dc.lft.to/lastmile_qr_scan", "ios": "https://dc.lft.to/lastmile_qr_scan"}, "type": "electric_scooter", "lon": -76.96914366666667, "name": "6616ed764a0e8ac1437ad2ce4e4c8727", "bike_id": "6616ed764a0e8ac1437ad2ce4e4c8727", "fusion_lat": 0.0, "is_reserved": 0, "lat": 38.855279, "fusion_lon": 0.0, "is_disabled": 0}, {"rental_uris": {"android": "https://dc.lft.to/lastmile_qr_scan", "ios": "https://dc.lft.to/lastmile_qr_scan"}, "type": "electric_scooter", "lon": -77.032196, "name": "33bbb565102aa170169b55a773b0f96d", "bike_id": "33bbb565102aa170169b55a773b0f96d", "fusion_lat": 0.0, "is_reserved": 0, "lat": 38.918609000000004, "fusion_lon": 0.0, "is_disabled": 0}, {"rental_uris": {"android": "https://dc.lft.to/lastmile_qr_scan", "ios": "https://dc.lft.to/lastmile_qr_scan"}, "type": "electric_scooter", "lon": -77.031234, "name": "921e13b4bba95b09bddeb30da13309ff", "bike_id": "921e13b4bba95b09bddeb30da13309ff", "fusion_lat": 0.0, "is_reserved": 0, "lat": 38.9737655, "fusion_lon": 0.0, "is_disabled": 0}, {"rental_uris": {"android": "https://dc.lft.to/lastmile_qr_scan", "ios": "https://dc.lft.to/lastmile_qr_scan"}, "type": "electric_bike", "lon": -77.05033583333334, "name": "9f3b2e9501482a12ec6ee620410c143e", "bike_id": "9f3b2e9501482a12ec6ee620410c143e", "fusion_lat": 0.0, "is_reserved": 0, "lat": 38.911162833333336, "fusion_lon": 0.0, "is_disabled": 0}, {"rental_uris": {"android": "https://dc.lft.to/lastmile_qr_scan", "ios": "https://dc.lft.to/lastmile_qr_scan"}, "type": "electric_scooter", "lon": -77.04653033333334, "name": "cc481c1794bae34fe5c2285a754e86b4", "bike_id": "cc481c1794bae34fe5c2285a754e86b4", "fusion_lat": 0.0, "is_reserved": 0, "lat": 38.89295933333333, "fusion_lon": 0.0, "is_disabled": 0}, {"rental_uris": {"android": "https://dc.lft.to/lastmile_qr_scan", "ios": "https://dc.lft.to/lastmile_qr_scan"}, "type": "electric_scooter", "lon": -77.02358383333333, "name": "0cee8a9ce295c8efb47616ea67f7ecbc", "bike_id": "0cee8a9ce295c8efb47616ea67f7ecbc", "fusion_lat": 0.0, "is_reserved": 0, "lat": 38.91788716666667, "fusion_lon": 0.0, "is_disabled": 0}, {"rental_uris": {"android": "https://dc.lft.to/lastmile_qr_scan", "ios": "https://dc.lft.to/lastmile_qr_scan"}, "type": "electric_scooter", "lon": -77.044048, "name": "4bd5494851fabab03ed4c1a525381001", "bike_id": "4bd5494851fabab03ed4c1a525381001", "fusion_lat": 0.0, "is_reserved": 0, "lat": 38.8743285, "fusion_lon": 0.0, "is_disabled": 0}, {"rental_uris": {"android": "https://dc.lft.to/lastmile_qr_scan", "ios": "https://dc.lft.to/lastmile_qr_scan"}, "type": "electric_bike", "lon": -77.09159533333333, "name": "e4e5cdfd4e06268e085d1d3846030c36", "bike_id": "e4e5cdfd4e06268e085d1d3846030c36", "fusion_lat": 0.0, "is_reserved": 0, "lat": 38.96766983333333, "fusion_lon": 0.0, "is_disabled": 0}, {"rental_uris": {"android": "https://dc.lft.to/lastmile_qr_scan", "ios": "https://dc.lft.to/lastmile_qr_scan"}, "type": "electric_scooter", "lon": -77.04049666666667, "name": "3f45dab08321d7c8b79bad68589d0cf2", "bike_id": "3f45dab08321d7c8b79bad68589d0cf2", "fusion_lat": 0.0, "is_reserved": 0, "lat": 38.92877133333333, "fusion_lon": 0.0, "is_disabled": 0}, {"rental_uris": {"android": "https://dc.lft.to/lastmile_qr_scan", "ios": "https://dc.lft.to/lastmile_qr_scan"}, "type": "electric_scooter", "lon": -77.03259083333333, "name": "494e395cab8760f65d5b4a1fc8ed1241", "bike_id": "494e395cab8760f65d5b4a1fc8ed1241", "fusion_lat": 0.0, "is_reserved": 0, "lat": 38.94259016666667, "fusion_lon": 0.0, "is_disabled": 0}, {"rental_uris": {"android": "https://dc.lft.to/lastmile_qr_scan", "ios": "https://dc.lft.to/lastmile_qr_scan"}, "type": "electric_bike", "lon": -76.9874485, "name": "58a58fd1f635062e23514354676bf864", "bike_id": "58a58fd1f635062e23514354676bf864", "fusion_lat": 0.0, "is_reserved": 0, "lat": 38.857933, "fusion_lon": 0.0, "is_disabled": 0}, {"rental_uris": {"android": "https://dc.lft.to/lastmile_qr_scan", "ios": "https://dc.lft.to/lastmile_qr_scan"}, "type": "electric_scooter", "lon": -77.032885, "name": "1a2351499493b2c011035c16af9cb1e1", "bike_id": "1a2351499493b2c011035c16af9cb1e1", "fusion_lat": 0.0, "is_reserved": 0, "lat": 38.920694833333336, "fusion_lon": 0.0, "is_disabled": 0}, {"rental_uris": {"android": "https://dc.lft.to/lastmile_qr_scan", "ios": "https://dc.lft.to/lastmile_qr_scan"}, "type": "electric_bike", "lon": -76.98083183333334, "name": "8eb5fd5196784f5ee78fa939db5da975", "bike_id": "8eb5fd5196784f5ee78fa939db5da975", "fusion_lat": 0.0, "is_reserved": 0, "lat": 38.953573666666664, "fusion_lon": 0.0, "is_disabled": 0}, {"rental_uris": {"android": "https://dc.lft.to/lastmile_qr_scan", "ios": "https://dc.lft.to/lastmile_qr_scan"}, "type": "electric_scooter", "lon": -77.029632, "name": "23fc8a2082421cfb4cef8d569a7287cc", "bike_id": "23fc8a2082421cfb4cef8d569a7287cc", "fusion_lat": 0.0, "is_reserved": 0, "lat": 38.89222933333333, "fusion_lon": 0.0, "is_disabled": 0}, {"rental_uris": {"android": "https://dc.lft.to/lastmile_qr_scan", "ios": "https://dc.lft.to/lastmile_qr_scan"}, "type": "electric_scooter", "lon": -77.03874066666667, "name": "58256b3a0a2da54d7fd38e32af83614f", "bike_id": "58256b3a0a2da54d7fd38e32af83614f", "fusion_lat": 0.0, "is_reserved": 0, "lat": 38.93242683333333, "fusion_lon": 0.0, "is_disabled": 0}, {"rental_uris": {"android": "https://dc.lft.to/lastmile_qr_scan", "ios": "https://dc.lft.to/lastmile_qr_scan"}, "type": "electric_scooter", "lon": -77.01732716666666, "name": "7ab44c5aee6596dded09fd0e98443bc1", "bike_id": "7ab44c5aee6596dded09fd0e98443bc1", "fusion_lat": 0.0, "is_reserved": 0, "lat": 38.942046500000004, "fusion_lon": 0.0, "is_disabled": 0}, {"rental_uris": {"android": "https://dc.lft.to/lastmile_qr_scan", "ios": "https://dc.lft.to/lastmile_qr_scan"}, "type": "electric_scooter", "lon": -77.0220795, "name": "61c05f74b9e1921f22fb50efb246a83d", "bike_id": "61c05f74b9e1921f22fb50efb246a83d", "fusion_lat": 0.0, "is_reserved": 0, "lat": 38.915654833333335, "fusion_lon": 0.0, "is_disabled": 0}, {"rental_uris": {"android": "https://dc.lft.to/lastmile_qr_scan", "ios": "https://dc.lft.to/lastmile_qr_scan"}, "type": "electric_scooter", "lon": -77.04807566666666, "name": "168244deb11788677c94411f44837f93", "bike_id": "168244deb11788677c94411f44837f93", "fusion_lat": 0.0, "is_reserved": 0, "lat": 38.91916066666667, "fusion_lon": 0.0, "is_disabled": 0}, {"rental_uris": {"android": "https://dc.lft.to/lastmile_qr_scan", "ios": "https://dc.lft.to/lastmile_qr_scan"}, "type": "electric_scooter", "lon": -77.0261555, "name": "9f695fbb02dddecdc2290f660e10d6e0", "bike_id": "9f695fbb02dddecdc2290f660e10d6e0", "fusion_lat": 0.0, "is_reserved": 0, "lat": 38.88596483333333, "fusion_lon": 0.0, "is_disabled": 0}, {"rental_uris": {"android": "https://dc.lft.to/lastmile_qr_scan", "ios": "https://dc.lft.to/lastmile_qr_scan"}, "type": "electric_scooter", "lon": -77.03341133333333, "name": "b9e8bba0bf76e78698b4ab28363dca5e", "bike_id": "b9e8bba0bf76e78698b4ab28363dca5e", "fusion_lat": 0.0, "is_reserved": 0, "lat": 38.922406333333335, "fusion_lon": 0.0, "is_disabled": 0}, {"rental_uris": {"android": "https://dc.lft.to/lastmile_qr_scan", "ios": "https://dc.lft.to/lastmile_qr_scan"}, "type": "electric_scooter", "lon": -77.0216975, "name": "ffcebe4159e6b18ca867053b8423b884", "bike_id": "ffcebe4159e6b18ca867053b8423b884", "fusion_lat": 0.0, "is_reserved": 0, "lat": 38.8974075, "fusion_lon": 0.0, "is_disabled": 0}, {"rental_uris": {"android": "https://dc.lft.to/lastmile_qr_scan", "ios": "https://dc.lft.to/lastmile_qr_scan"}, "type": "electric_bike", "lon": -77.12625216666666, "name": "d75cb6308290cc38859c950052d6db13", "bike_id": "d75cb6308290cc38859c950052d6db13", "fusion_lat": 0.0, "is_reserved": 0, "lat": 39.0581115, "fusion_lon": 0.0, "is_disabled": 0}, {"rental_uris": {"android": "https://dc.lft.to/lastmile_qr_scan", "ios": "https://dc.lft.to/lastmile_qr_scan"}, "type": "electric_scooter", "lon": -77.06756633333333, "name": "6e6485188240b07d76a0e86b84c51652", "bike_id": "6e6485188240b07d76a0e86b84c51652", "fusion_lat": 0.0, "is_reserved": 0, "lat": 38.94978733333333, "fusion_lon": 0.0, "is_disabled": 0}, {"rental_uris": {"android": "https://dc.lft.to/lastmile_qr_scan", "ios": "https://dc.lft.to/lastmile_qr_scan"}, "type": "electric_scooter", "lon": -77.045366, "name": "f31483070b878c2a7c80ba071c659296", "bike_id": "f31483070b878c2a7c80ba071c659296", "fusion_lat": 0.0, "is_reserved": 0, "lat": 38.92050716666667, "fusion_lon": 0.0, "is_disabled": 0}, {"rental_uris": {"android": "https://dc.lft.to/lastmile_qr_scan", "ios": "https://dc.lft.to/lastmile_qr_scan"}, "type": "electric_scooter", "lon": -77.0350865, "name": "a0077b9b821c19f5cfb46bf905394539", "bike_id": "a0077b9b821c19f5cfb46bf905394539", "fusion_lat": 0.0, "is_reserved": 0, "lat": 38.9214515, "fusion_lon": 0.0, "is_disabled": 0}, {"rental_uris": {"android": "https://dc.lft.to/lastmile_qr_scan", "ios": "https://dc.lft.to/lastmile_qr_scan"}, "type": "electric_scooter", "lon": -77.03202116666667, "name": "49b8cae62b65b42bd0c6abb11a0694af", "bike_id": "49b8cae62b65b42bd0c6abb11a0694af", "fusion_lat": 0.0, "is_reserved": 0, "lat": 38.93967883333333, "fusion_lon": 0.0, "is_disabled": 0}, {"rental_uris": {"android": "https://dc.lft.to/lastmile_qr_scan", "ios": "https://dc.lft.to/lastmile_qr_scan"}, "type": "electric_scooter", "lon": -77.021543, "name": "b6531477963597711010428a9e62f01d", "bike_id": "b6531477963597711010428a9e62f01d", "fusion_lat": 0.0, "is_reserved": 0, "lat": 38.926026666666665, "fusion_lon": 0.0, "is_disabled": 0}, {"rental_uris": {"android": "https://dc.lft.to/lastmile_qr_scan", "ios": "https://dc.lft.to/lastmile_qr_scan"}, "type": "electric_bike", "lon": -77.02780066666666, "name": "784d74cc99725be379f1ca15dd48402a", "bike_id": "784d74cc99725be379f1ca15dd48402a", "fusion_lat": 0.0, "is_reserved": 0, "lat": 38.965233, "fusion_lon": 0.0, "is_disabled": 0}, {"rental_uris": {"android": "https://dc.lft.to/lastmile_qr_scan", "ios": "https://dc.lft.to/lastmile_qr_scan"}, "type": "electric_scooter", "lon": -77.030339, "name": "19b87699d7aa3605be73ad2fa88dde51", "bike_id": "19b87699d7aa3605be73ad2fa88dde51", "fusion_lat": 0.0, "is_reserved": 0, "lat": 38.93981983333333, "fusion_lon": 0.0, "is_disabled": 0}, {"rental_uris": {"android": "https://dc.lft.to/lastmile_qr_scan", "ios": "https://dc.lft.to/lastmile_qr_scan"}, "type": "electric_bike", "lon": -76.9721395, "name": "de0ffcd618b1d10c5089d46763146ebc", "bike_id": "de0ffcd618b1d10c5089d46763146ebc", "fusion_lat": 0.0, "is_reserved": 0, "lat": 38.8447585, "fusion_lon": 0.0, "is_disabled": 0}, {"rental_uris": {"android": "https://dc.lft.to/lastmile_qr_scan", "ios": "https://dc.lft.to/lastmile_qr_scan"}, "type": "electric_scooter", "lon": -77.0259335, "name": "5b4063df0b1ee4ce17888b96e9df2ab0", "bike_id": "5b4063df0b1ee4ce17888b96e9df2ab0", "fusion_lat": 0.0, "is_reserved": 0, "lat": 38.90846666666667, "fusion_lon": 0.0, "is_disabled": 0}, {"rental_uris": {"android": "https://dc.lft.to/lastmile_qr_scan", "ios": "https://dc.lft.to/lastmile_qr_scan"}, "type": "electric_scooter", "lon": -77.0185405, "name": "9e108be817f0f735661cc1932ed4af7c", "bike_id": "9e108be817f0f735661cc1932ed4af7c", "fusion_lat": 0.0, "is_reserved": 0, "lat": 38.91963783333333, "fusion_lon": 0.0, "is_disabled": 0}, {"rental_uris": {"android": "https://dc.lft.to/lastmile_qr_scan", "ios": "https://dc.lft.to/lastmile_qr_scan"}, "type": "electric_scooter", "lon": -77.020506, "name": "9529e60025ba7cd10f50069fb8e50af6", "bike_id": "9529e60025ba7cd10f50069fb8e50af6", "fusion_lat": 0.0, "is_reserved": 0, "lat": 38.95871916666667, "fusion_lon": 0.0, "is_disabled": 0}, {"rental_uris": {"android": "https://dc.lft.to/lastmile_qr_scan", "ios": "https://dc.lft.to/lastmile_qr_scan"}, "type": "electric_scooter", "lon": -77.03717033333334, "name": "2867150667360fb8cb77749e8f867def", "bike_id": "2867150667360fb8cb77749e8f867def", "fusion_lat": 0.0, "is_reserved": 0, "lat": 38.91806283333333, "fusion_lon": 0.0, "is_disabled": 0}, {"rental_uris": {"android": "https://dc.lft.to/lastmile_qr_scan", "ios": "https://dc.lft.to/lastmile_qr_scan"}, "type": "electric_bike", "lon": -76.96489466666667, "name": "115855ffda5f89eaec8ed40a6b076146", "bike_id": "115855ffda5f89eaec8ed40a6b076146", "fusion_lat": 0.0, "is_reserved": 0, "lat": 38.87550316666667, "fusion_lon": 0.0, "is_disabled": 0}, {"rental_uris": {"android": "https://dc.lft.to/lastmile_qr_scan", "ios": "https://dc.lft.to/lastmile_qr_scan"}, "type": "electric_scooter", "lon": -77.037812, "name": "a2500fd79d44d8bc83a0406443cfbfd6", "bike_id": "a2500fd79d44d8bc83a0406443cfbfd6", "fusion_lat": 0.0, "is_reserved": 0, "lat": 38.92553733333333, "fusion_lon": 0.0, "is_disabled": 0}, {"rental_uris": {"android": "https://dc.lft.to/lastmile_qr_scan", "ios": "https://dc.lft.to/lastmile_qr_scan"}, "type": "electric_scooter", "lon": -77.08622166666666, "name": "3c78cd6d729c422f958baf597a699bbf", "bike_id": "3c78cd6d729c422f958baf597a699bbf", "fusion_lat": 0.0, "is_reserved": 0, "lat": 38.9587275, "fusion_lon": 0.0, "is_disabled": 0}, {"rental_uris": {"android": "https://dc.lft.to/lastmile_qr_scan", "ios": "https://dc.lft.to/lastmile_qr_scan"}, "type": "electric_scooter", "lon": -76.94760916666667, "name": "c7cf9610889cbed0abd4272b13a33ea9", "bike_id": "c7cf9610889cbed0abd4272b13a33ea9", "fusion_lat": 0.0, "is_reserved": 0, "lat": 38.8967245, "fusion_lon": 0.0, "is_disabled": 0}, {"rental_uris": {"android": "https://dc.lft.to/lastmile_qr_scan", "ios": "https://dc.lft.to/lastmile_qr_scan"}, "type": "electric_scooter", "lon": -77.0432985, "name": "ba51592721990c868748c96ed2b82258", "bike_id": "ba51592721990c868748c96ed2b82258", "fusion_lat": 0.0, "is_reserved": 0, "lat": 38.904359166666666, "fusion_lon": 0.0, "is_disabled": 0}, {"rental_uris": {"android": "https://dc.lft.to/lastmile_qr_scan", "ios": "https://dc.lft.to/lastmile_qr_scan"}, "type": "electric_scooter", "lon": -77.01154716666667, "name": "a3af51e1c499df46114e01354fa13355", "bike_id": "a3af51e1c499df46114e01354fa13355", "fusion_lat": 0.0, "is_reserved": 0, "lat": 38.912639666666664, "fusion_lon": 0.0, "is_disabled": 0}, {"rental_uris": {"android": "https://dc.lft.to/lastmile_qr_scan", "ios": "https://dc.lft.to/lastmile_qr_scan"}, "type": "electric_scooter", "lon": -76.99578766666667, "name": "422d506aea6ece5f9bf05ebd85a63d37", "bike_id": "422d506aea6ece5f9bf05ebd85a63d37", "fusion_lat": 0.0, "is_reserved": 0, "lat": 38.94950433333333, "fusion_lon": 0.0, "is_disabled": 0}, {"rental_uris": {"android": "https://dc.lft.to/lastmile_qr_scan", "ios": "https://dc.lft.to/lastmile_qr_scan"}, "type": "electric_scooter", "lon": -77.02341883333334, "name": "8a32964267c2663878461490abeff91e", "bike_id": "8a32964267c2663878461490abeff91e", "fusion_lat": 0.0, "is_reserved": 0, "lat": 38.92990266666666, "fusion_lon": 0.0, "is_disabled": 0}, {"rental_uris": {"android": "https://dc.lft.to/lastmile_qr_scan", "ios": "https://dc.lft.to/lastmile_qr_scan"}, "type": "electric_scooter", "lon": -77.0199425, "name": "f58374c0c0476f423f9b1ed48fbfe65d", "bike_id": "f58374c0c0476f423f9b1ed48fbfe65d", "fusion_lat": 0.0, "is_reserved": 0, "lat": 38.88380633333333, "fusion_lon": 0.0, "is_disabled": 0}, {"rental_uris": {"android": "https://dc.lft.to/lastmile_qr_scan", "ios": "https://dc.lft.to/lastmile_qr_scan"}, "type": "electric_scooter", "lon": -77.01927083333334, "name": "e732161478788293b0b6274c0f8ec239", "bike_id": "e732161478788293b0b6274c0f8ec239", "fusion_lat": 0.0, "is_reserved": 0, "lat": 38.90013366666667, "fusion_lon": 0.0, "is_disabled": 0}, {"rental_uris": {"android": "https://dc.lft.to/lastmile_qr_scan", "ios": "https://dc.lft.to/lastmile_qr_scan"}, "type": "electric_bike", "lon": -76.9520725, "name": "efbe6bfdd56e970f4c563dbb4c8fb4f0", "bike_id": "efbe6bfdd56e970f4c563dbb4c8fb4f0", "fusion_lat": 0.0, "is_reserved": 0, "lat": 38.936709, "fusion_lon": 0.0, "is_disabled": 0}, {"rental_uris": {"android": "https://dc.lft.to/lastmile_qr_scan", "ios": "https://dc.lft.to/lastmile_qr_scan"}, "type": "electric_scooter", "lon": -77.039917, "name": "a8e4a005cf223fd42b52e0270a22937b", "bike_id": "a8e4a005cf223fd42b52e0270a22937b", "fusion_lat": 0.0, "is_reserved": 0, "lat": 38.903769833333335, "fusion_lon": 0.0, "is_disabled": 0}, {"rental_uris": {"android": "https://dc.lft.to/lastmile_qr_scan", "ios": "https://dc.lft.to/lastmile_qr_scan"}, "type": "electric_scooter", "lon": -77.06974583333333, "name": "0744d961b56ef06293c5f0c4e164f3f6", "bike_id": "0744d961b56ef06293c5f0c4e164f3f6", "fusion_lat": 0.0, "is_reserved": 0, "lat": 38.95291, "fusion_lon": 0.0, "is_disabled": 0}, {"rental_uris": {"android": "https://dc.lft.to/lastmile_qr_scan", "ios": "https://dc.lft.to/lastmile_qr_scan"}, "type": "electric_scooter", "lon": -77.0020755, "name": "715a6f5158367b602741f2148a07ec52", "bike_id": "715a6f5158367b602741f2148a07ec52", "fusion_lat": 0.0, "is_reserved": 0, "lat": 38.90843116666667, "fusion_lon": 0.0, "is_disabled": 0}, {"rental_uris": {"android": "https://dc.lft.to/lastmile_qr_scan", "ios": "https://dc.lft.to/lastmile_qr_scan"}, "type": "electric_scooter", "lon": -77.02876333333333, "name": "471939976b40a79d420c6bd03345ea13", "bike_id": "471939976b40a79d420c6bd03345ea13", "fusion_lat": 0.0, "is_reserved": 0, "lat": 38.904179166666665, "fusion_lon": 0.0, "is_disabled": 0}, {"rental_uris": {"android": "https://dc.lft.to/lastmile_qr_scan", "ios": "https://dc.lft.to/lastmile_qr_scan"}, "type": "electric_scooter", "lon": -77.02154616666667, "name": "d59969f53888645da91a6e704b03a8ad", "bike_id": "d59969f53888645da91a6e704b03a8ad", "fusion_lat": 0.0, "is_reserved": 0, "lat": 38.879239, "fusion_lon": 0.0, "is_disabled": 0}, {"rental_uris": {"android": "https://dc.lft.to/lastmile_qr_scan", "ios": "https://dc.lft.to/lastmile_qr_scan"}, "type": "electric_scooter", "lon": -77.04126166666667, "name": "82c6598045b0c62b079ca38563fab4ab", "bike_id": "82c6598045b0c62b079ca38563fab4ab", "fusion_lat": 0.0, "is_reserved": 0, "lat": 38.921370833333334, "fusion_lon": 0.0, "is_disabled": 0}, {"rental_uris": {"android": "https://dc.lft.to/lastmile_qr_scan", "ios": "https://dc.lft.to/lastmile_qr_scan"}, "type": "electric_bike", "lon": -76.99027233333334, "name": "41c3e498b2aa74a1b04e3def2a60c3a6", "bike_id": "41c3e498b2aa74a1b04e3def2a60c3a6", "fusion_lat": 0.0, "is_reserved": 0, "lat": 38.8980935, "fusion_lon": 0.0, "is_disabled": 0}, {"rental_uris": {"android": "https://dc.lft.to/lastmile_qr_scan", "ios": "https://dc.lft.to/lastmile_qr_scan"}, "type": "electric_scooter", "lon": -77.03212883333333, "name": "15b7503587e62cd8f37993b8e97ec50c", "bike_id": "15b7503587e62cd8f37993b8e97ec50c", "fusion_lat": 0.0, "is_reserved": 0, "lat": 38.91825933333333, "fusion_lon": 0.0, "is_disabled": 0}, {"rental_uris": {"android": "https://dc.lft.to/lastmile_qr_scan", "ios": "https://dc.lft.to/lastmile_qr_scan"}, "type": "electric_scooter", "lon": -77.06188866666666, "name": "e20c1d5b3c03478b4fe0a3268b5870f0", "bike_id": "e20c1d5b3c03478b4fe0a3268b5870f0", "fusion_lat": 0.0, "is_reserved": 0, "lat": 38.930161166666664, "fusion_lon": 0.0, "is_disabled": 0}, {"rental_uris": {"android": "https://dc.lft.to/lastmile_qr_scan", "ios": "https://dc.lft.to/lastmile_qr_scan"}, "type": "electric_scooter", "lon": -76.99028783333333, "name": "5b87e50f114d48e9e91d9ef5a97feaf8", "bike_id": "5b87e50f114d48e9e91d9ef5a97feaf8", "fusion_lat": 0.0, "is_reserved": 0, "lat": 38.860656, "fusion_lon": 0.0, "is_disabled": 0}, {"rental_uris": {"android": "https://dc.lft.to/lastmile_qr_scan", "ios": "https://dc.lft.to/lastmile_qr_scan"}, "type": "electric_scooter", "lon": -77.014409, "name": "d46b25cb971660bc35b29d35f211d2d4", "bike_id": "d46b25cb971660bc35b29d35f211d2d4", "fusion_lat": 0.0, "is_reserved": 0, "lat": 38.8778275, "fusion_lon": 0.0, "is_disabled": 0}, {"rental_uris": {"android": "https://dc.lft.to/lastmile_qr_scan", "ios": "https://dc.lft.to/lastmile_qr_scan"}, "type": "electric_scooter", "lon": -77.02671966666666, "name": "ed2d553a30b782710bcbda84991180f3", "bike_id": "ed2d553a30b782710bcbda84991180f3", "fusion_lat": 0.0, "is_reserved": 0, "lat": 38.928727333333335, "fusion_lon": 0.0, "is_disabled": 0}, {"rental_uris": {"android": "https://dc.lft.to/lastmile_qr_scan", "ios": "https://dc.lft.to/lastmile_qr_scan"}, "type": "electric_scooter", "lon": -77.03153166666667, "name": "e44736eb3f33b0aa4942a0ed2798ddd1", "bike_id": "e44736eb3f33b0aa4942a0ed2798ddd1", "fusion_lat": 0.0, "is_reserved": 0, "lat": 38.927975, "fusion_lon": 0.0, "is_disabled": 0}, {"rental_uris": {"android": "https://dc.lft.to/lastmile_qr_scan", "ios": "https://dc.lft.to/lastmile_qr_scan"}, "type": "electric_bike", "lon": -77.34412716666667, "name": "94f2ee31952ebc2e0c4295050a1b834e", "bike_id": "94f2ee31952ebc2e0c4295050a1b834e", "fusion_lat": 0.0, "is_reserved": 0, "lat": 38.945975, "fusion_lon": 0.0, "is_disabled": 0}, {"rental_uris": {"android": "https://dc.lft.to/lastmile_qr_scan", "ios": "https://dc.lft.to/lastmile_qr_scan"}, "type": "electric_scooter", "lon": -77.02959316666667, "name": "6d534a88f28a6ff673d9e4011b5b230c", "bike_id": "6d534a88f28a6ff673d9e4011b5b230c", "fusion_lat": 0.0, "is_reserved": 0, "lat": 38.917149, "fusion_lon": 0.0, "is_disabled": 0}, {"rental_uris": {"android": "https://dc.lft.to/lastmile_qr_scan", "ios": "https://dc.lft.to/lastmile_qr_scan"}, "type": "electric_scooter", "lon": -77.0208705, "name": "e352eb13c51f8f30fd709015c88c6ed9", "bike_id": "e352eb13c51f8f30fd709015c88c6ed9", "fusion_lat": 0.0, "is_reserved": 0, "lat": 38.90094283333333, "fusion_lon": 0.0, "is_disabled": 0}, {"rental_uris": {"android": "https://dc.lft.to/lastmile_qr_scan", "ios": "https://dc.lft.to/lastmile_qr_scan"}, "type": "electric_bike", "lon": -76.9794755, "name": "1898dca6b7f7a287fd1fc90ff9dd2a3d", "bike_id": "1898dca6b7f7a287fd1fc90ff9dd2a3d", "fusion_lat": 0.0, "is_reserved": 0, "lat": 38.898049666666665, "fusion_lon": 0.0, "is_disabled": 0}, {"rental_uris": {"android": "https://dc.lft.to/lastmile_qr_scan", "ios": "https://dc.lft.to/lastmile_qr_scan"}, "type": "electric_scooter", "lon": -76.9485635, "name": "3cf232c62ad14375237f0a0f13a0ca83", "bike_id": "3cf232c62ad14375237f0a0f13a0ca83", "fusion_lat": 0.0, "is_reserved": 0, "lat": 38.883041166666665, "fusion_lon": 0.0, "is_disabled": 0}, {"rental_uris": {"android": "https://dc.lft.to/lastmile_qr_scan", "ios": "https://dc.lft.to/lastmile_qr_scan"}, "type": "electric_bike", "lon": -77.143212, "name": "59cc3cdfd0e945c9d42df2d04394179b", "bike_id": "59cc3cdfd0e945c9d42df2d04394179b", "fusion_lat": 0.0, "is_reserved": 0, "lat": 39.054561, "fusion_lon": 0.0, "is_disabled": 0}, {"rental_uris": {"android": "https://dc.lft.to/lastmile_qr_scan", "ios": "https://dc.lft.to/lastmile_qr_scan"}, "type": "electric_scooter", "lon": -77.04866016666666, "name": "226532e124c203d1c101a4d97c0d8106", "bike_id": "226532e124c203d1c101a4d97c0d8106", "fusion_lat": 0.0, "is_reserved": 0, "lat": 38.90639616666667, "fusion_lon": 0.0, "is_disabled": 0}, {"rental_uris": {"android": "https://dc.lft.to/lastmile_qr_scan", "ios": "https://dc.lft.to/lastmile_qr_scan"}, "type": "electric_scooter", "lon": -77.011449, "name": "e394f881b08c84b193c2c7dfd7b89874", "bike_id": "e394f881b08c84b193c2c7dfd7b89874", "fusion_lat": 0.0, "is_reserved": 0, "lat": 38.902998333333336, "fusion_lon": 0.0, "is_disabled": 0}, {"rental_uris": {"android": "https://dc.lft.to/lastmile_qr_scan", "ios": "https://dc.lft.to/lastmile_qr_scan"}, "type": "electric_scooter", "lon": -77.03441733333334, "name": "d0e93bedeef71268356a4a1af028e157", "bike_id": "d0e93bedeef71268356a4a1af028e157", "fusion_lat": 0.0, "is_reserved": 0, "lat": 38.91824283333333, "fusion_lon": 0.0, "is_disabled": 0}, {"rental_uris": {"android": "https://dc.lft.to/lastmile_qr_scan", "ios": "https://dc.lft.to/lastmile_qr_scan"}, "type": "electric_scooter", "lon": -76.980046, "name": "0579e749283b562dc159cc8ea83caddf", "bike_id": "0579e749283b562dc159cc8ea83caddf", "fusion_lat": 0.0, "is_reserved": 0, "lat": 38.8532245, "fusion_lon": 0.0, "is_disabled": 0}, {"rental_uris": {"android": "https://dc.lft.to/lastmile_qr_scan", "ios": "https://dc.lft.to/lastmile_qr_scan"}, "type": "electric_scooter", "lon": -77.03484916666666, "name": "e5cbf365b064aeb77dbbd4cc79155684", "bike_id": "e5cbf365b064aeb77dbbd4cc79155684", "fusion_lat": 0.0, "is_reserved": 0, "lat": 38.92867016666667, "fusion_lon": 0.0, "is_disabled": 0}, {"rental_uris": {"android": "https://dc.lft.to/lastmile_qr_scan", "ios": "https://dc.lft.to/lastmile_qr_scan"}, "type": "electric_bike", "lon": -76.9790545, "name": "4a3edc607c6cdba1cd5cb271c72eb7d3", "bike_id": "4a3edc607c6cdba1cd5cb271c72eb7d3", "fusion_lat": 0.0, "is_reserved": 0, "lat": 38.8883835, "fusion_lon": 0.0, "is_disabled": 0}, {"rental_uris": {"android": "https://dc.lft.to/lastmile_qr_scan", "ios": "https://dc.lft.to/lastmile_qr_scan"}, "type": "electric_scooter", "lon": -77.01770633333334, "name": "dd46625a81eae328c441e79cd74132fd", "bike_id": "dd46625a81eae328c441e79cd74132fd", "fusion_lat": 0.0, "is_reserved": 0, "lat": 38.872951666666665, "fusion_lon": 0.0, "is_disabled": 0}, {"rental_uris": {"android": "https://dc.lft.to/lastmile_qr_scan", "ios": "https://dc.lft.to/lastmile_qr_scan"}, "type": "electric_scooter", "lon": -76.99002766666666, "name": "acbc0bf33dae9432f90655f22fb7d8e0", "bike_id": "acbc0bf33dae9432f90655f22fb7d8e0", "fusion_lat": 0.0, "is_reserved": 0, "lat": 38.865046166666666, "fusion_lon": 0.0, "is_disabled": 0}, {"rental_uris": {"android": "https://dc.lft.to/lastmile_qr_scan", "ios": "https://dc.lft.to/lastmile_qr_scan"}, "type": "electric_scooter", "lon": -77.05144983333334, "name": "67514919638c9178793a6d968257cde2", "bike_id": "67514919638c9178793a6d968257cde2", "fusion_lat": 0.0, "is_reserved": 0, "lat": 38.90802383333333, "fusion_lon": 0.0, "is_disabled": 0}, {"rental_uris": {"android": "https://dc.lft.to/lastmile_qr_scan", "ios": "https://dc.lft.to/lastmile_qr_scan"}, "type": "electric_scooter", "lon": -77.05289016666667, "name": "3e4583087295bd0c026f74862f1993b2", "bike_id": "3e4583087295bd0c026f74862f1993b2", "fusion_lat": 0.0, "is_reserved": 0, "lat": 38.92791066666667, "fusion_lon": 0.0, "is_disabled": 0}, {"rental_uris": {"android": "https://dc.lft.to/lastmile_qr_scan", "ios": "https://dc.lft.to/lastmile_qr_scan"}, "type": "electric_scooter", "lon": -77.03903266666667, "name": "b3c330a9965335479ef47f83267ac7fa", "bike_id": "b3c330a9965335479ef47f83267ac7fa", "fusion_lat": 0.0, "is_reserved": 0, "lat": 38.92242983333333, "fusion_lon": 0.0, "is_disabled": 0}, {"rental_uris": {"android": "https://dc.lft.to/lastmile_qr_scan", "ios": "https://dc.lft.to/lastmile_qr_scan"}, "type": "electric_scooter", "lon": -77.02854066666667, "name": "aadeed0b0257f1c8af3381b9dce97703", "bike_id": "aadeed0b0257f1c8af3381b9dce97703", "fusion_lat": 0.0, "is_reserved": 0, "lat": 38.92233733333333, "fusion_lon": 0.0, "is_disabled": 0}, {"rental_uris": {"android": "https://dc.lft.to/lastmile_qr_scan", "ios": "https://dc.lft.to/lastmile_qr_scan"}, "type": "electric_scooter", "lon": -77.00221183333333, "name": "1f3d9548855a1780bc13060e055897a0", "bike_id": "1f3d9548855a1780bc13060e055897a0", "fusion_lat": 0.0, "is_reserved": 0, "lat": 38.908494166666664, "fusion_lon": 0.0, "is_disabled": 0}, {"rental_uris": {"android": "https://dc.lft.to/lastmile_qr_scan", "ios": "https://dc.lft.to/lastmile_qr_scan"}, "type": "electric_scooter", "lon": -76.94844866666666, "name": "e4eff68d0e9dd4b1ffa7c0bdae59ab42", "bike_id": "e4eff68d0e9dd4b1ffa7c0bdae59ab42", "fusion_lat": 0.0, "is_reserved": 0, "lat": 38.893456666666665, "fusion_lon": 0.0, "is_disabled": 0}, {"rental_uris": {"android": "https://dc.lft.to/lastmile_qr_scan", "ios": "https://dc.lft.to/lastmile_qr_scan"}, "type": "electric_scooter", "lon": -76.93426383333333, "name": "83c5368b0687ee72a4d00eddf4923956", "bike_id": "83c5368b0687ee72a4d00eddf4923956", "fusion_lat": 0.0, "is_reserved": 0, "lat": 38.899668, "fusion_lon": 0.0, "is_disabled": 0}, {"rental_uris": {"android": "https://dc.lft.to/lastmile_qr_scan", "ios": "https://dc.lft.to/lastmile_qr_scan"}, "type": "electric_scooter", "lon": -77.01129, "name": "558c8fb8926d481aa79d8f4c1b15ade1", "bike_id": "558c8fb8926d481aa79d8f4c1b15ade1", "fusion_lat": 0.0, "is_reserved": 0, "lat": 38.90730533333333, "fusion_lon": 0.0, "is_disabled": 0}, {"rental_uris": {"android": "https://dc.lft.to/lastmile_qr_scan", "ios": "https://dc.lft.to/lastmile_qr_scan"}, "type": "electric_scooter", "lon": -77.0499855, "name": "86364f5eeba7d894ef7cad148083b965", "bike_id": "86364f5eeba7d894ef7cad148083b965", "fusion_lat": 0.0, "is_reserved": 0, "lat": 38.905276666666666, "fusion_lon": 0.0, "is_disabled": 0}, {"rental_uris": {"android": "https://dc.lft.to/lastmile_qr_scan", "ios": "https://dc.lft.to/lastmile_qr_scan"}, "type": "electric_scooter", "lon": -77.04963783333334, "name": "8b16d86c890a9a300d82790c9ffebafb", "bike_id": "8b16d86c890a9a300d82790c9ffebafb", "fusion_lat": 0.0, "is_reserved": 0, "lat": 38.90091566666667, "fusion_lon": 0.0, "is_disabled": 0}, {"rental_uris": {"android": "https://dc.lft.to/lastmile_qr_scan", "ios": "https://dc.lft.to/lastmile_qr_scan"}, "type": "electric_scooter", "lon": -77.0079445, "name": "0252e64bd4550dd8718cdf3a45119e5d", "bike_id": "0252e64bd4550dd8718cdf3a45119e5d", "fusion_lat": 0.0, "is_reserved": 0, "lat": 38.8968435, "fusion_lon": 0.0, "is_disabled": 0}, {"rental_uris": {"android": "https://dc.lft.to/lastmile_qr_scan", "ios": "https://dc.lft.to/lastmile_qr_scan"}, "type": "electric_scooter", "lon": -77.03218366666667, "name": "a91a6b90bc3fb23d84d18d44945ab06a", "bike_id": "a91a6b90bc3fb23d84d18d44945ab06a", "fusion_lat": 0.0, "is_reserved": 0, "lat": 38.907458166666665, "fusion_lon": 0.0, "is_disabled": 0}, {"rental_uris": {"android": "https://dc.lft.to/lastmile_qr_scan", "ios": "https://dc.lft.to/lastmile_qr_scan"}, "type": "electric_scooter", "lon": -77.05016316666666, "name": "dde105cd73fd45a58788bb7d88fc1c74", "bike_id": "dde105cd73fd45a58788bb7d88fc1c74", "fusion_lat": 0.0, "is_reserved": 0, "lat": 38.89548516666667, "fusion_lon": 0.0, "is_disabled": 0}, {"rental_uris": {"android": "https://dc.lft.to/lastmile_qr_scan", "ios": "https://dc.lft.to/lastmile_qr_scan"}, "type": "electric_scooter", "lon": -76.996297, "name": "e1e3f1a226cbc4c07e9b4c597a01e3de", "bike_id": "e1e3f1a226cbc4c07e9b4c597a01e3de", "fusion_lat": 0.0, "is_reserved": 0, "lat": 38.84618016666667, "fusion_lon": 0.0, "is_disabled": 0}, {"rental_uris": {"android": "https://dc.lft.to/lastmile_qr_scan", "ios": "https://dc.lft.to/lastmile_qr_scan"}, "type": "electric_bike", "lon": -77.0205825, "name": "6e6959b8293adb5573e6feb385df40e2", "bike_id": "6e6959b8293adb5573e6feb385df40e2", "fusion_lat": 0.0, "is_reserved": 0, "lat": 38.92845633333334, "fusion_lon": 0.0, "is_disabled": 0}, {"rental_uris": {"android": "https://dc.lft.to/lastmile_qr_scan", "ios": "https://dc.lft.to/lastmile_qr_scan"}, "type": "electric_scooter", "lon": -76.93675216666666, "name": "2c6188ef4cc95bddc34af8e95ceb0ee2", "bike_id": "2c6188ef4cc95bddc34af8e95ceb0ee2", "fusion_lat": 0.0, "is_reserved": 0, "lat": 38.88754483333334, "fusion_lon": 0.0, "is_disabled": 0}, {"rental_uris": {"android": "https://dc.lft.to/lastmile_qr_scan", "ios": "https://dc.lft.to/lastmile_qr_scan"}, "type": "electric_scooter", "lon": -77.05885166666667, "name": "7e6115b202130833de8c3fe604ea4dbc", "bike_id": "7e6115b202130833de8c3fe604ea4dbc", "fusion_lat": 0.0, "is_reserved": 0, "lat": 38.936400166666665, "fusion_lon": 0.0, "is_disabled": 0}, {"rental_uris": {"android": "https://dc.lft.to/lastmile_qr_scan", "ios": "https://dc.lft.to/lastmile_qr_scan"}, "type": "electric_bike", "lon": -77.12400533333333, "name": "cafd0b7513b807b93fa01a9fe22cc404", "bike_id": "cafd0b7513b807b93fa01a9fe22cc404", "fusion_lat": 0.0, "is_reserved": 0, "lat": 38.893333166666665, "fusion_lon": 0.0, "is_disabled": 0}, {"rental_uris": {"android": "https://dc.lft.to/lastmile_qr_scan", "ios": "https://dc.lft.to/lastmile_qr_scan"}, "type": "electric_scooter", "lon": -77.0270725, "name": "66be8ba34a8b45ad3409420a099f1074", "bike_id": "66be8ba34a8b45ad3409420a099f1074", "fusion_lat": 0.0, "is_reserved": 0, "lat": 38.8994735, "fusion_lon": 0.0, "is_disabled": 0}, {"rental_uris": {"android": "https://dc.lft.to/lastmile_qr_scan", "ios": "https://dc.lft.to/lastmile_qr_scan"}, "type": "electric_scooter", "lon": -76.965051, "name": "2c17824135e1026f24cf450b802356cf", "bike_id": "2c17824135e1026f24cf450b802356cf", "fusion_lat": 0.0, "is_reserved": 0, "lat": 38.876484, "fusion_lon": 0.0, "is_disabled": 0}, {"rental_uris": {"android": "https://dc.lft.to/lastmile_qr_scan", "ios": "https://dc.lft.to/lastmile_qr_scan"}, "type": "electric_scooter", "lon": -77.01955483333333, "name": "6ae922ec4b26e7cd83769ecd7311bf75", "bike_id": "6ae922ec4b26e7cd83769ecd7311bf75", "fusion_lat": 0.0, "is_reserved": 0, "lat": 38.9357495, "fusion_lon": 0.0, "is_disabled": 0}, {"rental_uris": {"android": "https://dc.lft.to/lastmile_qr_scan", "ios": "https://dc.lft.to/lastmile_qr_scan"}, "type": "electric_scooter", "lon": -77.04488466666666, "name": "1f6923d66ac3d501f3071b71313fe587", "bike_id": "1f6923d66ac3d501f3071b71313fe587", "fusion_lat": 0.0, "is_reserved": 0, "lat": 38.896229, "fusion_lon": 0.0, "is_disabled": 0}, {"rental_uris": {"android": "https://dc.lft.to/lastmile_qr_scan", "ios": "https://dc.lft.to/lastmile_qr_scan"}, "type": "electric_bike", "lon": -76.9732855, "name": "a53ac47a7c89bfb9c5c7708e25fa0f6c", "bike_id": "a53ac47a7c89bfb9c5c7708e25fa0f6c", "fusion_lat": 0.0, "is_reserved": 0, "lat": 38.850638333333336, "fusion_lon": 0.0, "is_disabled": 0}, {"rental_uris": {"android": "https://dc.lft.to/lastmile_qr_scan", "ios": "https://dc.lft.to/lastmile_qr_scan"}, "type": "electric_scooter", "lon": -77.0464285, "name": "6d6a2f1768a48c98bd9aa3c71dd780f0", "bike_id": "6d6a2f1768a48c98bd9aa3c71dd780f0", "fusion_lat": 0.0, "is_reserved": 0, "lat": 38.905043666666664, "fusion_lon": 0.0, "is_disabled": 0}, {"rental_uris": {"android": "https://dc.lft.to/lastmile_qr_scan", "ios": "https://dc.lft.to/lastmile_qr_scan"}, "type": "electric_scooter", "lon": -77.0326335, "name": "1a0be2f903807820cf3d99034ab70c55", "bike_id": "1a0be2f903807820cf3d99034ab70c55", "fusion_lat": 0.0, "is_reserved": 0, "lat": 38.93249083333333, "fusion_lon": 0.0, "is_disabled": 0}, {"rental_uris": {"android": "https://dc.lft.to/lastmile_qr_scan", "ios": "https://dc.lft.to/lastmile_qr_scan"}, "type": "electric_scooter", "lon": -77.0344005, "name": "9f3f285adf925eb6ca17432b22586710", "bike_id": "9f3f285adf925eb6ca17432b22586710", "fusion_lat": 0.0, "is_reserved": 0, "lat": 38.92881766666667, "fusion_lon": 0.0, "is_disabled": 0}, {"rental_uris": {"android": "https://dc.lft.to/lastmile_qr_scan", "ios": "https://dc.lft.to/lastmile_qr_scan"}, "type": "electric_scooter", "lon": -77.0251595, "name": "7e986dafa8edc3ff9f66d49775d69a84", "bike_id": "7e986dafa8edc3ff9f66d49775d69a84", "fusion_lat": 0.0, "is_reserved": 0, "lat": 38.919511166666666, "fusion_lon": 0.0, "is_disabled": 0}, {"rental_uris": {"android": "https://dc.lft.to/lastmile_qr_scan", "ios": "https://dc.lft.to/lastmile_qr_scan"}, "type": "electric_scooter", "lon": -77.03997783333334, "name": "e0fd2bf5450180a42fbc742a11b30244", "bike_id": "e0fd2bf5450180a42fbc742a11b30244", "fusion_lat": 0.0, "is_reserved": 0, "lat": 38.918055, "fusion_lon": 0.0, "is_disabled": 0}, {"rental_uris": {"android": "https://dc.lft.to/lastmile_qr_scan", "ios": "https://dc.lft.to/lastmile_qr_scan"}, "type": "electric_scooter", "lon": -76.97723833333333, "name": "052ebb4e8044f3069f2938e5345b6b88", "bike_id": "052ebb4e8044f3069f2938e5345b6b88", "fusion_lat": 0.0, "is_reserved": 0, "lat": 38.872441, "fusion_lon": 0.0, "is_disabled": 0}, {"rental_uris": {"android": "https://dc.lft.to/lastmile_qr_scan", "ios": "https://dc.lft.to/lastmile_qr_scan"}, "type": "electric_scooter", "lon": -77.03321, "name": "0ae363982508d27bf60932913ce550f4", "bike_id": "0ae363982508d27bf60932913ce550f4", "fusion_lat": 0.0, "is_reserved": 0, "lat": 38.9036645, "fusion_lon": 0.0, "is_disabled": 0}, {"rental_uris": {"android": "https://dc.lft.to/lastmile_qr_scan", "ios": "https://dc.lft.to/lastmile_qr_scan"}, "type": "electric_scooter", "lon": -77.025007, "name": "76fd61091a4a2856760525683117ad7f", "bike_id": "76fd61091a4a2856760525683117ad7f", "fusion_lat": 0.0, "is_reserved": 0, "lat": 38.9420225, "fusion_lon": 0.0, "is_disabled": 0}, {"rental_uris": {"android": "https://dc.lft.to/lastmile_qr_scan", "ios": "https://dc.lft.to/lastmile_qr_scan"}, "type": "electric_scooter", "lon": -77.079958, "name": "23125856ac27cb693774efbcae66c99e", "bike_id": "23125856ac27cb693774efbcae66c99e", "fusion_lat": 0.0, "is_reserved": 0, "lat": 38.923700333333336, "fusion_lon": 0.0, "is_disabled": 0}, {"rental_uris": {"android": "https://dc.lft.to/lastmile_qr_scan", "ios": "https://dc.lft.to/lastmile_qr_scan"}, "type": "electric_scooter", "lon": -77.04023083333334, "name": "143d4c05726e26f161e918b1518256a0", "bike_id": "143d4c05726e26f161e918b1518256a0", "fusion_lat": 0.0, "is_reserved": 0, "lat": 38.9245985, "fusion_lon": 0.0, "is_disabled": 0}, {"rental_uris": {"android": "https://dc.lft.to/lastmile_qr_scan", "ios": "https://dc.lft.to/lastmile_qr_scan"}, "type": "electric_scooter", "lon": -77.03958133333333, "name": "b35dcdee586184f67df8007f3c709b85", "bike_id": "b35dcdee586184f67df8007f3c709b85", "fusion_lat": 0.0, "is_reserved": 0, "lat": 38.90611783333333, "fusion_lon": 0.0, "is_disabled": 0}, {"rental_uris": {"android": "https://dc.lft.to/lastmile_qr_scan", "ios": "https://dc.lft.to/lastmile_qr_scan"}, "type": "electric_scooter", "lon": -77.0242095, "name": "d9dbb2f05d8aa29e431e9f3b53a748a1", "bike_id": "d9dbb2f05d8aa29e431e9f3b53a748a1", "fusion_lat": 0.0, "is_reserved": 0, "lat": 38.909609333333336, "fusion_lon": 0.0, "is_disabled": 0}, {"rental_uris": {"android": "https://dc.lft.to/lastmile_qr_scan", "ios": "https://dc.lft.to/lastmile_qr_scan"}, "type": "electric_scooter", "lon": -77.00867666666667, "name": "8ba07ed2c6936c77e62c714c7e1b2d3b", "bike_id": "8ba07ed2c6936c77e62c714c7e1b2d3b", "fusion_lat": 0.0, "is_reserved": 0, "lat": 38.90653016666667, "fusion_lon": 0.0, "is_disabled": 0}, {"rental_uris": {"android": "https://dc.lft.to/lastmile_qr_scan", "ios": "https://dc.lft.to/lastmile_qr_scan"}, "type": "electric_scooter", "lon": -77.02168833333333, "name": "a45a69175902b69f14e98da6a9909131", "bike_id": "a45a69175902b69f14e98da6a9909131", "fusion_lat": 0.0, "is_reserved": 0, "lat": 38.887456666666665, "fusion_lon": 0.0, "is_disabled": 0}, {"rental_uris": {"android": "https://dc.lft.to/lastmile_qr_scan", "ios": "https://dc.lft.to/lastmile_qr_scan"}, "type": "electric_scooter", "lon": -77.0194605, "name": "942028680d829746a1ebe1c45c482581", "bike_id": "942028680d829746a1ebe1c45c482581", "fusion_lat": 0.0, "is_reserved": 0, "lat": 38.922452166666666, "fusion_lon": 0.0, "is_disabled": 0}, {"rental_uris": {"android": "https://dc.lft.to/lastmile_qr_scan", "ios": "https://dc.lft.to/lastmile_qr_scan"}, "type": "electric_scooter", "lon": -77.04160983333334, "name": "307ed97164f65055207677d3ff1a2fe7", "bike_id": "307ed97164f65055207677d3ff1a2fe7", "fusion_lat": 0.0, "is_reserved": 0, "lat": 38.89270166666667, "fusion_lon": 0.0, "is_disabled": 0}, {"rental_uris": {"android": "https://dc.lft.to/lastmile_qr_scan", "ios": "https://dc.lft.to/lastmile_qr_scan"}, "type": "electric_scooter", "lon": -77.02217883333333, "name": "8f9c8a78a585de42492f9438bc35051a", "bike_id": "8f9c8a78a585de42492f9438bc35051a", "fusion_lat": 0.0, "is_reserved": 0, "lat": 38.89501966666667, "fusion_lon": 0.0, "is_disabled": 0}, {"rental_uris": {"android": "https://dc.lft.to/lastmile_qr_scan", "ios": "https://dc.lft.to/lastmile_qr_scan"}, "type": "electric_scooter", "lon": -77.0345925, "name": "07364246a779515be07d9b836b37c759", "bike_id": "07364246a779515be07d9b836b37c759", "fusion_lat": 0.0, "is_reserved": 0, "lat": 38.90726383333333, "fusion_lon": 0.0, "is_disabled": 0}, {"rental_uris": {"android": "https://dc.lft.to/lastmile_qr_scan", "ios": "https://dc.lft.to/lastmile_qr_scan"}, "type": "electric_scooter", "lon": -76.99851933333333, "name": "4f249db8102ecfc1c0ff1c75d795e354", "bike_id": "4f249db8102ecfc1c0ff1c75d795e354", "fusion_lat": 0.0, "is_reserved": 0, "lat": 38.90004733333333, "fusion_lon": 0.0, "is_disabled": 0}, {"rental_uris": {"android": "https://dc.lft.to/lastmile_qr_scan", "ios": "https://dc.lft.to/lastmile_qr_scan"}, "type": "electric_scooter", "lon": -76.985981, "name": "707746af0aad086586d8e8446792e5de", "bike_id": "707746af0aad086586d8e8446792e5de", "fusion_lat": 0.0, "is_reserved": 0, "lat": 38.90015316666667, "fusion_lon": 0.0, "is_disabled": 0}, {"rental_uris": {"android": "https://dc.lft.to/lastmile_qr_scan", "ios": "https://dc.lft.to/lastmile_qr_scan"}, "type": "electric_bike", "lon": -77.028729, "name": "18e681bc6b8001c1058b2314dfbb0ed4", "bike_id": "18e681bc6b8001c1058b2314dfbb0ed4", "fusion_lat": 0.0, "is_reserved": 0, "lat": 38.9794255, "fusion_lon": 0.0, "is_disabled": 0}, {"rental_uris": {"android": "https://dc.lft.to/lastmile_qr_scan", "ios": "https://dc.lft.to/lastmile_qr_scan"}, "type": "electric_scooter", "lon": -77.026817, "name": "865107a3eb3aa99a9dd6105031a3ba47", "bike_id": "865107a3eb3aa99a9dd6105031a3ba47", "fusion_lat": 0.0, "is_reserved": 0, "lat": 38.9096165, "fusion_lon": 0.0, "is_disabled": 0}, {"rental_uris": {"android": "https://dc.lft.to/lastmile_qr_scan", "ios": "https://dc.lft.to/lastmile_qr_scan"}, "type": "electric_scooter", "lon": -77.0321395, "name": "ca285f86fd4347fb545c6ea86fce06ea", "bike_id": "ca285f86fd4347fb545c6ea86fce06ea", "fusion_lat": 0.0, "is_reserved": 0, "lat": 38.91614783333333, "fusion_lon": 0.0, "is_disabled": 0}, {"rental_uris": {"android": "https://dc.lft.to/lastmile_qr_scan", "ios": "https://dc.lft.to/lastmile_qr_scan"}, "type": "electric_scooter", "lon": -77.06272466666667, "name": "1c7e4372cb63ca496fe36eb84cc60e02", "bike_id": "1c7e4372cb63ca496fe36eb84cc60e02", "fusion_lat": 0.0, "is_reserved": 0, "lat": 38.9061935, "fusion_lon": 0.0, "is_disabled": 0}, {"rental_uris": {"android": "https://dc.lft.to/lastmile_qr_scan", "ios": "https://dc.lft.to/lastmile_qr_scan"}, "type": "electric_scooter", "lon": -77.04571016666667, "name": "2574e572d07ab889c7c0b82483f5d835", "bike_id": "2574e572d07ab889c7c0b82483f5d835", "fusion_lat": 0.0, "is_reserved": 0, "lat": 38.913926333333336, "fusion_lon": 0.0, "is_disabled": 0}, {"rental_uris": {"android": "https://dc.lft.to/lastmile_qr_scan", "ios": "https://dc.lft.to/lastmile_qr_scan"}, "type": "electric_scooter", "lon": -76.94824483333333, "name": "c4657bd67292e7e4f9603e5ebebe91d3", "bike_id": "c4657bd67292e7e4f9603e5ebebe91d3", "fusion_lat": 0.0, "is_reserved": 0, "lat": 38.88515733333333, "fusion_lon": 0.0, "is_disabled": 0}, {"rental_uris": {"android": "https://dc.lft.to/lastmile_qr_scan", "ios": "https://dc.lft.to/lastmile_qr_scan"}, "type": "electric_scooter", "lon": -77.03844983333333, "name": "e7cc9f50c9ad66bac66571b2d738a8c8", "bike_id": "e7cc9f50c9ad66bac66571b2d738a8c8", "fusion_lat": 0.0, "is_reserved": 0, "lat": 38.912147833333336, "fusion_lon": 0.0, "is_disabled": 0}, {"rental_uris": {"android": "https://dc.lft.to/lastmile_qr_scan", "ios": "https://dc.lft.to/lastmile_qr_scan"}, "type": "electric_scooter", "lon": -77.02826566666667, "name": "b63b6687a1657da0f053021d928785d9", "bike_id": "b63b6687a1657da0f053021d928785d9", "fusion_lat": 0.0, "is_reserved": 0, "lat": 38.9155345, "fusion_lon": 0.0, "is_disabled": 0}, {"rental_uris": {"android": "https://dc.lft.to/lastmile_qr_scan", "ios": "https://dc.lft.to/lastmile_qr_scan"}, "type": "electric_scooter", "lon": -77.041815, "name": "7ee485d4da5fd8fab7e14ec4fe742735", "bike_id": "7ee485d4da5fd8fab7e14ec4fe742735", "fusion_lat": 0.0, "is_reserved": 0, "lat": 38.8957585, "fusion_lon": 0.0, "is_disabled": 0}, {"rental_uris": {"android": "https://dc.lft.to/lastmile_qr_scan", "ios": "https://dc.lft.to/lastmile_qr_scan"}, "type": "electric_bike", "lon": -77.11419933333333, "name": "6be029924ccd459250a0b4b547f41f59", "bike_id": "6be029924ccd459250a0b4b547f41f59", "fusion_lat": 0.0, "is_reserved": 0, "lat": 38.84303516666667, "fusion_lon": 0.0, "is_disabled": 0}, {"rental_uris": {"android": "https://dc.lft.to/lastmile_qr_scan", "ios": "https://dc.lft.to/lastmile_qr_scan"}, "type": "electric_scooter", "lon": -76.98361916666667, "name": "3cabafe2aeca9e4f0558704f81eea4fa", "bike_id": "3cabafe2aeca9e4f0558704f81eea4fa", "fusion_lat": 0.0, "is_reserved": 0, "lat": 38.861048333333336, "fusion_lon": 0.0, "is_disabled": 0}, {"rental_uris": {"android": "https://dc.lft.to/lastmile_qr_scan", "ios": "https://dc.lft.to/lastmile_qr_scan"}, "type": "electric_bike", "lon": -77.050861, "name": "93658749e96e7d0eb0e4ef9c2fb10091", "bike_id": "93658749e96e7d0eb0e4ef9c2fb10091", "fusion_lat": 0.0, "is_reserved": 0, "lat": 38.8132735, "fusion_lon": 0.0, "is_disabled": 0}, {"rental_uris": {"android": "https://dc.lft.to/lastmile_qr_scan", "ios": "https://dc.lft.to/lastmile_qr_scan"}, "type": "electric_scooter", "lon": -77.02354916666667, "name": "b84e9400d378002a2c1b1d6bcb841ff5", "bike_id": "b84e9400d378002a2c1b1d6bcb841ff5", "fusion_lat": 0.0, "is_reserved": 0, "lat": 38.89223766666667, "fusion_lon": 0.0, "is_disabled": 0}, {"rental_uris": {"android": "https://dc.lft.to/lastmile_qr_scan", "ios": "https://dc.lft.to/lastmile_qr_scan"}, "type": "electric_bike", "lon": -76.94465766666667, "name": "9d82d51cab952e5c5bc38a76498c1bb4", "bike_id": "9d82d51cab952e5c5bc38a76498c1bb4", "fusion_lat": 0.0, "is_reserved": 0, "lat": 38.94557366666667, "fusion_lon": 0.0, "is_disabled": 0}, {"rental_uris": {"android": "https://dc.lft.to/lastmile_qr_scan", "ios": "https://dc.lft.to/lastmile_qr_scan"}, "type": "electric_bike", "lon": -77.0789925, "name": "7e43c791da46272fcaa3bbb2cf60cab5", "bike_id": "7e43c791da46272fcaa3bbb2cf60cab5", "fusion_lat": 0.0, "is_reserved": 0, "lat": 38.839351666666666, "fusion_lon": 0.0, "is_disabled": 0}, {"rental_uris": {"android": "https://dc.lft.to/lastmile_qr_scan", "ios": "https://dc.lft.to/lastmile_qr_scan"}, "type": "electric_scooter", "lon": -77.03061583333333, "name": "fca35c011591ed20bbde77d8a41b9b5e", "bike_id": "fca35c011591ed20bbde77d8a41b9b5e", "fusion_lat": 0.0, "is_reserved": 0, "lat": 38.919077333333334, "fusion_lon": 0.0, "is_disabled": 0}, {"rental_uris": {"android": "https://dc.lft.to/lastmile_qr_scan", "ios": "https://dc.lft.to/lastmile_qr_scan"}, "type": "electric_scooter", "lon": -77.02511083333333, "name": "45a052c84b70fd2d35338d441b250e3f", "bike_id": "45a052c84b70fd2d35338d441b250e3f", "fusion_lat": 0.0, "is_reserved": 0, "lat": 38.94178866666667, "fusion_lon": 0.0, "is_disabled": 0}, {"rental_uris": {"android": "https://dc.lft.to/lastmile_qr_scan", "ios": "https://dc.lft.to/lastmile_qr_scan"}, "type": "electric_scooter", "lon": -77.003438, "name": "e1cc128050377561a3512328b2de0431", "bike_id": "e1cc128050377561a3512328b2de0431", "fusion_lat": 0.0, "is_reserved": 0, "lat": 38.9134905, "fusion_lon": 0.0, "is_disabled": 0}, {"rental_uris": {"android": "https://dc.lft.to/lastmile_qr_scan", "ios": "https://dc.lft.to/lastmile_qr_scan"}, "type": "electric_scooter", "lon": -77.01841266666666, "name": "9e87e49b51d47ac14fd4b16f6f1c0dc9", "bike_id": "9e87e49b51d47ac14fd4b16f6f1c0dc9", "fusion_lat": 0.0, "is_reserved": 0, "lat": 38.914083, "fusion_lon": 0.0, "is_disabled": 0}, {"rental_uris": {"android": "https://dc.lft.to/lastmile_qr_scan", "ios": "https://dc.lft.to/lastmile_qr_scan"}, "type": "electric_scooter", "lon": -76.94842633333333, "name": "1e6da7958ec7fce3763b5269f6da39a4", "bike_id": "1e6da7958ec7fce3763b5269f6da39a4", "fusion_lat": 0.0, "is_reserved": 0, "lat": 38.89488866666667, "fusion_lon": 0.0, "is_disabled": 0}, {"rental_uris": {"android": "https://dc.lft.to/lastmile_qr_scan", "ios": "https://dc.lft.to/lastmile_qr_scan"}, "type": "electric_scooter", "lon": -76.99209883333333, "name": "8543009f130287c8b842d09102735156", "bike_id": "8543009f130287c8b842d09102735156", "fusion_lat": 0.0, "is_reserved": 0, "lat": 38.90472283333333, "fusion_lon": 0.0, "is_disabled": 0}, {"rental_uris": {"android": "https://dc.lft.to/lastmile_qr_scan", "ios": "https://dc.lft.to/lastmile_qr_scan"}, "type": "electric_scooter", "lon": -76.99473633333334, "name": "9a29522fbbf16dd6589b22ffec68baee", "bike_id": "9a29522fbbf16dd6589b22ffec68baee", "fusion_lat": 0.0, "is_reserved": 0, "lat": 38.8962, "fusion_lon": 0.0, "is_disabled": 0}, {"rental_uris": {"android": "https://dc.lft.to/lastmile_qr_scan", "ios": "https://dc.lft.to/lastmile_qr_scan"}, "type": "electric_scooter", "lon": -77.06154733333334, "name": "413a0802471731bfc4c18e2f68f70e05", "bike_id": "413a0802471731bfc4c18e2f68f70e05", "fusion_lat": 0.0, "is_reserved": 0, "lat": 38.91059816666667, "fusion_lon": 0.0, "is_disabled": 0}, {"rental_uris": {"android": "https://dc.lft.to/lastmile_qr_scan", "ios": "https://dc.lft.to/lastmile_qr_scan"}, "type": "electric_scooter", "lon": -77.041017, "name": "9e3b476237e7d125d82796ceb37f5bbe", "bike_id": "9e3b476237e7d125d82796ceb37f5bbe", "fusion_lat": 0.0, "is_reserved": 0, "lat": 38.91788666666667, "fusion_lon": 0.0, "is_disabled": 0}, {"rental_uris": {"android": "https://dc.lft.to/lastmile_qr_scan", "ios": "https://dc.lft.to/lastmile_qr_scan"}, "type": "electric_scooter", "lon": -76.98415216666666, "name": "4b23f66736b8f704f263dcee75ccd9e8", "bike_id": "4b23f66736b8f704f263dcee75ccd9e8", "fusion_lat": 0.0, "is_reserved": 0, "lat": 38.9138825, "fusion_lon": 0.0, "is_disabled": 0}, {"rental_uris": {"android": "https://dc.lft.to/lastmile_qr_scan", "ios": "https://dc.lft.to/lastmile_qr_scan"}, "type": "electric_scooter", "lon": -77.082107, "name": "d1e36a855daa41f19c8f93ce7e24b880", "bike_id": "d1e36a855daa41f19c8f93ce7e24b880", "fusion_lat": 0.0, "is_reserved": 0, "lat": 38.93558066666667, "fusion_lon": 0.0, "is_disabled": 0}, {"rental_uris": {"android": "https://dc.lft.to/lastmile_qr_scan", "ios": "https://dc.lft.to/lastmile_qr_scan"}, "type": "electric_scooter", "lon": -77.01072416666666, "name": "f07b3ed92720b3c74c1b6cfb5b8265ee", "bike_id": "f07b3ed92720b3c74c1b6cfb5b8265ee", "fusion_lat": 0.0, "is_reserved": 0, "lat": 38.89615666666667, "fusion_lon": 0.0, "is_disabled": 0}, {"rental_uris": {"android": "https://dc.lft.to/lastmile_qr_scan", "ios": "https://dc.lft.to/lastmile_qr_scan"}, "type": "electric_scooter", "lon": -76.93836433333334, "name": "40f0dbdceb02ff819acdddcc84cbf4e6", "bike_id": "40f0dbdceb02ff819acdddcc84cbf4e6", "fusion_lat": 0.0, "is_reserved": 0, "lat": 38.89760716666667, "fusion_lon": 0.0, "is_disabled": 0}, {"rental_uris": {"android": "https://dc.lft.to/lastmile_qr_scan", "ios": "https://dc.lft.to/lastmile_qr_scan"}, "type": "electric_bike", "lon": -76.979806, "name": "62c46e2fbea4cdb9a047630c1266fd2f", "bike_id": "62c46e2fbea4cdb9a047630c1266fd2f", "fusion_lat": 0.0, "is_reserved": 0, "lat": 38.957728333333336, "fusion_lon": 0.0, "is_disabled": 0}, {"rental_uris": {"android": "https://dc.lft.to/lastmile_qr_scan", "ios": "https://dc.lft.to/lastmile_qr_scan"}, "type": "electric_scooter", "lon": -77.0383435, "name": "5879758f9a8d7b7aafc68cbb0a6fea3a", "bike_id": "5879758f9a8d7b7aafc68cbb0a6fea3a", "fusion_lat": 0.0, "is_reserved": 0, "lat": 38.908537833333334, "fusion_lon": 0.0, "is_disabled": 0}, {"rental_uris": {"android": "https://dc.lft.to/lastmile_qr_scan", "ios": "https://dc.lft.to/lastmile_qr_scan"}, "type": "electric_scooter", "lon": -77.02475466666667, "name": "d8a58e3670715ff7e204c1455507b464", "bike_id": "d8a58e3670715ff7e204c1455507b464", "fusion_lat": 0.0, "is_reserved": 0, "lat": 38.926544666666665, "fusion_lon": 0.0, "is_disabled": 0}, {"rental_uris": {"android": "https://dc.lft.to/lastmile_qr_scan", "ios": "https://dc.lft.to/lastmile_qr_scan"}, "type": "electric_scooter", "lon": -77.03644083333333, "name": "d50453e94ad03aa781f6a01ad412ff21", "bike_id": "d50453e94ad03aa781f6a01ad412ff21", "fusion_lat": 0.0, "is_reserved": 0, "lat": 38.92751333333333, "fusion_lon": 0.0, "is_disabled": 0}, {"rental_uris": {"android": "https://dc.lft.to/lastmile_qr_scan", "ios": "https://dc.lft.to/lastmile_qr_scan"}, "type": "electric_scooter", "lon": -77.00734666666666, "name": "c7686802bdf6e5a1c285fc57a6be4199", "bike_id": "c7686802bdf6e5a1c285fc57a6be4199", "fusion_lat": 0.0, "is_reserved": 0, "lat": 38.876455, "fusion_lon": 0.0, "is_disabled": 0}, {"rental_uris": {"android": "https://dc.lft.to/lastmile_qr_scan", "ios": "https://dc.lft.to/lastmile_qr_scan"}, "type": "electric_scooter", "lon": -77.0213745, "name": "a3ea5b842bad2c49d145a3623b976dbd", "bike_id": "a3ea5b842bad2c49d145a3623b976dbd", "fusion_lat": 0.0, "is_reserved": 0, "lat": 38.89603566666667, "fusion_lon": 0.0, "is_disabled": 0}, {"rental_uris": {"android": "https://dc.lft.to/lastmile_qr_scan", "ios": "https://dc.lft.to/lastmile_qr_scan"}, "type": "electric_scooter", "lon": -77.0198995, "name": "4bb57cc2d7a83df4e6d48c0eeda320c1", "bike_id": "4bb57cc2d7a83df4e6d48c0eeda320c1", "fusion_lat": 0.0, "is_reserved": 0, "lat": 38.913278, "fusion_lon": 0.0, "is_disabled": 0}, {"rental_uris": {"android": "https://dc.lft.to/lastmile_qr_scan", "ios": "https://dc.lft.to/lastmile_qr_scan"}, "type": "electric_scooter", "lon": -77.03149983333333, "name": "5a67ec42fdd2c6b9d4fd15eb006d5d6d", "bike_id": "5a67ec42fdd2c6b9d4fd15eb006d5d6d", "fusion_lat": 0.0, "is_reserved": 0, "lat": 38.927257166666664, "fusion_lon": 0.0, "is_disabled": 0}, {"rental_uris": {"android": "https://dc.lft.to/lastmile_qr_scan", "ios": "https://dc.lft.to/lastmile_qr_scan"}, "type": "electric_bike", "lon": -76.93224666666667, "name": "f0572fbdd250b5097e31440f36efbd29", "bike_id": "f0572fbdd250b5097e31440f36efbd29", "fusion_lat": 0.0, "is_reserved": 0, "lat": 38.8659365, "fusion_lon": 0.0, "is_disabled": 0}, {"rental_uris": {"android": "https://dc.lft.to/lastmile_qr_scan", "ios": "https://dc.lft.to/lastmile_qr_scan"}, "type": "electric_scooter", "lon": -77.02713816666666, "name": "a49b86f56cba1d255d19263c37233666", "bike_id": "a49b86f56cba1d255d19263c37233666", "fusion_lat": 0.0, "is_reserved": 0, "lat": 38.922479333333335, "fusion_lon": 0.0, "is_disabled": 0}, {"rental_uris": {"android": "https://dc.lft.to/lastmile_qr_scan", "ios": "https://dc.lft.to/lastmile_qr_scan"}, "type": "electric_scooter", "lon": -77.0057355, "name": "7628475b74256ae3261f97e0a959a5b8", "bike_id": "7628475b74256ae3261f97e0a959a5b8", "fusion_lat": 0.0, "is_reserved": 0, "lat": 38.905536833333336, "fusion_lon": 0.0, "is_disabled": 0}, {"rental_uris": {"android": "https://dc.lft.to/lastmile_qr_scan", "ios": "https://dc.lft.to/lastmile_qr_scan"}, "type": "electric_scooter", "lon": -77.00931233333333, "name": "086f3059e16001b5177a749a46ff07b4", "bike_id": "086f3059e16001b5177a749a46ff07b4", "fusion_lat": 0.0, "is_reserved": 0, "lat": 38.9125415, "fusion_lon": 0.0, "is_disabled": 0}, {"rental_uris": {"android": "https://dc.lft.to/lastmile_qr_scan", "ios": "https://dc.lft.to/lastmile_qr_scan"}, "type": "electric_scooter", "lon": -77.034416, "name": "cf5dc9893826907ea56274f2b82f6273", "bike_id": "cf5dc9893826907ea56274f2b82f6273", "fusion_lat": 0.0, "is_reserved": 0, "lat": 38.905759, "fusion_lon": 0.0, "is_disabled": 0}, {"rental_uris": {"android": "https://dc.lft.to/lastmile_qr_scan", "ios": "https://dc.lft.to/lastmile_qr_scan"}, "type": "electric_scooter", "lon": -77.07318066666667, "name": "b74543c8a5ab8066834ddf97444e8b9f", "bike_id": "b74543c8a5ab8066834ddf97444e8b9f", "fusion_lat": 0.0, "is_reserved": 0, "lat": 38.933523, "fusion_lon": 0.0, "is_disabled": 0}, {"rental_uris": {"android": "https://dc.lft.to/lastmile_qr_scan", "ios": "https://dc.lft.to/lastmile_qr_scan"}, "type": "electric_scooter", "lon": -77.03438216666666, "name": "6f9db684cbd455563d20d9076e923155", "bike_id": "6f9db684cbd455563d20d9076e923155", "fusion_lat": 0.0, "is_reserved": 0, "lat": 38.93095616666667, "fusion_lon": 0.0, "is_disabled": 0}, {"rental_uris": {"android": "https://dc.lft.to/lastmile_qr_scan", "ios": "https://dc.lft.to/lastmile_qr_scan"}, "type": "electric_scooter", "lon": -77.01823183333333, "name": "7b92a4551cd70c92ece7ae48a95cab5b", "bike_id": "7b92a4551cd70c92ece7ae48a95cab5b", "fusion_lat": 0.0, "is_reserved": 0, "lat": 38.92200416666667, "fusion_lon": 0.0, "is_disabled": 0}, {"rental_uris": {"android": "https://dc.lft.to/lastmile_qr_scan", "ios": "https://dc.lft.to/lastmile_qr_scan"}, "type": "electric_bike", "lon": -77.12961233333333, "name": "21b99c30dbc42ffca84f0b781966fa04", "bike_id": "21b99c30dbc42ffca84f0b781966fa04", "fusion_lat": 0.0, "is_reserved": 0, "lat": 38.852191, "fusion_lon": 0.0, "is_disabled": 0}, {"rental_uris": {"android": "https://dc.lft.to/lastmile_qr_scan", "ios": "https://dc.lft.to/lastmile_qr_scan"}, "type": "electric_scooter", "lon": -77.02586333333333, "name": "d160c4a2336a4a335961133c578f7cd0", "bike_id": "d160c4a2336a4a335961133c578f7cd0", "fusion_lat": 0.0, "is_reserved": 0, "lat": 38.916348166666666, "fusion_lon": 0.0, "is_disabled": 0}, {"rental_uris": {"android": "https://dc.lft.to/lastmile_qr_scan", "ios": "https://dc.lft.to/lastmile_qr_scan"}, "type": "electric_scooter", "lon": -77.04552416666667, "name": "a19ad3a082ddc3081d472806831d4fef", "bike_id": "a19ad3a082ddc3081d472806831d4fef", "fusion_lat": 0.0, "is_reserved": 0, "lat": 38.908655, "fusion_lon": 0.0, "is_disabled": 0}, {"rental_uris": {"android": "https://dc.lft.to/lastmile_qr_scan", "ios": "https://dc.lft.to/lastmile_qr_scan"}, "type": "electric_scooter", "lon": -77.02717933333334, "name": "99998133a286e5245c31837ba60e3697", "bike_id": "99998133a286e5245c31837ba60e3697", "fusion_lat": 0.0, "is_reserved": 0, "lat": 38.90748133333334, "fusion_lon": 0.0, "is_disabled": 0}, {"rental_uris": {"android": "https://dc.lft.to/lastmile_qr_scan", "ios": "https://dc.lft.to/lastmile_qr_scan"}, "type": "electric_scooter", "lon": -77.03305616666667, "name": "5c07a7da305bfa94d02979984cde9d75", "bike_id": "5c07a7da305bfa94d02979984cde9d75", "fusion_lat": 0.0, "is_reserved": 0, "lat": 38.96820183333333, "fusion_lon": 0.0, "is_disabled": 0}, {"rental_uris": {"android": "https://dc.lft.to/lastmile_qr_scan", "ios": "https://dc.lft.to/lastmile_qr_scan"}, "type": "electric_scooter", "lon": -77.00195816666667, "name": "f44bb2148d3f3b0d8f55e5d501b4ca59", "bike_id": "f44bb2148d3f3b0d8f55e5d501b4ca59", "fusion_lat": 0.0, "is_reserved": 0, "lat": 38.87828783333333, "fusion_lon": 0.0, "is_disabled": 0}, {"rental_uris": {"android": "https://dc.lft.to/lastmile_qr_scan", "ios": "https://dc.lft.to/lastmile_qr_scan"}, "type": "electric_scooter", "lon": -77.013902, "name": "524b907701081262a6d4c495cddfd45d", "bike_id": "524b907701081262a6d4c495cddfd45d", "fusion_lat": 0.0, "is_reserved": 0, "lat": 38.880302, "fusion_lon": 0.0, "is_disabled": 0}, {"rental_uris": {"android": "https://dc.lft.to/lastmile_qr_scan", "ios": "https://dc.lft.to/lastmile_qr_scan"}, "type": "electric_scooter", "lon": -77.0422015, "name": "86e5349417255c7f970bd17dd4b9f275", "bike_id": "86e5349417255c7f970bd17dd4b9f275", "fusion_lat": 0.0, "is_reserved": 0, "lat": 38.916971833333335, "fusion_lon": 0.0, "is_disabled": 0}, {"rental_uris": {"android": "https://dc.lft.to/lastmile_qr_scan", "ios": "https://dc.lft.to/lastmile_qr_scan"}, "type": "electric_scooter", "lon": -77.02112416666667, "name": "c37954844934073974b6adfff5246cdd", "bike_id": "c37954844934073974b6adfff5246cdd", "fusion_lat": 0.0, "is_reserved": 0, "lat": 38.89478016666666, "fusion_lon": 0.0, "is_disabled": 0}, {"rental_uris": {"android": "https://dc.lft.to/lastmile_qr_scan", "ios": "https://dc.lft.to/lastmile_qr_scan"}, "type": "electric_scooter", "lon": -76.985276, "name": "5822fb23f202e0403106c25b28afe0eb", "bike_id": "5822fb23f202e0403106c25b28afe0eb", "fusion_lat": 0.0, "is_reserved": 0, "lat": 38.85846633333333, "fusion_lon": 0.0, "is_disabled": 0}, {"rental_uris": {"android": "https://dc.lft.to/lastmile_qr_scan", "ios": "https://dc.lft.to/lastmile_qr_scan"}, "type": "electric_scooter", "lon": -77.04493583333333, "name": "7a6ac38d7f6c8bdaa6a52e978527b419", "bike_id": "7a6ac38d7f6c8bdaa6a52e978527b419", "fusion_lat": 0.0, "is_reserved": 0, "lat": 38.903638666666666, "fusion_lon": 0.0, "is_disabled": 0}, {"rental_uris": {"android": "https://dc.lft.to/lastmile_qr_scan", "ios": "https://dc.lft.to/lastmile_qr_scan"}, "type": "electric_scooter", "lon": -77.07111383333333, "name": "8d884b59f75f2e1f8e1bc16af4ca7d0b", "bike_id": "8d884b59f75f2e1f8e1bc16af4ca7d0b", "fusion_lat": 0.0, "is_reserved": 0, "lat": 38.9141695, "fusion_lon": 0.0, "is_disabled": 0}, {"rental_uris": {"android": "https://dc.lft.to/lastmile_qr_scan", "ios": "https://dc.lft.to/lastmile_qr_scan"}, "type": "electric_scooter", "lon": -77.03062866666667, "name": "0f91c59e6f63bd9280ed2124c423e0ec", "bike_id": "0f91c59e6f63bd9280ed2124c423e0ec", "fusion_lat": 0.0, "is_reserved": 0, "lat": 38.9057085, "fusion_lon": 0.0, "is_disabled": 0}, {"rental_uris": {"android": "https://dc.lft.to/lastmile_qr_scan", "ios": "https://dc.lft.to/lastmile_qr_scan"}, "type": "electric_scooter", "lon": -77.04490916666667, "name": "453cc27dc10e965e66b1d8f8c58ce555", "bike_id": "453cc27dc10e965e66b1d8f8c58ce555", "fusion_lat": 0.0, "is_reserved": 0, "lat": 38.89644283333333, "fusion_lon": 0.0, "is_disabled": 0}, {"rental_uris": {"android": "https://dc.lft.to/lastmile_qr_scan", "ios": "https://dc.lft.to/lastmile_qr_scan"}, "type": "electric_scooter", "lon": -77.03065233333334, "name": "88800827a5223d8c683cd990ba198cf9", "bike_id": "88800827a5223d8c683cd990ba198cf9", "fusion_lat": 0.0, "is_reserved": 0, "lat": 38.91666333333333, "fusion_lon": 0.0, "is_disabled": 0}, {"rental_uris": {"android": "https://dc.lft.to/lastmile_qr_scan", "ios": "https://dc.lft.to/lastmile_qr_scan"}, "type": "electric_scooter", "lon": -76.99749433333334, "name": "ed2baf2053ccb4726370bfb274b34b5c", "bike_id": "ed2baf2053ccb4726370bfb274b34b5c", "fusion_lat": 0.0, "is_reserved": 0, "lat": 38.900505833333334, "fusion_lon": 0.0, "is_disabled": 0}, {"rental_uris": {"android": "https://dc.lft.to/lastmile_qr_scan", "ios": "https://dc.lft.to/lastmile_qr_scan"}, "type": "electric_scooter", "lon": -77.048703, "name": "433a9d31d0edbd9081109831e119accf", "bike_id": "433a9d31d0edbd9081109831e119accf", "fusion_lat": 0.0, "is_reserved": 0, "lat": 38.8929205, "fusion_lon": 0.0, "is_disabled": 0}, {"rental_uris": {"android": "https://dc.lft.to/lastmile_qr_scan", "ios": "https://dc.lft.to/lastmile_qr_scan"}, "type": "electric_scooter", "lon": -76.97911433333333, "name": "6f0b2659e2f5e9ea2c716fb2fea08f33", "bike_id": "6f0b2659e2f5e9ea2c716fb2fea08f33", "fusion_lat": 0.0, "is_reserved": 0, "lat": 38.89435366666667, "fusion_lon": 0.0, "is_disabled": 0}, {"rental_uris": {"android": "https://dc.lft.to/lastmile_qr_scan", "ios": "https://dc.lft.to/lastmile_qr_scan"}, "type": "electric_scooter", "lon": -77.026789, "name": "055b93b6451041b9c057b1fc35ac4e14", "bike_id": "055b93b6451041b9c057b1fc35ac4e14", "fusion_lat": 0.0, "is_reserved": 0, "lat": 38.90962066666667, "fusion_lon": 0.0, "is_disabled": 0}, {"rental_uris": {"android": "https://dc.lft.to/lastmile_qr_scan", "ios": "https://dc.lft.to/lastmile_qr_scan"}, "type": "electric_bike", "lon": -77.1068585, "name": "fc0c1a848931073e47eaa052ea68b66e", "bike_id": "fc0c1a848931073e47eaa052ea68b66e", "fusion_lat": 0.0, "is_reserved": 0, "lat": 38.93580566666667, "fusion_lon": 0.0, "is_disabled": 0}, {"rental_uris": {"android": "https://dc.lft.to/lastmile_qr_scan", "ios": "https://dc.lft.to/lastmile_qr_scan"}, "type": "electric_scooter", "lon": -77.05142133333334, "name": "b832d06d90cfe9a0a508cc1972f3e778", "bike_id": "b832d06d90cfe9a0a508cc1972f3e778", "fusion_lat": 0.0, "is_reserved": 0, "lat": 38.89672983333333, "fusion_lon": 0.0, "is_disabled": 0}, {"rental_uris": {"android": "https://dc.lft.to/lastmile_qr_scan", "ios": "https://dc.lft.to/lastmile_qr_scan"}, "type": "electric_scooter", "lon": -77.04991533333333, "name": "eb14e79962b8f2ab586ea3d6961c647c", "bike_id": "eb14e79962b8f2ab586ea3d6961c647c", "fusion_lat": 0.0, "is_reserved": 0, "lat": 38.901192333333334, "fusion_lon": 0.0, "is_disabled": 0}, {"rental_uris": {"android": "https://dc.lft.to/lastmile_qr_scan", "ios": "https://dc.lft.to/lastmile_qr_scan"}, "type": "electric_bike", "lon": -77.061012, "name": "92dd3c54131b79cabb5f34b19fd1867a", "bike_id": "92dd3c54131b79cabb5f34b19fd1867a", "fusion_lat": 0.0, "is_reserved": 0, "lat": 38.945162333333336, "fusion_lon": 0.0, "is_disabled": 0}, {"rental_uris": {"android": "https://dc.lft.to/lastmile_qr_scan", "ios": "https://dc.lft.to/lastmile_qr_scan"},