{"data": {"bikes": [{"lon": -77.02498116666666, "name": "0ff5af200e919d34fa7dd94e4d66f789", "is_disabled": 0, "type": "electric_scooter", "is_reserved": 0, "fusion_lon": 0.0, "lat": 38.8850595, "rental_uris": {"ios": "https://dc.lft.to/lastmile_qr_scan", "android": "https://dc.lft.to/lastmile_qr_scan"}, "bike_id": "0ff5af200e919d34fa7dd94e4d66f789", "fusion_lat": 0.0}, {"lon": -77.01551966666666, "name": "ea79cdfe9f229edb2eb8e958dd46a531", "is_disabled": 0, "type": "electric_scooter", "is_reserved": 0, "fusion_lon": 0.0, "lat": 38.928005166666665, "rental_uris": {"ios": "https://dc.lft.to/lastmile_qr_scan", "android": "https://dc.lft.to/lastmile_qr_scan"}, "bike_id": "ea79cdfe9f229edb2eb8e958dd46a531", "fusion_lat": 0.0}, {"lon": -77.03657383333334, "name": "9e26b39afb28352a4c444df87d2f99d8", "is_disabled": 0, "type": "electric_scooter", "is_reserved": 0, "fusion_lon": 0.0, "lat": 38.931571166666664, "rental_uris": {"ios": "https://dc.lft.to/lastmile_qr_scan", "android": "https://dc.lft.to/lastmile_qr_scan"}, "bike_id": "9e26b39afb28352a4c444df87d2f99d8", "fusion_lat": 0.0}, {"lon": -77.0269955, "name": "765bafb16bd245f6ae15770a4a0e6b5b", "is_disabled": 0, "type": "electric_scooter", "is_reserved": 0, "fusion_lon": 0.0, "lat": 38.94940316666667, "rental_uris": {"ios": "https://dc.lft.to/lastmile_qr_scan", "android": "https://dc.lft.to/lastmile_qr_scan"}, "bike_id": "765bafb16bd245f6ae15770a4a0e6b5b", "fusion_lat": 0.0}, {"lon": -77.02200316666666, "name": "5e7b1001cae7761f3e5733a5c1ade49d", "is_disabled": 0, "type": "electric_scooter", "is_reserved": 0, "fusion_lon": 0.0, "lat": 38.87902116666667, "rental_uris": {"ios": "https://dc.lft.to/lastmile_qr_scan", "android": "https://dc.lft.to/lastmile_qr_scan"}, "bike_id": "5e7b1001cae7761f3e5733a5c1ade49d", "fusion_lat": 0.0}, {"lon": -77.0461875, "name": "3124cf861b7dccdcf5b7ebcbcbfdf4ce", "is_disabled": 0, "type": "electric_scooter", "is_reserved": 0, "fusion_lon": 0.0, "lat": 38.916179166666666, "rental_uris": {"ios": "https://dc.lft.to/lastmile_qr_scan", "android": "https://dc.lft.to/lastmile_qr_scan"}, "bike_id": "3124cf861b7dccdcf5b7ebcbcbfdf4ce", "fusion_lat": 0.0}, {"lon": -76.99800933333333, "name": "68f1e3ceb97fa103fef093496c25821e", "is_disabled": 0, "type": "electric_scooter", "is_reserved": 0, "fusion_lon": 0.0, "lat": 38.89607483333333, "rental_uris": {"ios": "https://dc.lft.to/lastmile_qr_scan", "android": "https://dc.lft.to/lastmile_qr_scan"}, "bike_id": "68f1e3ceb97fa103fef093496c25821e", "fusion_lat": 0.0}, {"lon": -77.0223295, "name": "befb4261b47375af4b5e8e2173c2e408", "is_disabled": 0, "type": "electric_scooter", "is_reserved": 0, "fusion_lon": 0.0, "lat": 38.9235745, "rental_uris": {"ios": "https://dc.lft.to/lastmile_qr_scan", "android": "https://dc.lft.to/lastmile_qr_scan"}, "bike_id": "befb4261b47375af4b5e8e2173c2e408", "fusion_lat": 0.0}, {"lon": -77.0466415, "name": "1173964f2e66e64e76f2509104747254", "is_disabled": 0, "type": "electric_scooter", "is_reserved": 0, "fusion_lon": 0.0, "lat": 38.904241166666665, "rental_uris": {"ios": "https://dc.lft.to/lastmile_qr_scan", "android": "https://dc.lft.to/lastmile_qr_scan"}, "bike_id": "1173964f2e66e64e76f2509104747254", "fusion_lat": 0.0}, {"lon": -76.98544916666667, "name": "7e953243f9b110623b670235b96de687", "is_disabled": 0, "type": "electric_scooter", "is_reserved": 0, "fusion_lon": 0.0, "lat": 38.8796495, "rental_uris": {"ios": "https://dc.lft.to/lastmile_qr_scan", "android": "https://dc.lft.to/lastmile_qr_scan"}, "bike_id": "7e953243f9b110623b670235b96de687", "fusion_lat": 0.0}, {"lon": -77.019145, "name": "1272afdc89422c112ef6a8f851c7dd54", "is_disabled": 0, "type": "electric_scooter", "is_reserved": 0, "fusion_lon": 0.0, "lat": 38.929422833333334, "rental_uris": {"ios": "https://dc.lft.to/lastmile_qr_scan", "android": "https://dc.lft.to/lastmile_qr_scan"}, "bike_id": "1272afdc89422c112ef6a8f851c7dd54", "fusion_lat": 0.0}, {"lon": -77.0412715, "name": "616c857aa6e04c384cda84d71f4d4b41", "is_disabled": 0, "type": "electric_scooter", "is_reserved": 0, "fusion_lon": 0.0, "lat": 38.92122583333333, "rental_uris": {"ios": "https://dc.lft.to/lastmile_qr_scan", "android": "https://dc.lft.to/lastmile_qr_scan"}, "bike_id": "616c857aa6e04c384cda84d71f4d4b41", "fusion_lat": 0.0}, {"lon": -77.05424983333333, "name": "3ab30f9d8eb9b4e1d51a2d1de6fdd118", "is_disabled": 0, "type": "electric_scooter", "is_reserved": 0, "fusion_lon": 0.0, "lat": 38.923415, "rental_uris": {"ios": "https://dc.lft.to/lastmile_qr_scan", "android": "https://dc.lft.to/lastmile_qr_scan"}, "bike_id": "3ab30f9d8eb9b4e1d51a2d1de6fdd118", "fusion_lat": 0.0}, {"lon": -76.99597383333334, "name": "c3111d4218d318b22d38d9b2bc003147", "is_disabled": 0, "type": "electric_scooter", "is_reserved": 0, "fusion_lon": 0.0, "lat": 38.88436733333333, "rental_uris": {"ios": "https://dc.lft.to/lastmile_qr_scan", "android": "https://dc.lft.to/lastmile_qr_scan"}, "bike_id": "c3111d4218d318b22d38d9b2bc003147", "fusion_lat": 0.0}, {"lon": -77.0321415, "name": "efb91fce3ae9ab6ff1b3815aef375f9b", "is_disabled": 0, "type": "electric_scooter", "is_reserved": 0, "fusion_lon": 0.0, "lat": 38.9163585, "rental_uris": {"ios": "https://dc.lft.to/lastmile_qr_scan", "android": "https://dc.lft.to/lastmile_qr_scan"}, "bike_id": "efb91fce3ae9ab6ff1b3815aef375f9b", "fusion_lat": 0.0}, {"lon": -77.023904, "name": "380958dbbacd07bc4da1c85c5d285cff", "is_disabled": 0, "type": "electric_scooter", "is_reserved": 0, "fusion_lon": 0.0, "lat": 38.927015833333336, "rental_uris": {"ios": "https://dc.lft.to/lastmile_qr_scan", "android": "https://dc.lft.to/lastmile_qr_scan"}, "bike_id": "380958dbbacd07bc4da1c85c5d285cff", "fusion_lat": 0.0}, {"lon": -77.03660666666667, "name": "880ca2dac50bea0f32d8d9884b85100c", "is_disabled": 0, "type": "electric_scooter", "is_reserved": 0, "fusion_lon": 0.0, "lat": 38.915726666666664, "rental_uris": {"ios": "https://dc.lft.to/lastmile_qr_scan", "android": "https://dc.lft.to/lastmile_qr_scan"}, "bike_id": "880ca2dac50bea0f32d8d9884b85100c", "fusion_lat": 0.0}, {"lon": -77.0816905, "name": "1c101bfb957c60d4df388b0f9df6cfe5", "is_disabled": 0, "type": "electric_bike", "is_reserved": 0, "fusion_lon": 0.0, "lat": 38.907820666666666, "rental_uris": {"ios": "https://dc.lft.to/lastmile_qr_scan", "android": "https://dc.lft.to/lastmile_qr_scan"}, "bike_id": "1c101bfb957c60d4df388b0f9df6cfe5", "fusion_lat": 0.0}, {"lon": -77.01629233333334, "name": "2a469096808f7fba30f0e9e2f66753f8", "is_disabled": 0, "type": "electric_scooter", "is_reserved": 0, "fusion_lon": 0.0, "lat": 38.910769, "rental_uris": {"ios": "https://dc.lft.to/lastmile_qr_scan", "android": "https://dc.lft.to/lastmile_qr_scan"}, "bike_id": "2a469096808f7fba30f0e9e2f66753f8", "fusion_lat": 0.0}, {"lon": -77.03649066666667, "name": "370c57e589de68db93195f7e14e55060", "is_disabled": 0, "type": "electric_bike", "is_reserved": 0, "fusion_lon": 0.0, "lat": 38.929395166666666, "rental_uris": {"ios": "https://dc.lft.to/lastmile_qr_scan", "android": "https://dc.lft.to/lastmile_qr_scan"}, "bike_id": "370c57e589de68db93195f7e14e55060", "fusion_lat": 0.0}, {"lon": -77.02795483333334, "name": "d8ee8dc1ecf6ee91e2593622e8c77f55", "is_disabled": 0, "type": "electric_scooter", "is_reserved": 0, "fusion_lon": 0.0, "lat": 38.898743333333336, "rental_uris": {"ios": "https://dc.lft.to/lastmile_qr_scan", "android": "https://dc.lft.to/lastmile_qr_scan"}, "bike_id": "d8ee8dc1ecf6ee91e2593622e8c77f55", "fusion_lat": 0.0}, {"lon": -76.9901825, "name": "75af5a9758793cbbd0406f3a1ad13cb0", "is_disabled": 0, "type": "electric_scooter", "is_reserved": 0, "fusion_lon": 0.0, "lat": 38.865118833333334, "rental_uris": {"ios": "https://dc.lft.to/lastmile_qr_scan", "android": "https://dc.lft.to/lastmile_qr_scan"}, "bike_id": "75af5a9758793cbbd0406f3a1ad13cb0", "fusion_lat": 0.0}, {"lon": -77.01771616666667, "name": "ed1226e8fcba4d248cbbce052a7ca89d", "is_disabled": 0, "type": "electric_scooter", "is_reserved": 0, "fusion_lon": 0.0, "lat": 38.8923005, "rental_uris": {"ios": "https://dc.lft.to/lastmile_qr_scan", "android": "https://dc.lft.to/lastmile_qr_scan"}, "bike_id": "ed1226e8fcba4d248cbbce052a7ca89d", "fusion_lat": 0.0}, {"lon": -77.044537, "name": "f97109bd5aa69d116d2b498031927ddd", "is_disabled": 0, "type": "electric_scooter", "is_reserved": 0, "fusion_lon": 0.0, "lat": 38.90258983333333, "rental_uris": {"ios": "https://dc.lft.to/lastmile_qr_scan", "android": "https://dc.lft.to/lastmile_qr_scan"}, "bike_id": "f97109bd5aa69d116d2b498031927ddd", "fusion_lat": 0.0}, {"lon": -76.99342133333333, "name": "0fae2fdc5ec68947b5e320db60ae3ef3", "is_disabled": 0, "type": "electric_scooter", "is_reserved": 0, "fusion_lon": 0.0, "lat": 38.8812155, "rental_uris": {"ios": "https://dc.lft.to/lastmile_qr_scan", "android": "https://dc.lft.to/lastmile_qr_scan"}, "bike_id": "0fae2fdc5ec68947b5e320db60ae3ef3", "fusion_lat": 0.0}, {"lon": -77.01719866666667, "name": "dd3be963039115e35bffa0fef856bc2a", "is_disabled": 0, "type": "electric_scooter", "is_reserved": 0, "fusion_lon": 0.0, "lat": 38.90731266666667, "rental_uris": {"ios": "https://dc.lft.to/lastmile_qr_scan", "android": "https://dc.lft.to/lastmile_qr_scan"}, "bike_id": "dd3be963039115e35bffa0fef856bc2a", "fusion_lat": 0.0}, {"lon": -77.042623, "name": "2867c796a2cb31cb920437ba56e17ae5", "is_disabled": 0, "type": "electric_scooter", "is_reserved": 0, "fusion_lon": 0.0, "lat": 38.92065216666667, "rental_uris": {"ios": "https://dc.lft.to/lastmile_qr_scan", "android": "https://dc.lft.to/lastmile_qr_scan"}, "bike_id": "2867c796a2cb31cb920437ba56e17ae5", "fusion_lat": 0.0}, {"lon": -77.05233166666666, "name": "384f703b7a6fe777bbcf54aec8382223", "is_disabled": 0, "type": "electric_scooter", "is_reserved": 0, "fusion_lon": 0.0, "lat": 38.924675, "rental_uris": {"ios": "https://dc.lft.to/lastmile_qr_scan", "android": "https://dc.lft.to/lastmile_qr_scan"}, "bike_id": "384f703b7a6fe777bbcf54aec8382223", "fusion_lat": 0.0}, {"lon": -77.02850633333334, "name": "4722f8c97a01250784101c8051f527ec", "is_disabled": 0, "type": "electric_scooter", "is_reserved": 0, "fusion_lon": 0.0, "lat": 38.9419605, "rental_uris": {"ios": "https://dc.lft.to/lastmile_qr_scan", "android": "https://dc.lft.to/lastmile_qr_scan"}, "bike_id": "4722f8c97a01250784101c8051f527ec", "fusion_lat": 0.0}, {"lon": -77.0503455, "name": "712e8b8c44117a1502377985abad4f02", "is_disabled": 0, "type": "electric_scooter", "is_reserved": 0, "fusion_lon": 0.0, "lat": 38.899592, "rental_uris": {"ios": "https://dc.lft.to/lastmile_qr_scan", "android": "https://dc.lft.to/lastmile_qr_scan"}, "bike_id": "712e8b8c44117a1502377985abad4f02", "fusion_lat": 0.0}, {"lon": -77.03151583333333, "name": "eb01a6bcc80657348198070f35e95cdd", "is_disabled": 0, "type": "electric_scooter", "is_reserved": 0, "fusion_lon": 0.0, "lat": 38.927904166666664, "rental_uris": {"ios": "https://dc.lft.to/lastmile_qr_scan", "android": "https://dc.lft.to/lastmile_qr_scan"}, "bike_id": "eb01a6bcc80657348198070f35e95cdd", "fusion_lat": 0.0}, {"lon": -77.00292633333333, "name": "8fe622d80b6de170a0b46b9d6791b9ec", "is_disabled": 0, "type": "electric_scooter", "is_reserved": 0, "fusion_lon": 0.0, "lat": 38.8920505, "rental_uris": {"ios": "https://dc.lft.to/lastmile_qr_scan", "android": "https://dc.lft.to/lastmile_qr_scan"}, "bike_id": "8fe622d80b6de170a0b46b9d6791b9ec", "fusion_lat": 0.0}, {"lon": -77.04369416666667, "name": "b3e987a622d00599ec48a9aea395b9ec", "is_disabled": 0, "type": "electric_scooter", "is_reserved": 0, "fusion_lon": 0.0, "lat": 38.91117166666667, "rental_uris": {"ios": "https://dc.lft.to/lastmile_qr_scan", "android": "https://dc.lft.to/lastmile_qr_scan"}, "bike_id": "b3e987a622d00599ec48a9aea395b9ec", "fusion_lat": 0.0}, {"lon": -76.9959195, "name": "02d5aba0288e8105f1cf6e5ac158b079", "is_disabled": 0, "type": "electric_scooter", "is_reserved": 0, "fusion_lon": 0.0, "lat": 38.884341, "rental_uris": {"ios": "https://dc.lft.to/lastmile_qr_scan", "android": "https://dc.lft.to/lastmile_qr_scan"}, "bike_id": "02d5aba0288e8105f1cf6e5ac158b079", "fusion_lat": 0.0}, {"lon": -77.0325675, "name": "e6fea822a925bd078abfed3c14a6f248", "is_disabled": 0, "type": "electric_scooter", "is_reserved": 0, "fusion_lon": 0.0, "lat": 38.93972266666667, "rental_uris": {"ios": "https://dc.lft.to/lastmile_qr_scan", "android": "https://dc.lft.to/lastmile_qr_scan"}, "bike_id": "e6fea822a925bd078abfed3c14a6f248", "fusion_lat": 0.0}, {"lon": -77.00961233333334, "name": "9f96407c8039441783ac28d759d59896", "is_disabled": 0, "type": "electric_scooter", "is_reserved": 0, "fusion_lon": 0.0, "lat": 38.896009166666666, "rental_uris": {"ios": "https://dc.lft.to/lastmile_qr_scan", "android": "https://dc.lft.to/lastmile_qr_scan"}, "bike_id": "9f96407c8039441783ac28d759d59896", "fusion_lat": 0.0}, {"lon": -77.095234, "name": "6f8fb6858b21c8c171659a521da2c3c7", "is_disabled": 0, "type": "electric_bike", "is_reserved": 0, "fusion_lon": 0.0, "lat": 38.83808533333333, "rental_uris": {"ios": "https://dc.lft.to/lastmile_qr_scan", "android": "https://dc.lft.to/lastmile_qr_scan"}, "bike_id": "6f8fb6858b21c8c171659a521da2c3c7", "fusion_lat": 0.0}, {"lon": -77.030651, "name": "bfa9c82972819fb2de597a4967c95103", "is_disabled": 0, "type": "electric_scooter", "is_reserved": 0, "fusion_lon": 0.0, "lat": 38.902603166666665, "rental_uris": {"ios": "https://dc.lft.to/lastmile_qr_scan", "android": "https://dc.lft.to/lastmile_qr_scan"}, "bike_id": "bfa9c82972819fb2de597a4967c95103", "fusion_lat": 0.0}, {"lon": -76.93631466666666, "name": "18f259843b48431e78b75ce313041851", "is_disabled": 0, "type": "electric_scooter", "is_reserved": 0, "fusion_lon": 0.0, "lat": 38.8834905, "rental_uris": {"ios": "https://dc.lft.to/lastmile_qr_scan", "android": "https://dc.lft.to/lastmile_qr_scan"}, "bike_id": "18f259843b48431e78b75ce313041851", "fusion_lat": 0.0}, {"lon": -77.037978, "name": "3f53660c90934a8d287243a0738dd1b4", "is_disabled": 0, "type": "electric_scooter", "is_reserved": 0, "fusion_lon": 0.0, "lat": 38.906619666666664, "rental_uris": {"ios": "https://dc.lft.to/lastmile_qr_scan", "android": "https://dc.lft.to/lastmile_qr_scan"}, "bike_id": "3f53660c90934a8d287243a0738dd1b4", "fusion_lat": 0.0}, {"lon": -77.05000316666667, "name": "a336ca226016e34494a1b39440c925b6", "is_disabled": 0, "type": "electric_scooter", "is_reserved": 0, "fusion_lon": 0.0, "lat": 38.89228, "rental_uris": {"ios": "https://dc.lft.to/lastmile_qr_scan", "android": "https://dc.lft.to/lastmile_qr_scan"}, "bike_id": "a336ca226016e34494a1b39440c925b6", "fusion_lat": 0.0}, {"lon": -77.02554633333334, "name": "b818f82d827b370b46c62349f68b1ec0", "is_disabled": 0, "type": "electric_scooter", "is_reserved": 0, "fusion_lon": 0.0, "lat": 38.92402933333334, "rental_uris": {"ios": "https://dc.lft.to/lastmile_qr_scan", "android": "https://dc.lft.to/lastmile_qr_scan"}, "bike_id": "b818f82d827b370b46c62349f68b1ec0", "fusion_lat": 0.0}, {"lon": -76.94290766666667, "name": "2a5b78e98b72f69fef86839a42c63553", "is_disabled": 0, "type": "electric_scooter", "is_reserved": 0, "fusion_lon": 0.0, "lat": 38.89843316666666, "rental_uris": {"ios": "https://dc.lft.to/lastmile_qr_scan", "android": "https://dc.lft.to/lastmile_qr_scan"}, "bike_id": "2a5b78e98b72f69fef86839a42c63553", "fusion_lat": 0.0}, {"lon": -76.98318183333333, "name": "bbb0481d2f269c1b253f10c1d745b9ec", "is_disabled": 0, "type": "electric_scooter", "is_reserved": 0, "fusion_lon": 0.0, "lat": 38.92251016666667, "rental_uris": {"ios": "https://dc.lft.to/lastmile_qr_scan", "android": "https://dc.lft.to/lastmile_qr_scan"}, "bike_id": "bbb0481d2f269c1b253f10c1d745b9ec", "fusion_lat": 0.0}, {"lon": -77.04307883333334, "name": "f340915bb3b71397a8b925af2751312b", "is_disabled": 0, "type": "electric_scooter", "is_reserved": 0, "fusion_lon": 0.0, "lat": 38.90848366666667, "rental_uris": {"ios": "https://dc.lft.to/lastmile_qr_scan", "android": "https://dc.lft.to/lastmile_qr_scan"}, "bike_id": "f340915bb3b71397a8b925af2751312b", "fusion_lat": 0.0}, {"lon": -76.989233, "name": "66f9b067076fbca11e44ba14f59f6b01", "is_disabled": 0, "type": "electric_bike", "is_reserved": 0, "fusion_lon": 0.0, "lat": 38.8663225, "rental_uris": {"ios": "https://dc.lft.to/lastmile_qr_scan", "android": "https://dc.lft.to/lastmile_qr_scan"}, "bike_id": "66f9b067076fbca11e44ba14f59f6b01", "fusion_lat": 0.0}, {"lon": -77.04140366666667, "name": "bd514807a1148046407e07f02645f107", "is_disabled": 0, "type": "electric_scooter", "is_reserved": 0, "fusion_lon": 0.0, "lat": 38.90041866666667, "rental_uris": {"ios": "https://dc.lft.to/lastmile_qr_scan", "android": "https://dc.lft.to/lastmile_qr_scan"}, "bike_id": "bd514807a1148046407e07f02645f107", "fusion_lat": 0.0}, {"lon": -76.9996245, "name": "e6cbe732ceade4a8f3d8bb2e11973c5c", "is_disabled": 0, "type": "electric_scooter", "is_reserved": 0, "fusion_lon": 0.0, "lat": 38.9038235, "rental_uris": {"ios": "https://dc.lft.to/lastmile_qr_scan", "android": "https://dc.lft.to/lastmile_qr_scan"}, "bike_id": "e6cbe732ceade4a8f3d8bb2e11973c5c", "fusion_lat": 0.0}, {"lon": -76.99369316666667, "name": "fd29e62b392141ae1e7ace968f988432", "is_disabled": 0, "type": "electric_bike", "is_reserved": 0, "fusion_lon": 0.0, "lat": 38.9909885, "rental_uris": {"ios": "https://dc.lft.to/lastmile_qr_scan", "android": "https://dc.lft.to/lastmile_qr_scan"}, "bike_id": "fd29e62b392141ae1e7ace968f988432", "fusion_lat": 0.0}, {"lon": -77.02158783333333, "name": "a118ae1d0cc29511a12734d5f08060b4", "is_disabled": 0, "type": "electric_scooter", "is_reserved": 0, "fusion_lon": 0.0, "lat": 38.92599716666667, "rental_uris": {"ios": "https://dc.lft.to/lastmile_qr_scan", "android": "https://dc.lft.to/lastmile_qr_scan"}, "bike_id": "a118ae1d0cc29511a12734d5f08060b4", "fusion_lat": 0.0}, {"lon": -76.9780565, "name": "1c2943de9f77bf95ffdd3bcb1964a2fa", "is_disabled": 0, "type": "electric_scooter", "is_reserved": 0, "fusion_lon": 0.0, "lat": 38.920342833333336, "rental_uris": {"ios": "https://dc.lft.to/lastmile_qr_scan", "android": "https://dc.lft.to/lastmile_qr_scan"}, "bike_id": "1c2943de9f77bf95ffdd3bcb1964a2fa", "fusion_lat": 0.0}, {"lon": -77.00174083333333, "name": "8497338026b8aa7782469bf9d6e25b2f", "is_disabled": 0, "type": "electric_scooter", "is_reserved": 0, "fusion_lon": 0.0, "lat": 38.94068766666667, "rental_uris": {"ios": "https://dc.lft.to/lastmile_qr_scan", "android": "https://dc.lft.to/lastmile_qr_scan"}, "bike_id": "8497338026b8aa7782469bf9d6e25b2f", "fusion_lat": 0.0}, {"lon": -77.038048, "name": "7c7202a0974d392b0aed15c1b002ac2e", "is_disabled": 0, "type": "electric_scooter", "is_reserved": 0, "fusion_lon": 0.0, "lat": 38.903939, "rental_uris": {"ios": "https://dc.lft.to/lastmile_qr_scan", "android": "https://dc.lft.to/lastmile_qr_scan"}, "bike_id": "7c7202a0974d392b0aed15c1b002ac2e", "fusion_lat": 0.0}, {"lon": -76.984222, "name": "897196969b11f567e07ffcc4b40847a9", "is_disabled": 0, "type": "electric_bike", "is_reserved": 0, "fusion_lon": 0.0, "lat": 38.9100295, "rental_uris": {"ios": "https://dc.lft.to/lastmile_qr_scan", "android": "https://dc.lft.to/lastmile_qr_scan"}, "bike_id": "897196969b11f567e07ffcc4b40847a9", "fusion_lat": 0.0}, {"lon": -77.00218516666666, "name": "a491204c68f1edace6b4015903f8961a", "is_disabled": 0, "type": "electric_scooter", "is_reserved": 0, "fusion_lon": 0.0, "lat": 38.957405666666666, "rental_uris": {"ios": "https://dc.lft.to/lastmile_qr_scan", "android": "https://dc.lft.to/lastmile_qr_scan"}, "bike_id": "a491204c68f1edace6b4015903f8961a", "fusion_lat": 0.0}, {"lon": -77.0327815, "name": "8e3a0cbfa262eceb183aa58d9e5f599b", "is_disabled": 0, "type": "electric_scooter", "is_reserved": 0, "fusion_lon": 0.0, "lat": 38.937322, "rental_uris": {"ios": "https://dc.lft.to/lastmile_qr_scan", "android": "https://dc.lft.to/lastmile_qr_scan"}, "bike_id": "8e3a0cbfa262eceb183aa58d9e5f599b", "fusion_lat": 0.0}, {"lon": -77.01232233333333, "name": "338b38f4fb160b9cd08854479d5371dd", "is_disabled": 0, "type": "electric_scooter", "is_reserved": 0, "fusion_lon": 0.0, "lat": 38.90011583333333, "rental_uris": {"ios": "https://dc.lft.to/lastmile_qr_scan", "android": "https://dc.lft.to/lastmile_qr_scan"}, "bike_id": "338b38f4fb160b9cd08854479d5371dd", "fusion_lat": 0.0}, {"lon": -77.00075866666667, "name": "21bb29d23b0ad43d222fe24f21e8bd0d", "is_disabled": 0, "type": "electric_scooter", "is_reserved": 0, "fusion_lon": 0.0, "lat": 38.88777983333333, "rental_uris": {"ios": "https://dc.lft.to/lastmile_qr_scan", "android": "https://dc.lft.to/lastmile_qr_scan"}, "bike_id": "21bb29d23b0ad43d222fe24f21e8bd0d", "fusion_lat": 0.0}, {"lon": -77.02163033333333, "name": "4880116a93df73d55288dc6a938fdbb8", "is_disabled": 0, "type": "electric_scooter", "is_reserved": 0, "fusion_lon": 0.0, "lat": 38.92611633333333, "rental_uris": {"ios": "https://dc.lft.to/lastmile_qr_scan", "android": "https://dc.lft.to/lastmile_qr_scan"}, "bike_id": "4880116a93df73d55288dc6a938fdbb8", "fusion_lat": 0.0}, {"lon": -77.02118433333334, "name": "82c634c280c796886bd421ac65a26b85", "is_disabled": 0, "type": "electric_scooter", "is_reserved": 0, "fusion_lon": 0.0, "lat": 38.9239105, "rental_uris": {"ios": "https://dc.lft.to/lastmile_qr_scan", "android": "https://dc.lft.to/lastmile_qr_scan"}, "bike_id": "82c634c280c796886bd421ac65a26b85", "fusion_lat": 0.0}, {"lon": -76.982037, "name": "3c68cdc96df301001161ddd410469856", "is_disabled": 0, "type": "electric_bike", "is_reserved": 0, "fusion_lon": 0.0, "lat": 38.985017666666664, "rental_uris": {"ios": "https://dc.lft.to/lastmile_qr_scan", "android": "https://dc.lft.to/lastmile_qr_scan"}, "bike_id": "3c68cdc96df301001161ddd410469856", "fusion_lat": 0.0}, {"lon": -77.041999, "name": "5b3ed8f5e3a6c8f4765102c728146156", "is_disabled": 0, "type": "electric_scooter", "is_reserved": 0, "fusion_lon": 0.0, "lat": 38.92057483333333, "rental_uris": {"ios": "https://dc.lft.to/lastmile_qr_scan", "android": "https://dc.lft.to/lastmile_qr_scan"}, "bike_id": "5b3ed8f5e3a6c8f4765102c728146156", "fusion_lat": 0.0}, {"lon": -77.0219735, "name": "534c8b27edf5ee429ead674db648f848", "is_disabled": 0, "type": "electric_scooter", "is_reserved": 0, "fusion_lon": 0.0, "lat": 38.91128766666667, "rental_uris": {"ios": "https://dc.lft.to/lastmile_qr_scan", "android": "https://dc.lft.to/lastmile_qr_scan"}, "bike_id": "534c8b27edf5ee429ead674db648f848", "fusion_lat": 0.0}, {"lon": -77.0317905, "name": "37b402078b190e89fea3569683e4cebe", "is_disabled": 0, "type": "electric_scooter", "is_reserved": 0, "fusion_lon": 0.0, "lat": 38.90388633333333, "rental_uris": {"ios": "https://dc.lft.to/lastmile_qr_scan", "android": "https://dc.lft.to/lastmile_qr_scan"}, "bike_id": "37b402078b190e89fea3569683e4cebe", "fusion_lat": 0.0}, {"lon": -77.03934416666667, "name": "88bf7d27026d2998ee168761541ed337", "is_disabled": 0, "type": "electric_scooter", "is_reserved": 0, "fusion_lon": 0.0, "lat": 38.924843333333335, "rental_uris": {"ios": "https://dc.lft.to/lastmile_qr_scan", "android": "https://dc.lft.to/lastmile_qr_scan"}, "bike_id": "88bf7d27026d2998ee168761541ed337", "fusion_lat": 0.0}, {"lon": -77.02800883333333, "name": "5117a2ff15cba9364bc6ba1c0269d2e4", "is_disabled": 0, "type": "electric_scooter", "is_reserved": 0, "fusion_lon": 0.0, "lat": 38.89364416666667, "rental_uris": {"ios": "https://dc.lft.to/lastmile_qr_scan", "android": "https://dc.lft.to/lastmile_qr_scan"}, "bike_id": "5117a2ff15cba9364bc6ba1c0269d2e4", "fusion_lat": 0.0}, {"lon": -77.04676283333333, "name": "02e4b27883863dc3c3ea6bead00f8f2b", "is_disabled": 0, "type": "electric_scooter", "is_reserved": 0, "fusion_lon": 0.0, "lat": 38.89560933333333, "rental_uris": {"ios": "https://dc.lft.to/lastmile_qr_scan", "android": "https://dc.lft.to/lastmile_qr_scan"}, "bike_id": "02e4b27883863dc3c3ea6bead00f8f2b", "fusion_lat": 0.0}, {"lon": -77.02129683333334, "name": "da09d592c130ccba4436b8373402d668", "is_disabled": 0, "type": "electric_scooter", "is_reserved": 0, "fusion_lon": 0.0, "lat": 38.92415166666667, "rental_uris": {"ios": "https://dc.lft.to/lastmile_qr_scan", "android": "https://dc.lft.to/lastmile_qr_scan"}, "bike_id": "da09d592c130ccba4436b8373402d668", "fusion_lat": 0.0}, {"lon": -77.0642725, "name": "b011e127f83e9be1a22324f5be8ad401", "is_disabled": 0, "type": "electric_scooter", "is_reserved": 0, "fusion_lon": 0.0, "lat": 38.905225333333334, "rental_uris": {"ios": "https://dc.lft.to/lastmile_qr_scan", "android": "https://dc.lft.to/lastmile_qr_scan"}, "bike_id": "b011e127f83e9be1a22324f5be8ad401", "fusion_lat": 0.0}, {"lon": -77.02058866666667, "name": "bdf9091b775e462d5a21720b61857243", "is_disabled": 0, "type": "electric_bike", "is_reserved": 0, "fusion_lon": 0.0, "lat": 38.912561833333335, "rental_uris": {"ios": "https://dc.lft.to/lastmile_qr_scan", "android": "https://dc.lft.to/lastmile_qr_scan"}, "bike_id": "bdf9091b775e462d5a21720b61857243", "fusion_lat": 0.0}, {"lon": -77.032116, "name": "dac5a573812a18ea7409e08d08a11c13", "is_disabled": 0, "type": "electric_scooter", "is_reserved": 0, "fusion_lon": 0.0, "lat": 38.89359533333333, "rental_uris": {"ios": "https://dc.lft.to/lastmile_qr_scan", "android": "https://dc.lft.to/lastmile_qr_scan"}, "bike_id": "dac5a573812a18ea7409e08d08a11c13", "fusion_lat": 0.0}, {"lon": -76.99700816666666, "name": "0606f5ddbfe1afc2e43864ce041dd7c5", "is_disabled": 0, "type": "electric_bike", "is_reserved": 0, "fusion_lon": 0.0, "lat": 38.8386415, "rental_uris": {"ios": "https://dc.lft.to/lastmile_qr_scan", "android": "https://dc.lft.to/lastmile_qr_scan"}, "bike_id": "0606f5ddbfe1afc2e43864ce041dd7c5", "fusion_lat": 0.0}, {"lon": -76.9512785, "name": "5510a59e197d51d2fb000b6798353487", "is_disabled": 0, "type": "electric_bike", "is_reserved": 0, "fusion_lon": 0.0, "lat": 38.95187216666667, "rental_uris": {"ios": "https://dc.lft.to/lastmile_qr_scan", "android": "https://dc.lft.to/lastmile_qr_scan"}, "bike_id": "5510a59e197d51d2fb000b6798353487", "fusion_lat": 0.0}, {"lon": -77.02411883333333, "name": "eb733966e3a370e2cf8e36da4346f442", "is_disabled": 0, "type": "electric_scooter", "is_reserved": 0, "fusion_lon": 0.0, "lat": 38.91763183333333, "rental_uris": {"ios": "https://dc.lft.to/lastmile_qr_scan", "android": "https://dc.lft.to/lastmile_qr_scan"}, "bike_id": "eb733966e3a370e2cf8e36da4346f442", "fusion_lat": 0.0}, {"lon": -77.02244816666666, "name": "295bc762b6058603f9ec17753dccbbdb", "is_disabled": 0, "type": "electric_scooter", "is_reserved": 0, "fusion_lon": 0.0, "lat": 38.924336, "rental_uris": {"ios": "https://dc.lft.to/lastmile_qr_scan", "android": "https://dc.lft.to/lastmile_qr_scan"}, "bike_id": "295bc762b6058603f9ec17753dccbbdb", "fusion_lat": 0.0}, {"lon": -77.02004966666667, "name": "22d2f95563e84e717abff7c677720dde", "is_disabled": 0, "type": "electric_scooter", "is_reserved": 0, "fusion_lon": 0.0, "lat": 38.911044833333335, "rental_uris": {"ios": "https://dc.lft.to/lastmile_qr_scan", "android": "https://dc.lft.to/lastmile_qr_scan"}, "bike_id": "22d2f95563e84e717abff7c677720dde", "fusion_lat": 0.0}, {"lon": -77.02933633333333, "name": "464b0cfc08eb164136da880c8001a833", "is_disabled": 0, "type": "electric_scooter", "is_reserved": 0, "fusion_lon": 0.0, "lat": 38.898132833333335, "rental_uris": {"ios": "https://dc.lft.to/lastmile_qr_scan", "android": "https://dc.lft.to/lastmile_qr_scan"}, "bike_id": "464b0cfc08eb164136da880c8001a833", "fusion_lat": 0.0}, {"lon": -77.02402583333334, "name": "22395a13005fda6d014e98286b5fb9b6", "is_disabled": 0, "type": "electric_scooter", "is_reserved": 0, "fusion_lon": 0.0, "lat": 38.9159995, "rental_uris": {"ios": "https://dc.lft.to/lastmile_qr_scan", "android": "https://dc.lft.to/lastmile_qr_scan"}, "bike_id": "22395a13005fda6d014e98286b5fb9b6", "fusion_lat": 0.0}, {"lon": -77.0322575, "name": "a49b7b153f40690e560324edd08246ff", "is_disabled": 0, "type": "electric_scooter", "is_reserved": 0, "fusion_lon": 0.0, "lat": 38.91612283333333, "rental_uris": {"ios": "https://dc.lft.to/lastmile_qr_scan", "android": "https://dc.lft.to/lastmile_qr_scan"}, "bike_id": "a49b7b153f40690e560324edd08246ff", "fusion_lat": 0.0}, {"lon": -77.002253, "name": "fc15918977e38fee8c3778c918488c93", "is_disabled": 0, "type": "electric_scooter", "is_reserved": 0, "fusion_lon": 0.0, "lat": 38.957389166666665, "rental_uris": {"ios": "https://dc.lft.to/lastmile_qr_scan", "android": "https://dc.lft.to/lastmile_qr_scan"}, "bike_id": "fc15918977e38fee8c3778c918488c93", "fusion_lat": 0.0}, {"lon": -77.05927583333333, "name": "8337fd2e72eb4435b9eceb7822d03106", "is_disabled": 0, "type": "electric_scooter", "is_reserved": 0, "fusion_lon": 0.0, "lat": 38.9430355, "rental_uris": {"ios": "https://dc.lft.to/lastmile_qr_scan", "android": "https://dc.lft.to/lastmile_qr_scan"}, "bike_id": "8337fd2e72eb4435b9eceb7822d03106", "fusion_lat": 0.0}, {"lon": -77.032869, "name": "04e7b79fa426f8cf2a9870884d5a510f", "is_disabled": 0, "type": "electric_scooter", "is_reserved": 0, "fusion_lon": 0.0, "lat": 38.9357805, "rental_uris": {"ios": "https://dc.lft.to/lastmile_qr_scan", "android": "https://dc.lft.to/lastmile_qr_scan"}, "bike_id": "04e7b79fa426f8cf2a9870884d5a510f", "fusion_lat": 0.0}, {"lon": -77.01222316666667, "name": "f130266f63e4dc97b752d4d06beab974", "is_disabled": 0, "type": "electric_scooter", "is_reserved": 0, "fusion_lon": 0.0, "lat": 38.9251135, "rental_uris": {"ios": "https://dc.lft.to/lastmile_qr_scan", "android": "https://dc.lft.to/lastmile_qr_scan"}, "bike_id": "f130266f63e4dc97b752d4d06beab974", "fusion_lat": 0.0}, {"lon": -76.9654115, "name": "a692f332620fb69e024d91482b5e20f2", "is_disabled": 0, "type": "electric_scooter", "is_reserved": 0, "fusion_lon": 0.0, "lat": 38.878848166666664, "rental_uris": {"ios": "https://dc.lft.to/lastmile_qr_scan", "android": "https://dc.lft.to/lastmile_qr_scan"}, "bike_id": "a692f332620fb69e024d91482b5e20f2", "fusion_lat": 0.0}, {"lon": -77.00537183333333, "name": "02df59bd1dfe7564cac72aee35cfa009", "is_disabled": 0, "type": "electric_scooter", "is_reserved": 0, "fusion_lon": 0.0, "lat": 38.87544616666667, "rental_uris": {"ios": "https://dc.lft.to/lastmile_qr_scan", "android": "https://dc.lft.to/lastmile_qr_scan"}, "bike_id": "02df59bd1dfe7564cac72aee35cfa009", "fusion_lat": 0.0}, {"lon": -77.04406783333333, "name": "bcf5ca5e1d682e49ec72650da4fb5279", "is_disabled": 0, "type": "electric_scooter", "is_reserved": 0, "fusion_lon": 0.0, "lat": 38.929529333333335, "rental_uris": {"ios": "https://dc.lft.to/lastmile_qr_scan", "android": "https://dc.lft.to/lastmile_qr_scan"}, "bike_id": "bcf5ca5e1d682e49ec72650da4fb5279", "fusion_lat": 0.0}, {"lon": -77.0206895, "name": "10359304ebc3330b132c3d8b562bee26", "is_disabled": 0, "type": "electric_scooter", "is_reserved": 0, "fusion_lon": 0.0, "lat": 38.89749183333333, "rental_uris": {"ios": "https://dc.lft.to/lastmile_qr_scan", "android": "https://dc.lft.to/lastmile_qr_scan"}, "bike_id": "10359304ebc3330b132c3d8b562bee26", "fusion_lat": 0.0}, {"lon": -77.02811833333334, "name": "02a71df9f3da41a5465a1bb18418689d", "is_disabled": 0, "type": "electric_scooter", "is_reserved": 0, "fusion_lon": 0.0, "lat": 38.922451833333334, "rental_uris": {"ios": "https://dc.lft.to/lastmile_qr_scan", "android": "https://dc.lft.to/lastmile_qr_scan"}, "bike_id": "02a71df9f3da41a5465a1bb18418689d", "fusion_lat": 0.0}, {"lon": -77.03481066666667, "name": "7d44818b24e3da0b2b996f3088342a7d", "is_disabled": 0, "type": "electric_scooter", "is_reserved": 0, "fusion_lon": 0.0, "lat": 38.923478, "rental_uris": {"ios": "https://dc.lft.to/lastmile_qr_scan", "android": "https://dc.lft.to/lastmile_qr_scan"}, "bike_id": "7d44818b24e3da0b2b996f3088342a7d", "fusion_lat": 0.0}, {"lon": -77.023036, "name": "73bddd3459d388dbceb2d3c99a49dcce", "is_disabled": 0, "type": "electric_scooter", "is_reserved": 0, "fusion_lon": 0.0, "lat": 38.920670666666666, "rental_uris": {"ios": "https://dc.lft.to/lastmile_qr_scan", "android": "https://dc.lft.to/lastmile_qr_scan"}, "bike_id": "73bddd3459d388dbceb2d3c99a49dcce", "fusion_lat": 0.0}, {"lon": -77.02577266666667, "name": "05f409c335ec96d5cd9c9cc2140140e0", "is_disabled": 0, "type": "electric_scooter", "is_reserved": 0, "fusion_lon": 0.0, "lat": 38.903419666666665, "rental_uris": {"ios": "https://dc.lft.to/lastmile_qr_scan", "android": "https://dc.lft.to/lastmile_qr_scan"}, "bike_id": "05f409c335ec96d5cd9c9cc2140140e0", "fusion_lat": 0.0}, {"lon": -77.021308, "name": "602c8d0b382a2a3f69e227bfc61c463c", "is_disabled": 0, "type": "electric_scooter", "is_reserved": 0, "fusion_lon": 0.0, "lat": 38.92795383333333, "rental_uris": {"ios": "https://dc.lft.to/lastmile_qr_scan", "android": "https://dc.lft.to/lastmile_qr_scan"}, "bike_id": "602c8d0b382a2a3f69e227bfc61c463c", "fusion_lat": 0.0}, {"lon": -76.99406733333333, "name": "73812c2e89537f07003b95bcdce1f930", "is_disabled": 0, "type": "electric_scooter", "is_reserved": 0, "fusion_lon": 0.0, "lat": 38.877837166666666, "rental_uris": {"ios": "https://dc.lft.to/lastmile_qr_scan", "android": "https://dc.lft.to/lastmile_qr_scan"}, "bike_id": "73812c2e89537f07003b95bcdce1f930", "fusion_lat": 0.0}, {"lon": -77.01228633333334, "name": "be708704a2b804fb1df4ef69498732eb", "is_disabled": 0, "type": "electric_scooter", "is_reserved": 0, "fusion_lon": 0.0, "lat": 38.91596966666667, "rental_uris": {"ios": "https://dc.lft.to/lastmile_qr_scan", "android": "https://dc.lft.to/lastmile_qr_scan"}, "bike_id": "be708704a2b804fb1df4ef69498732eb", "fusion_lat": 0.0}, {"lon": -77.0056825, "name": "2edd17aa426971b8ed3957e101994734", "is_disabled": 0, "type": "electric_scooter", "is_reserved": 0, "fusion_lon": 0.0, "lat": 38.88500416666667, "rental_uris": {"ios": "https://dc.lft.to/lastmile_qr_scan", "android": "https://dc.lft.to/lastmile_qr_scan"}, "bike_id": "2edd17aa426971b8ed3957e101994734", "fusion_lat": 0.0}, {"lon": -77.04004433333333, "name": "3c62d5e0f7a3c2c3cd64ad8a8b6d48ff", "is_disabled": 0, "type": "electric_scooter", "is_reserved": 0, "fusion_lon": 0.0, "lat": 38.93425883333333, "rental_uris": {"ios": "https://dc.lft.to/lastmile_qr_scan", "android": "https://dc.lft.to/lastmile_qr_scan"}, "bike_id": "3c62d5e0f7a3c2c3cd64ad8a8b6d48ff", "fusion_lat": 0.0}, {"lon": -77.02557366666667, "name": "bfb852357495bf07835b18a6ed33cc37", "is_disabled": 0, "type": "electric_scooter", "is_reserved": 0, "fusion_lon": 0.0, "lat": 38.92374016666667, "rental_uris": {"ios": "https://dc.lft.to/lastmile_qr_scan", "android": "https://dc.lft.to/lastmile_qr_scan"}, "bike_id": "bfb852357495bf07835b18a6ed33cc37", "fusion_lat": 0.0}, {"lon": -77.042835, "name": "dd283a6fc5041115d62b7c681ca5d51f", "is_disabled": 0, "type": "electric_bike", "is_reserved": 0, "fusion_lon": 0.0, "lat": 38.89361066666667, "rental_uris": {"ios": "https://dc.lft.to/lastmile_qr_scan", "android": "https://dc.lft.to/lastmile_qr_scan"}, "bike_id": "dd283a6fc5041115d62b7c681ca5d51f", "fusion_lat": 0.0}, {"lon": -77.0497825, "name": "de85a507fd82b9c249ec2ab131f04330", "is_disabled": 0, "type": "electric_scooter", "is_reserved": 0, "fusion_lon": 0.0, "lat": 38.918158166666664, "rental_uris": {"ios": "https://dc.lft.to/lastmile_qr_scan", "android": "https://dc.lft.to/lastmile_qr_scan"}, "bike_id": "de85a507fd82b9c249ec2ab131f04330", "fusion_lat": 0.0}, {"lon": -77.038802, "name": "5303cd2a1a98f5502a918577577389f7", "is_disabled": 0, "type": "electric_bike", "is_reserved": 0, "fusion_lon": 0.0, "lat": 39.0262215, "rental_uris": {"ios": "https://dc.lft.to/lastmile_qr_scan", "android": "https://dc.lft.to/lastmile_qr_scan"}, "bike_id": "5303cd2a1a98f5502a918577577389f7", "fusion_lat": 0.0}, {"lon": -76.989827, "name": "7034a86c4f2cacb61cc39e5a4de3cd5d", "is_disabled": 0, "type": "electric_bike", "is_reserved": 0, "fusion_lon": 0.0, "lat": 38.860040833333336, "rental_uris": {"ios": "https://dc.lft.to/lastmile_qr_scan", "android": "https://dc.lft.to/lastmile_qr_scan"}, "bike_id": "7034a86c4f2cacb61cc39e5a4de3cd5d", "fusion_lat": 0.0}, {"lon": -77.03760666666666, "name": "e0b33faa1712f2e24bb87b8e49196533", "is_disabled": 0, "type": "electric_scooter", "is_reserved": 0, "fusion_lon": 0.0, "lat": 38.92919766666667, "rental_uris": {"ios": "https://dc.lft.to/lastmile_qr_scan", "android": "https://dc.lft.to/lastmile_qr_scan"}, "bike_id": "e0b33faa1712f2e24bb87b8e49196533", "fusion_lat": 0.0}, {"lon": -77.033705, "name": "5d0ff4e4af222f29bd1bfe0aea683214", "is_disabled": 0, "type": "electric_scooter", "is_reserved": 0, "fusion_lon": 0.0, "lat": 38.90110033333333, "rental_uris": {"ios": "https://dc.lft.to/lastmile_qr_scan", "android": "https://dc.lft.to/lastmile_qr_scan"}, "bike_id": "5d0ff4e4af222f29bd1bfe0aea683214", "fusion_lat": 0.0}, {"lon": -76.93871066666667, "name": "0ad60c08923f82338443e60da034a076", "is_disabled": 0, "type": "electric_bike", "is_reserved": 0, "fusion_lon": 0.0, "lat": 38.956344333333334, "rental_uris": {"ios": "https://dc.lft.to/lastmile_qr_scan", "android": "https://dc.lft.to/lastmile_qr_scan"}, "bike_id": "0ad60c08923f82338443e60da034a076", "fusion_lat": 0.0}, {"lon": -77.12739066666667, "name": "c824853579c1978b2132638dd272c962", "is_disabled": 0, "type": "electric_bike", "is_reserved": 0, "fusion_lon": 0.0, "lat": 38.895631, "rental_uris": {"ios": "https://dc.lft.to/lastmile_qr_scan", "android": "https://dc.lft.to/lastmile_qr_scan"}, "bike_id": "c824853579c1978b2132638dd272c962", "fusion_lat": 0.0}, {"lon": -76.94577983333333, "name": "bafcbeed0e1d254b79393c3742f54eb6", "is_disabled": 0, "type": "electric_scooter", "is_reserved": 0, "fusion_lon": 0.0, "lat": 38.899242, "rental_uris": {"ios": "https://dc.lft.to/lastmile_qr_scan", "android": "https://dc.lft.to/lastmile_qr_scan"}, "bike_id": "bafcbeed0e1d254b79393c3742f54eb6", "fusion_lat": 0.0}, {"lon": -77.019179, "name": "d5c6fe16350033df01dd93c753a6e6ad", "is_disabled": 0, "type": "electric_scooter", "is_reserved": 0, "fusion_lon": 0.0, "lat": 38.89732466666667, "rental_uris": {"ios": "https://dc.lft.to/lastmile_qr_scan", "android": "https://dc.lft.to/lastmile_qr_scan"}, "bike_id": "d5c6fe16350033df01dd93c753a6e6ad", "fusion_lat": 0.0}, {"lon": -77.024075, "name": "7b201bf8620c00ee36993ba05673918e", "is_disabled": 0, "type": "electric_scooter", "is_reserved": 0, "fusion_lon": 0.0, "lat": 38.917634666666665, "rental_uris": {"ios": "https://dc.lft.to/lastmile_qr_scan", "android": "https://dc.lft.to/lastmile_qr_scan"}, "bike_id": "7b201bf8620c00ee36993ba05673918e", "fusion_lat": 0.0}, {"lon": -77.043366, "name": "a4718d84d723e00d24f63681abb9a5cd", "is_disabled": 0, "type": "electric_scooter", "is_reserved": 0, "fusion_lon": 0.0, "lat": 38.90537966666667, "rental_uris": {"ios": "https://dc.lft.to/lastmile_qr_scan", "android": "https://dc.lft.to/lastmile_qr_scan"}, "bike_id": "a4718d84d723e00d24f63681abb9a5cd", "fusion_lat": 0.0}, {"lon": -77.01315516666666, "name": "f8b8d13c2ed8b0278ce9390e8bae5d28", "is_disabled": 0, "type": "electric_scooter", "is_reserved": 0, "fusion_lon": 0.0, "lat": 38.900856166666664, "rental_uris": {"ios": "https://dc.lft.to/lastmile_qr_scan", "android": "https://dc.lft.to/lastmile_qr_scan"}, "bike_id": "f8b8d13c2ed8b0278ce9390e8bae5d28", "fusion_lat": 0.0}, {"lon": -77.03761266666666, "name": "4d2331f21708626e591ac7e28d505408", "is_disabled": 0, "type": "electric_scooter", "is_reserved": 0, "fusion_lon": 0.0, "lat": 38.903689666666665, "rental_uris": {"ios": "https://dc.lft.to/lastmile_qr_scan", "android": "https://dc.lft.to/lastmile_qr_scan"}, "bike_id": "4d2331f21708626e591ac7e28d505408", "fusion_lat": 0.0}, {"lon": -77.02876116666667, "name": "a2a23d116859a29140809df1260562f9", "is_disabled": 0, "type": "electric_bike", "is_reserved": 0, "fusion_lon": 0.0, "lat": 38.90243183333333, "rental_uris": {"ios": "https://dc.lft.to/lastmile_qr_scan", "android": "https://dc.lft.to/lastmile_qr_scan"}, "bike_id": "a2a23d116859a29140809df1260562f9", "fusion_lat": 0.0}, {"lon": -76.993027, "name": "53ce72d79a1372826c53bda8362f6363", "is_disabled": 0, "type": "electric_scooter", "is_reserved": 0, "fusion_lon": 0.0, "lat": 38.937709, "rental_uris": {"ios": "https://dc.lft.to/lastmile_qr_scan", "android": "https://dc.lft.to/lastmile_qr_scan"}, "bike_id": "53ce72d79a1372826c53bda8362f6363", "fusion_lat": 0.0}, {"lon": -77.00669016666667, "name": "afd48bf06cbe17b2bc218f38d21ae285", "is_disabled": 0, "type": "electric_bike", "is_reserved": 0, "fusion_lon": 0.0, "lat": 38.945152666666665, "rental_uris": {"ios": "https://dc.lft.to/lastmile_qr_scan", "android": "https://dc.lft.to/lastmile_qr_scan"}, "bike_id": "afd48bf06cbe17b2bc218f38d21ae285", "fusion_lat": 0.0}, {"lon": -76.99787416666666, "name": "f75959cf09ce1474a3a23764f05d1ad9", "is_disabled": 0, "type": "electric_scooter", "is_reserved": 0, "fusion_lon": 0.0, "lat": 38.9323415, "rental_uris": {"ios": "https://dc.lft.to/lastmile_qr_scan", "android": "https://dc.lft.to/lastmile_qr_scan"}, "bike_id": "f75959cf09ce1474a3a23764f05d1ad9", "fusion_lat": 0.0}, {"lon": -77.07904683333334, "name": "e6ecc75eae7e95977501a0da5aae7eba", "is_disabled": 0, "type": "electric_bike", "is_reserved": 0, "fusion_lon": 0.0, "lat": 38.83933, "rental_uris": {"ios": "https://dc.lft.to/lastmile_qr_scan", "android": "https://dc.lft.to/lastmile_qr_scan"}, "bike_id": "e6ecc75eae7e95977501a0da5aae7eba", "fusion_lat": 0.0}, {"lon": -77.04357083333333, "name": "6715e45b64f4c417c7b131a76b7a01c6", "is_disabled": 0, "type": "electric_scooter", "is_reserved": 0, "fusion_lon": 0.0, "lat": 38.897005, "rental_uris": {"ios": "https://dc.lft.to/lastmile_qr_scan", "android": "https://dc.lft.to/lastmile_qr_scan"}, "bike_id": "6715e45b64f4c417c7b131a76b7a01c6", "fusion_lat": 0.0}, {"lon": -76.98476266666667, "name": "d4743b4544ab0f5b9d9f4a60ff5cb0ad", "is_disabled": 0, "type": "electric_bike", "is_reserved": 0, "fusion_lon": 0.0, "lat": 38.91271066666667, "rental_uris": {"ios": "https://dc.lft.to/lastmile_qr_scan", "android": "https://dc.lft.to/lastmile_qr_scan"}, "bike_id": "d4743b4544ab0f5b9d9f4a60ff5cb0ad", "fusion_lat": 0.0}, {"lon": -76.9339285, "name": "d8f2b58b6519fe73e5a891b8c6333188", "is_disabled": 0, "type": "electric_scooter", "is_reserved": 0, "fusion_lon": 0.0, "lat": 38.899126, "rental_uris": {"ios": "https://dc.lft.to/lastmile_qr_scan", "android": "https://dc.lft.to/lastmile_qr_scan"}, "bike_id": "d8f2b58b6519fe73e5a891b8c6333188", "fusion_lat": 0.0}, {"lon": -77.042383, "name": "6de53e10677fcb50ed02135b68d04511", "is_disabled": 0, "type": "electric_scooter", "is_reserved": 0, "fusion_lon": 0.0, "lat": 38.921555166666664, "rental_uris": {"ios": "https://dc.lft.to/lastmile_qr_scan", "android": "https://dc.lft.to/lastmile_qr_scan"}, "bike_id": "6de53e10677fcb50ed02135b68d04511", "fusion_lat": 0.0}, {"lon": -77.03207066666667, "name": "2b07972b47a095ce9deca9d6ef1b862e", "is_disabled": 0, "type": "electric_scooter", "is_reserved": 0, "fusion_lon": 0.0, "lat": 38.915379, "rental_uris": {"ios": "https://dc.lft.to/lastmile_qr_scan", "android": "https://dc.lft.to/lastmile_qr_scan"}, "bike_id": "2b07972b47a095ce9deca9d6ef1b862e", "fusion_lat": 0.0}, {"lon": -77.03358533333333, "name": "c0cbb9082263247ee9b4a175a18b3cfd", "is_disabled": 0, "type": "electric_scooter", "is_reserved": 0, "fusion_lon": 0.0, "lat": 38.92752683333333, "rental_uris": {"ios": "https://dc.lft.to/lastmile_qr_scan", "android": "https://dc.lft.to/lastmile_qr_scan"}, "bike_id": "c0cbb9082263247ee9b4a175a18b3cfd", "fusion_lat": 0.0}, {"lon": -77.04166233333333, "name": "7c6aceac8e392b6cd711fc41261cb548", "is_disabled": 0, "type": "electric_scooter", "is_reserved": 0, "fusion_lon": 0.0, "lat": 38.899311833333336, "rental_uris": {"ios": "https://dc.lft.to/lastmile_qr_scan", "android": "https://dc.lft.to/lastmile_qr_scan"}, "bike_id": "7c6aceac8e392b6cd711fc41261cb548", "fusion_lat": 0.0}, {"lon": -77.02168333333333, "name": "4c2494bd3e83efdbcf058b5270bfc670", "is_disabled": 0, "type": "electric_scooter", "is_reserved": 0, "fusion_lon": 0.0, "lat": 38.914076, "rental_uris": {"ios": "https://dc.lft.to/lastmile_qr_scan", "android": "https://dc.lft.to/lastmile_qr_scan"}, "bike_id": "4c2494bd3e83efdbcf058b5270bfc670", "fusion_lat": 0.0}, {"lon": -77.02204683333333, "name": "9e414f4d8308d8d9db7d9fa7082ef1c8", "is_disabled": 0, "type": "electric_scooter", "is_reserved": 0, "fusion_lon": 0.0, "lat": 38.896242666666666, "rental_uris": {"ios": "https://dc.lft.to/lastmile_qr_scan", "android": "https://dc.lft.to/lastmile_qr_scan"}, "bike_id": "9e414f4d8308d8d9db7d9fa7082ef1c8", "fusion_lat": 0.0}, {"lon": -77.067842, "name": "47865de1f9f11378c3e26148ee7bbdc9", "is_disabled": 0, "type": "electric_scooter", "is_reserved": 0, "fusion_lon": 0.0, "lat": 38.95206833333334, "rental_uris": {"ios": "https://dc.lft.to/lastmile_qr_scan", "android": "https://dc.lft.to/lastmile_qr_scan"}, "bike_id": "47865de1f9f11378c3e26148ee7bbdc9", "fusion_lat": 0.0}, {"lon": -77.02658233333334, "name": "a7e959eb30e24e5f5ec3aa85dcceb880", "is_disabled": 0, "type": "electric_scooter", "is_reserved": 0, "fusion_lon": 0.0, "lat": 38.923819, "rental_uris": {"ios": "https://dc.lft.to/lastmile_qr_scan", "android": "https://dc.lft.to/lastmile_qr_scan"}, "bike_id": "a7e959eb30e24e5f5ec3aa85dcceb880", "fusion_lat": 0.0}, {"lon": -77.06515233333333, "name": "4e8e6b933386808dceb43ccf411f029e", "is_disabled": 0, "type": "electric_scooter", "is_reserved": 0, "fusion_lon": 0.0, "lat": 38.904021, "rental_uris": {"ios": "https://dc.lft.to/lastmile_qr_scan", "android": "https://dc.lft.to/lastmile_qr_scan"}, "bike_id": "4e8e6b933386808dceb43ccf411f029e", "fusion_lat": 0.0}, {"lon": -77.03345633333333, "name": "f82da7d2225726a499b4fd6698596ab2", "is_disabled": 0, "type": "electric_scooter", "is_reserved": 0, "fusion_lon": 0.0, "lat": 38.88480583333333, "rental_uris": {"ios": "https://dc.lft.to/lastmile_qr_scan", "android": "https://dc.lft.to/lastmile_qr_scan"}, "bike_id": "f82da7d2225726a499b4fd6698596ab2", "fusion_lat": 0.0}, {"lon": -77.00216583333334, "name": "303262fa71867a0af227fe761dacc223", "is_disabled": 0, "type": "electric_scooter", "is_reserved": 0, "fusion_lon": 0.0, "lat": 38.895252666666664, "rental_uris": {"ios": "https://dc.lft.to/lastmile_qr_scan", "android": "https://dc.lft.to/lastmile_qr_scan"}, "bike_id": "303262fa71867a0af227fe761dacc223", "fusion_lat": 0.0}, {"lon": -77.01696033333333, "name": "774ff1a1a9b6e9f4ed0450c92f4b8b82", "is_disabled": 0, "type": "electric_scooter", "is_reserved": 0, "fusion_lon": 0.0, "lat": 38.9203655, "rental_uris": {"ios": "https://dc.lft.to/lastmile_qr_scan", "android": "https://dc.lft.to/lastmile_qr_scan"}, "bike_id": "774ff1a1a9b6e9f4ed0450c92f4b8b82", "fusion_lat": 0.0}, {"lon": -77.047301, "name": "a9e87572277e74b7df0d9300c95f0f4a", "is_disabled": 0, "type": "electric_scooter", "is_reserved": 0, "fusion_lon": 0.0, "lat": 38.90051416666667, "rental_uris": {"ios": "https://dc.lft.to/lastmile_qr_scan", "android": "https://dc.lft.to/lastmile_qr_scan"}, "bike_id": "a9e87572277e74b7df0d9300c95f0f4a", "fusion_lat": 0.0}, {"lon": -77.03379066666666, "name": "f40b6b3ad364214e6433ec1418d17d49", "is_disabled": 0, "type": "electric_scooter", "is_reserved": 0, "fusion_lon": 0.0, "lat": 38.9215795, "rental_uris": {"ios": "https://dc.lft.to/lastmile_qr_scan", "android": "https://dc.lft.to/lastmile_qr_scan"}, "bike_id": "f40b6b3ad364214e6433ec1418d17d49", "fusion_lat": 0.0}, {"lon": -76.99293666666667, "name": "e84de0e5c3acb962308ec45a79e0ddef", "is_disabled": 0, "type": "electric_scooter", "is_reserved": 0, "fusion_lon": 0.0, "lat": 38.9041075, "rental_uris": {"ios": "https://dc.lft.to/lastmile_qr_scan", "android": "https://dc.lft.to/lastmile_qr_scan"}, "bike_id": "e84de0e5c3acb962308ec45a79e0ddef", "fusion_lat": 0.0}, {"lon": -77.0464295, "name": "8f3ddfb1f3f553020444ed234f0f849f", "is_disabled": 0, "type": "electric_scooter", "is_reserved": 0, "fusion_lon": 0.0, "lat": 38.91434666666667, "rental_uris": {"ios": "https://dc.lft.to/lastmile_qr_scan", "android": "https://dc.lft.to/lastmile_qr_scan"}, "bike_id": "8f3ddfb1f3f553020444ed234f0f849f", "fusion_lat": 0.0}, {"lon": -77.0127045, "name": "9d2377dd0a6e0012bdb2000559ce78ab", "is_disabled": 0, "type": "electric_scooter", "is_reserved": 0, "fusion_lon": 0.0, "lat": 38.915396333333334, "rental_uris": {"ios": "https://dc.lft.to/lastmile_qr_scan", "android": "https://dc.lft.to/lastmile_qr_scan"}, "bike_id": "9d2377dd0a6e0012bdb2000559ce78ab", "fusion_lat": 0.0}, {"lon": -77.02854866666667, "name": "ef0fa843f36fd36dda3ad5dd30b40086", "is_disabled": 0, "type": "electric_scooter", "is_reserved": 0, "fusion_lon": 0.0, "lat": 38.88876616666667, "rental_uris": {"ios": "https://dc.lft.to/lastmile_qr_scan", "android": "https://dc.lft.to/lastmile_qr_scan"}, "bike_id": "ef0fa843f36fd36dda3ad5dd30b40086", "fusion_lat": 0.0}, {"lon": -77.00363266666666, "name": "6f0926424739fa6e7bd7270fdaa467b9", "is_disabled": 0, "type": "electric_scooter", "is_reserved": 0, "fusion_lon": 0.0, "lat": 38.905806166666665, "rental_uris": {"ios": "https://dc.lft.to/lastmile_qr_scan", "android": "https://dc.lft.to/lastmile_qr_scan"}, "bike_id": "6f0926424739fa6e7bd7270fdaa467b9", "fusion_lat": 0.0}, {"lon": -77.038335, "name": "f3ffbe6944cdb0bf8b73ab088363b4a7", "is_disabled": 0, "type": "electric_scooter", "is_reserved": 0, "fusion_lon": 0.0, "lat": 38.90412333333333, "rental_uris": {"ios": "https://dc.lft.to/lastmile_qr_scan", "android": "https://dc.lft.to/lastmile_qr_scan"}, "bike_id": "f3ffbe6944cdb0bf8b73ab088363b4a7", "fusion_lat": 0.0}, {"lon": -77.0234345, "name": "6fb5933a8851a6ddf65d11deaf05b2b3", "is_disabled": 0, "type": "electric_scooter", "is_reserved": 0, "fusion_lon": 0.0, "lat": 38.9449315, "rental_uris": {"ios": "https://dc.lft.to/lastmile_qr_scan", "android": "https://dc.lft.to/lastmile_qr_scan"}, "bike_id": "6fb5933a8851a6ddf65d11deaf05b2b3", "fusion_lat": 0.0}, {"lon": -77.0365275, "name": "f12e279f61409054f2e79664c20862ac", "is_disabled": 0, "type": "electric_scooter", "is_reserved": 0, "fusion_lon": 0.0, "lat": 38.903005, "rental_uris": {"ios": "https://dc.lft.to/lastmile_qr_scan", "android": "https://dc.lft.to/lastmile_qr_scan"}, "bike_id": "f12e279f61409054f2e79664c20862ac", "fusion_lat": 0.0}, {"lon": -77.02614516666667, "name": "5ffb6e7f7a4c3de5ccfc77372477188b", "is_disabled": 0, "type": "electric_scooter", "is_reserved": 0, "fusion_lon": 0.0, "lat": 38.89868966666667, "rental_uris": {"ios": "https://dc.lft.to/lastmile_qr_scan", "android": "https://dc.lft.to/lastmile_qr_scan"}, "bike_id": "5ffb6e7f7a4c3de5ccfc77372477188b", "fusion_lat": 0.0}, {"lon": -77.02214883333333, "name": "984af0822042bfb58f5edcb71262d80e", "is_disabled": 0, "type": "electric_scooter", "is_reserved": 0, "fusion_lon": 0.0, "lat": 38.92476833333333, "rental_uris": {"ios": "https://dc.lft.to/lastmile_qr_scan", "android": "https://dc.lft.to/lastmile_qr_scan"}, "bike_id": "984af0822042bfb58f5edcb71262d80e", "fusion_lat": 0.0}, {"lon": -77.00392016666666, "name": "6ab5bc218fdb5978a59c889f44cd646c", "is_disabled": 0, "type": "electric_scooter", "is_reserved": 0, "fusion_lon": 0.0, "lat": 38.90558766666667, "rental_uris": {"ios": "https://dc.lft.to/lastmile_qr_scan", "android": "https://dc.lft.to/lastmile_qr_scan"}, "bike_id": "6ab5bc218fdb5978a59c889f44cd646c", "fusion_lat": 0.0}, {"lon": -77.03169816666667, "name": "4c4dff962dea749b094d386edc9f8ca6", "is_disabled": 0, "type": "electric_scooter", "is_reserved": 0, "fusion_lon": 0.0, "lat": 38.915617166666664, "rental_uris": {"ios": "https://dc.lft.to/lastmile_qr_scan", "android": "https://dc.lft.to/lastmile_qr_scan"}, "bike_id": "4c4dff962dea749b094d386edc9f8ca6", "fusion_lat": 0.0}, {"lon": -77.02610683333333, "name": "76f25852ee093cb01ff81c9e357fa7ec", "is_disabled": 0, "type": "electric_scooter", "is_reserved": 0, "fusion_lon": 0.0, "lat": 38.90601916666667, "rental_uris": {"ios": "https://dc.lft.to/lastmile_qr_scan", "android": "https://dc.lft.to/lastmile_qr_scan"}, "bike_id": "76f25852ee093cb01ff81c9e357fa7ec", "fusion_lat": 0.0}, {"lon": -77.037075, "name": "565bd2869d96a274205c25666a992bac", "is_disabled": 0, "type": "electric_scooter", "is_reserved": 0, "fusion_lon": 0.0, "lat": 38.9264255, "rental_uris": {"ios": "https://dc.lft.to/lastmile_qr_scan", "android": "https://dc.lft.to/lastmile_qr_scan"}, "bike_id": "565bd2869d96a274205c25666a992bac", "fusion_lat": 0.0}, {"lon": -77.025181, "name": "695f3a1bc1d037840be1984828b75f66", "is_disabled": 0, "type": "electric_scooter", "is_reserved": 0, "fusion_lon": 0.0, "lat": 38.9209985, "rental_uris": {"ios": "https://dc.lft.to/lastmile_qr_scan", "android": "https://dc.lft.to/lastmile_qr_scan"}, "bike_id": "695f3a1bc1d037840be1984828b75f66", "fusion_lat": 0.0}, {"lon": -76.997912, "name": "f24e23d7f24dad682a5cb89f8cdcec2e", "is_disabled": 0, "type": "electric_scooter", "is_reserved": 0, "fusion_lon": 0.0, "lat": 38.879996166666665, "rental_uris": {"ios": "https://dc.lft.to/lastmile_qr_scan", "android": "https://dc.lft.to/lastmile_qr_scan"}, "bike_id": "f24e23d7f24dad682a5cb89f8cdcec2e", "fusion_lat": 0.0}, {"lon": -77.02205416666666, "name": "2d1c3a21dcb8ba65e6343816713b5229", "is_disabled": 0, "type": "electric_scooter", "is_reserved": 0, "fusion_lon": 0.0, "lat": 38.886153666666665, "rental_uris": {"ios": "https://dc.lft.to/lastmile_qr_scan", "android": "https://dc.lft.to/lastmile_qr_scan"}, "bike_id": "2d1c3a21dcb8ba65e6343816713b5229", "fusion_lat": 0.0}, {"lon": -76.98371066666667, "name": "1fb95dd3fc9371a4cf1624099b358e93", "is_disabled": 0, "type": "electric_scooter", "is_reserved": 0, "fusion_lon": 0.0, "lat": 38.89271516666667, "rental_uris": {"ios": "https://dc.lft.to/lastmile_qr_scan", "android": "https://dc.lft.to/lastmile_qr_scan"}, "bike_id": "1fb95dd3fc9371a4cf1624099b358e93", "fusion_lat": 0.0}, {"lon": -77.0350415, "name": "fb4c74f3f4effb01c2b9280c357069cb", "is_disabled": 0, "type": "electric_scooter", "is_reserved": 0, "fusion_lon": 0.0, "lat": 38.916278166666665, "rental_uris": {"ios": "https://dc.lft.to/lastmile_qr_scan", "android": "https://dc.lft.to/lastmile_qr_scan"}, "bike_id": "fb4c74f3f4effb01c2b9280c357069cb", "fusion_lat": 0.0}, {"lon": -77.02938666666667, "name": "7a19ce3de4e3614d0b65daa68e17a939", "is_disabled": 0, "type": "electric_scooter", "is_reserved": 0, "fusion_lon": 0.0, "lat": 38.93969516666667, "rental_uris": {"ios": "https://dc.lft.to/lastmile_qr_scan", "android": "https://dc.lft.to/lastmile_qr_scan"}, "bike_id": "7a19ce3de4e3614d0b65daa68e17a939", "fusion_lat": 0.0}, {"lon": -77.003297, "name": "98c417392442f486ea5bb15e11cabbdf", "is_disabled": 0, "type": "electric_scooter", "is_reserved": 0, "fusion_lon": 0.0, "lat": 38.89356866666667, "rental_uris": {"ios": "https://dc.lft.to/lastmile_qr_scan", "android": "https://dc.lft.to/lastmile_qr_scan"}, "bike_id": "98c417392442f486ea5bb15e11cabbdf", "fusion_lat": 0.0}, {"lon": -77.03207183333333, "name": "b11b2f69a30214bee2002a78cae23dd8", "is_disabled": 0, "type": "electric_scooter", "is_reserved": 0, "fusion_lon": 0.0, "lat": 38.91607166666667, "rental_uris": {"ios": "https://dc.lft.to/lastmile_qr_scan", "android": "https://dc.lft.to/lastmile_qr_scan"}, "bike_id": "b11b2f69a30214bee2002a78cae23dd8", "fusion_lat": 0.0}, {"lon": -77.00509733333334, "name": "eb75d996e3ecf5c7c670d92fd25f00b0", "is_disabled": 0, "type": "electric_bike", "is_reserved": 0, "fusion_lon": 0.0, "lat": 38.909580166666665, "rental_uris": {"ios": "https://dc.lft.to/lastmile_qr_scan", "android": "https://dc.lft.to/lastmile_qr_scan"}, "bike_id": "eb75d996e3ecf5c7c670d92fd25f00b0", "fusion_lat": 0.0}, {"lon": -77.02581366666666, "name": "ac1374ef270650a14b2f5e9c1d9623a5", "is_disabled": 0, "type": "electric_scooter", "is_reserved": 0, "fusion_lon": 0.0, "lat": 38.909562, "rental_uris": {"ios": "https://dc.lft.to/lastmile_qr_scan", "android": "https://dc.lft.to/lastmile_qr_scan"}, "bike_id": "ac1374ef270650a14b2f5e9c1d9623a5", "fusion_lat": 0.0}, {"lon": -77.0366465, "name": "1d8d83ed04275c4f51b9943cff9d275f", "is_disabled": 0, "type": "electric_scooter", "is_reserved": 0, "fusion_lon": 0.0, "lat": 38.9317835, "rental_uris": {"ios": "https://dc.lft.to/lastmile_qr_scan", "android": "https://dc.lft.to/lastmile_qr_scan"}, "bike_id": "1d8d83ed04275c4f51b9943cff9d275f", "fusion_lat": 0.0}, {"lon": -77.046542, "name": "423e7c6c0e99f0145531d9e26de77a72", "is_disabled": 0, "type": "electric_scooter", "is_reserved": 0, "fusion_lon": 0.0, "lat": 38.89732433333333, "rental_uris": {"ios": "https://dc.lft.to/lastmile_qr_scan", "android": "https://dc.lft.to/lastmile_qr_scan"}, "bike_id": "423e7c6c0e99f0145531d9e26de77a72", "fusion_lat": 0.0}, {"lon": -77.02117733333333, "name": "d90285c66e2b478e2fd06255e2eb27e5", "is_disabled": 0, "type": "electric_scooter", "is_reserved": 0, "fusion_lon": 0.0, "lat": 38.917511166666664, "rental_uris": {"ios": "https://dc.lft.to/lastmile_qr_scan", "android": "https://dc.lft.to/lastmile_qr_scan"}, "bike_id": "d90285c66e2b478e2fd06255e2eb27e5", "fusion_lat": 0.0}, {"lon": -77.06461333333333, "name": "02528ec1c75e70a5d4f0a34c9ea90baa", "is_disabled": 0, "type": "electric_scooter", "is_reserved": 0, "fusion_lon": 0.0, "lat": 38.91045966666667, "rental_uris": {"ios": "https://dc.lft.to/lastmile_qr_scan", "android": "https://dc.lft.to/lastmile_qr_scan"}, "bike_id": "02528ec1c75e70a5d4f0a34c9ea90baa", "fusion_lat": 0.0}, {"lon": -77.0259525, "name": "d1bebf6e6ed6215cf887786bf66b01cd", "is_disabled": 0, "type": "electric_scooter", "is_reserved": 0, "fusion_lon": 0.0, "lat": 38.9209345, "rental_uris": {"ios": "https://dc.lft.to/lastmile_qr_scan", "android": "https://dc.lft.to/lastmile_qr_scan"}, "bike_id": "d1bebf6e6ed6215cf887786bf66b01cd", "fusion_lat": 0.0}, {"lon": -76.99861083333333, "name": "aba1d1becac5816b604c4a90fad1f9ee", "is_disabled": 0, "type": "electric_scooter", "is_reserved": 0, "fusion_lon": 0.0, "lat": 38.90258566666667, "rental_uris": {"ios": "https://dc.lft.to/lastmile_qr_scan", "android": "https://dc.lft.to/lastmile_qr_scan"}, "bike_id": "aba1d1becac5816b604c4a90fad1f9ee", "fusion_lat": 0.0}, {"lon": -77.003662, "name": "5fe59c9c28bbc2e7cbbf974420f5477a", "is_disabled": 0, "type": "electric_scooter", "is_reserved": 0, "fusion_lon": 0.0, "lat": 38.90770216666667, "rental_uris": {"ios": "https://dc.lft.to/lastmile_qr_scan", "android": "https://dc.lft.to/lastmile_qr_scan"}, "bike_id": "5fe59c9c28bbc2e7cbbf974420f5477a", "fusion_lat": 0.0}, {"lon": -77.020713, "name": "08b252b8ee5eadef52dd99d1c01831ba", "is_disabled": 0, "type": "electric_scooter", "is_reserved": 0, "fusion_lon": 0.0, "lat": 38.952565666666665, "rental_uris": {"ios": "https://dc.lft.to/lastmile_qr_scan", "android": "https://dc.lft.to/lastmile_qr_scan"}, "bike_id": "08b252b8ee5eadef52dd99d1c01831ba", "fusion_lat": 0.0}, {"lon": -77.01784666666667, "name": "9f7dcab19e2e3c935d7aa203b1fd0201", "is_disabled": 0, "type": "electric_scooter", "is_reserved": 0, "fusion_lon": 0.0, "lat": 38.893127, "rental_uris": {"ios": "https://dc.lft.to/lastmile_qr_scan", "android": "https://dc.lft.to/lastmile_qr_scan"}, "bike_id": "9f7dcab19e2e3c935d7aa203b1fd0201", "fusion_lat": 0.0}, {"lon": -77.04176283333334, "name": "3a30af09eff96883ee687b8d0999ec03", "is_disabled": 0, "type": "electric_scooter", "is_reserved": 0, "fusion_lon": 0.0, "lat": 38.91703483333333, "rental_uris": {"ios": "https://dc.lft.to/lastmile_qr_scan", "android": "https://dc.lft.to/lastmile_qr_scan"}, "bike_id": "3a30af09eff96883ee687b8d0999ec03", "fusion_lat": 0.0}, {"lon": -77.04878583333333, "name": "180b52b69253970e81cf1ef01042f60a", "is_disabled": 0, "type": "electric_scooter", "is_reserved": 0, "fusion_lon": 0.0, "lat": 38.901168, "rental_uris": {"ios": "https://dc.lft.to/lastmile_qr_scan", "android": "https://dc.lft.to/lastmile_qr_scan"}, "bike_id": "180b52b69253970e81cf1ef01042f60a", "fusion_lat": 0.0}, {"lon": -77.005757, "name": "0fddb00d698829bc19bcea9b95729a83", "is_disabled": 0, "type": "electric_scooter", "is_reserved": 0, "fusion_lon": 0.0, "lat": 38.906377666666664, "rental_uris": {"ios": "https://dc.lft.to/lastmile_qr_scan", "android": "https://dc.lft.to/lastmile_qr_scan"}, "bike_id": "0fddb00d698829bc19bcea9b95729a83", "fusion_lat": 0.0}, {"lon": -77.1288615, "name": "5aaf4928194df981a584959db38b778e", "is_disabled": 0, "type": "electric_bike", "is_reserved": 0, "fusion_lon": 0.0, "lat": 38.90605333333333, "rental_uris": {"ios": "https://dc.lft.to/lastmile_qr_scan", "android": "https://dc.lft.to/lastmile_qr_scan"}, "bike_id": "5aaf4928194df981a584959db38b778e", "fusion_lat": 0.0}, {"lon": -77.032476, "name": "826302198b4e07b392cfcfd9679c6c96", "is_disabled": 0, "type": "electric_scooter", "is_reserved": 0, "fusion_lon": 0.0, "lat": 38.9210565, "rental_uris": {"ios": "https://dc.lft.to/lastmile_qr_scan", "android": "https://dc.lft.to/lastmile_qr_scan"}, "bike_id": "826302198b4e07b392cfcfd9679c6c96", "fusion_lat": 0.0}, {"lon": -77.03464916666667, "name": "d2f497bcf062300d4ff9d694c19deb5d", "is_disabled": 0, "type": "electric_scooter", "is_reserved": 0, "fusion_lon": 0.0, "lat": 38.929801166666664, "rental_uris": {"ios": "https://dc.lft.to/lastmile_qr_scan", "android": "https://dc.lft.to/lastmile_qr_scan"}, "bike_id": "d2f497bcf062300d4ff9d694c19deb5d", "fusion_lat": 0.0}, {"lon": -77.00136433333333, "name": "21d1adfe4f3e01310671e78221986874", "is_disabled": 0, "type": "electric_scooter", "is_reserved": 0, "fusion_lon": 0.0, "lat": 38.873814833333334, "rental_uris": {"ios": "https://dc.lft.to/lastmile_qr_scan", "android": "https://dc.lft.to/lastmile_qr_scan"}, "bike_id": "21d1adfe4f3e01310671e78221986874", "fusion_lat": 0.0}, {"lon": -77.03638683333334, "name": "561996617c32c3431e7ebcd68f62cb53", "is_disabled": 0, "type": "electric_scooter", "is_reserved": 0, "fusion_lon": 0.0, "lat": 38.923544166666666, "rental_uris": {"ios": "https://dc.lft.to/lastmile_qr_scan", "android": "https://dc.lft.to/lastmile_qr_scan"}, "bike_id": "561996617c32c3431e7ebcd68f62cb53", "fusion_lat": 0.0}, {"lon": -76.97681616666667, "name": "af5faf51ecba64bb770c65515f62d0a5", "is_disabled": 0, "type": "electric_scooter", "is_reserved": 0, "fusion_lon": 0.0, "lat": 38.90089283333333, "rental_uris": {"ios": "https://dc.lft.to/lastmile_qr_scan", "android": "https://dc.lft.to/lastmile_qr_scan"}, "bike_id": "af5faf51ecba64bb770c65515f62d0a5", "fusion_lat": 0.0}, {"lon": -77.01213583333333, "name": "cc937476ce590988ca826a2f745773a7", "is_disabled": 0, "type": "electric_scooter", "is_reserved": 0, "fusion_lon": 0.0, "lat": 38.87086266666667, "rental_uris": {"ios": "https://dc.lft.to/lastmile_qr_scan", "android": "https://dc.lft.to/lastmile_qr_scan"}, "bike_id": "cc937476ce590988ca826a2f745773a7", "fusion_lat": 0.0}, {"lon": -76.9851725, "name": "afc8395c6a8c5dc8955f25aa4885da7b", "is_disabled": 0, "type": "electric_scooter", "is_reserved": 0, "fusion_lon": 0.0, "lat": 38.860069833333334, "rental_uris": {"ios": "https://dc.lft.to/lastmile_qr_scan", "android": "https://dc.lft.to/lastmile_qr_scan"}, "bike_id": "afc8395c6a8c5dc8955f25aa4885da7b", "fusion_lat": 0.0}, {"lon": -76.97071266666667, "name": "85ea9b49d75b4e7cf67a854405f0484e", "is_disabled": 0, "type": "electric_bike", "is_reserved": 0, "fusion_lon": 0.0, "lat": 38.920632, "rental_uris": {"ios": "https://dc.lft.to/lastmile_qr_scan", "android": "https://dc.lft.to/lastmile_qr_scan"}, "bike_id": "85ea9b49d75b4e7cf67a854405f0484e", "fusion_lat": 0.0}, {"lon": -77.00933566666667, "name": "974f6c75f61e60719e08d03e603c1d04", "is_disabled": 0, "type": "electric_scooter", "is_reserved": 0, "fusion_lon": 0.0, "lat": 38.89554833333333, "rental_uris": {"ios": "https://dc.lft.to/lastmile_qr_scan", "android": "https://dc.lft.to/lastmile_qr_scan"}, "bike_id": "974f6c75f61e60719e08d03e603c1d04", "fusion_lat": 0.0}, {"lon": -77.03656516666666, "name": "8f72b057b77dbfa03957146f2eb11074", "is_disabled": 0, "type": "electric_scooter", "is_reserved": 0, "fusion_lon": 0.0, "lat": 38.952910333333335, "rental_uris": {"ios": "https://dc.lft.to/lastmile_qr_scan", "android": "https://dc.lft.to/lastmile_qr_scan"}, "bike_id": "8f72b057b77dbfa03957146f2eb11074", "fusion_lat": 0.0}, {"lon": -77.03945183333333, "name": "7dfa0ef9ee0161b811f31eefe3959b8d", "is_disabled": 0, "type": "electric_scooter", "is_reserved": 0, "fusion_lon": 0.0, "lat": 38.903869, "rental_uris": {"ios": "https://dc.lft.to/lastmile_qr_scan", "android": "https://dc.lft.to/lastmile_qr_scan"}, "bike_id": "7dfa0ef9ee0161b811f31eefe3959b8d", "fusion_lat": 0.0}, {"lon": -77.03213183333334, "name": "4b53494d893e70a4a624a2f1a386fc08", "is_disabled": 0, "type": "electric_scooter", "is_reserved": 0, "fusion_lon": 0.0, "lat": 38.91610433333334, "rental_uris": {"ios": "https://dc.lft.to/lastmile_qr_scan", "android": "https://dc.lft.to/lastmile_qr_scan"}, "bike_id": "4b53494d893e70a4a624a2f1a386fc08", "fusion_lat": 0.0}, {"lon": -77.02129583333334, "name": "b1518f6e85a1eda0e33d26f4301e77c7", "is_disabled": 0, "type": "electric_scooter", "is_reserved": 0, "fusion_lon": 0.0, "lat": 38.924128, "rental_uris": {"ios": "https://dc.lft.to/lastmile_qr_scan", "android": "https://dc.lft.to/lastmile_qr_scan"}, "bike_id": "b1518f6e85a1eda0e33d26f4301e77c7", "fusion_lat": 0.0}, {"lon": -77.00334066666667, "name": "8f47dfe423c73f283fc8f91b50e7fa03", "is_disabled": 0, "type": "electric_scooter", "is_reserved": 0, "fusion_lon": 0.0, "lat": 38.89362033333333, "rental_uris": {"ios": "https://dc.lft.to/lastmile_qr_scan", "android": "https://dc.lft.to/lastmile_qr_scan"}, "bike_id": "8f47dfe423c73f283fc8f91b50e7fa03", "fusion_lat": 0.0}, {"lon": -77.02917866666667, "name": "7f64cf1f07f332ef661f0cc76b2e78f6", "is_disabled": 0, "type": "electric_scooter", "is_reserved": 0, "fusion_lon": 0.0, "lat": 38.89996033333333, "rental_uris": {"ios": "https://dc.lft.to/lastmile_qr_scan", "android": "https://dc.lft.to/lastmile_qr_scan"}, "bike_id": "7f64cf1f07f332ef661f0cc76b2e78f6", "fusion_lat": 0.0}, {"lon": -76.948874, "name": "e68ecb20e3501bc3cbdf0963cf09b96f", "is_disabled": 0, "type": "electric_scooter", "is_reserved": 0, "fusion_lon": 0.0, "lat": 38.89510283333333, "rental_uris": {"ios": "https://dc.lft.to/lastmile_qr_scan", "android": "https://dc.lft.to/lastmile_qr_scan"}, "bike_id": "e68ecb20e3501bc3cbdf0963cf09b96f", "fusion_lat": 0.0}, {"lon": -77.02401683333333, "name": "9571dfdd9b7856caed0b6669d92be843", "is_disabled": 0, "type": "electric_scooter", "is_reserved": 0, "fusion_lon": 0.0, "lat": 38.94180333333333, "rental_uris": {"ios": "https://dc.lft.to/lastmile_qr_scan", "android": "https://dc.lft.to/lastmile_qr_scan"}, "bike_id": "9571dfdd9b7856caed0b6669d92be843", "fusion_lat": 0.0}, {"lon": -77.14868133333333, "name": "a7ebbc158af59c3f9f9fecd63248a8f9", "is_disabled": 0, "type": "electric_bike", "is_reserved": 0, "fusion_lon": 0.0, "lat": 38.8774015, "rental_uris": {"ios": "https://dc.lft.to/lastmile_qr_scan", "android": "https://dc.lft.to/lastmile_qr_scan"}, "bike_id": "a7ebbc158af59c3f9f9fecd63248a8f9", "fusion_lat": 0.0}, {"lon": -77.0299045, "name": "92670aad45423fa73df48e0526fd2c33", "is_disabled": 0, "type": "electric_scooter", "is_reserved": 0, "fusion_lon": 0.0, "lat": 38.922451333333335, "rental_uris": {"ios": "https://dc.lft.to/lastmile_qr_scan", "android": "https://dc.lft.to/lastmile_qr_scan"}, "bike_id": "92670aad45423fa73df48e0526fd2c33", "fusion_lat": 0.0}, {"lon": -77.00917933333334, "name": "1178e60e9defa6fcff73685776f4ffc4", "is_disabled": 0, "type": "electric_scooter", "is_reserved": 0, "fusion_lon": 0.0, "lat": 38.89558233333333, "rental_uris": {"ios": "https://dc.lft.to/lastmile_qr_scan", "android": "https://dc.lft.to/lastmile_qr_scan"}, "bike_id": "1178e60e9defa6fcff73685776f4ffc4", "fusion_lat": 0.0}, {"lon": -77.03341033333334, "name": "546a688fe436b4f48e878723ad3fb26c", "is_disabled": 0, "type": "electric_scooter", "is_reserved": 0, "fusion_lon": 0.0, "lat": 38.906037, "rental_uris": {"ios": "https://dc.lft.to/lastmile_qr_scan", "android": "https://dc.lft.to/lastmile_qr_scan"}, "bike_id": "546a688fe436b4f48e878723ad3fb26c", "fusion_lat": 0.0}, {"lon": -77.0750145, "name": "96f1ee59a37225395a2f1797d9e1b1b7", "is_disabled": 0, "type": "electric_scooter", "is_reserved": 0, "fusion_lon": 0.0, "lat": 38.91232566666667, "rental_uris": {"ios": "https://dc.lft.to/lastmile_qr_scan", "android": "https://dc.lft.to/lastmile_qr_scan"}, "bike_id": "96f1ee59a37225395a2f1797d9e1b1b7", "fusion_lat": 0.0}, {"lon": -77.0360325, "name": "15a82ed9335a78649e3d93318ac95cfc", "is_disabled": 0, "type": "electric_scooter", "is_reserved": 0, "fusion_lon": 0.0, "lat": 38.90567, "rental_uris": {"ios": "https://dc.lft.to/lastmile_qr_scan", "android": "https://dc.lft.to/lastmile_qr_scan"}, "bike_id": "15a82ed9335a78649e3d93318ac95cfc", "fusion_lat": 0.0}, {"lon": -77.01941516666666, "name": "5278f140f6ea5ae75f3f3189f0fa4cfb", "is_disabled": 0, "type": "electric_scooter", "is_reserved": 0, "fusion_lon": 0.0, "lat": 38.956396, "rental_uris": {"ios": "https://dc.lft.to/lastmile_qr_scan", "android": "https://dc.lft.to/lastmile_qr_scan"}, "bike_id": "5278f140f6ea5ae75f3f3189f0fa4cfb", "fusion_lat": 0.0}, {"lon": -77.03445833333333, "name": "d69e239155e269b46e42fd1c1c9fec27", "is_disabled": 0, "type": "electric_scooter", "is_reserved": 0, "fusion_lon": 0.0, "lat": 38.900860333333334, "rental_uris": {"ios": "https://dc.lft.to/lastmile_qr_scan", "android": "https://dc.lft.to/lastmile_qr_scan"}, "bike_id": "d69e239155e269b46e42fd1c1c9fec27", "fusion_lat": 0.0}, {"lon": -77.01694416666666, "name": "e472b8c9c41092bdee807ef87163e911", "is_disabled": 0, "type": "electric_scooter", "is_reserved": 0, "fusion_lon": 0.0, "lat": 38.90763366666667, "rental_uris": {"ios": "https://dc.lft.to/lastmile_qr_scan", "android": "https://dc.lft.to/lastmile_qr_scan"}, "bike_id": "e472b8c9c41092bdee807ef87163e911", "fusion_lat": 0.0}, {"lon": -77.01981133333334, "name": "bc857a6b41055a60686e08a439db5172", "is_disabled": 0, "type": "electric_scooter", "is_reserved": 0, "fusion_lon": 0.0, "lat": 38.885612333333334, "rental_uris": {"ios": "https://dc.lft.to/lastmile_qr_scan", "android": "https://dc.lft.to/lastmile_qr_scan"}, "bike_id": "bc857a6b41055a60686e08a439db5172", "fusion_lat": 0.0}, {"lon": -77.07547583333333, "name": "40bb2a87238b46761bdfb1ed558347d3", "is_disabled": 0, "type": "electric_scooter", "is_reserved": 0, "fusion_lon": 0.0, "lat": 38.915360666666665, "rental_uris": {"ios": "https://dc.lft.to/lastmile_qr_scan", "android": "https://dc.lft.to/lastmile_qr_scan"}, "bike_id": "40bb2a87238b46761bdfb1ed558347d3", "fusion_lat": 0.0}, {"lon": -77.06422083333334, "name": "8cf46d63a5df0cd8ca8de7156a24ea8f", "is_disabled": 0, "type": "electric_scooter", "is_reserved": 0, "fusion_lon": 0.0, "lat": 38.905196333333336, "rental_uris": {"ios": "https://dc.lft.to/lastmile_qr_scan", "android": "https://dc.lft.to/lastmile_qr_scan"}, "bike_id": "8cf46d63a5df0cd8ca8de7156a24ea8f", "fusion_lat": 0.0}, {"lon": -76.99128683333333, "name": "5bce3b6f38800cd4750cf95392bccd17", "is_disabled": 0, "type": "electric_scooter", "is_reserved": 0, "fusion_lon": 0.0, "lat": 38.90020483333333, "rental_uris": {"ios": "https://dc.lft.to/lastmile_qr_scan", "android": "https://dc.lft.to/lastmile_qr_scan"}, "bike_id": "5bce3b6f38800cd4750cf95392bccd17", "fusion_lat": 0.0}, {"lon": -77.0176865, "name": "22ea44dd14b47f25c31d233becf97dc8", "is_disabled": 0, "type": "electric_scooter", "is_reserved": 0, "fusion_lon": 0.0, "lat": 38.92043733333333, "rental_uris": {"ios": "https://dc.lft.to/lastmile_qr_scan", "android": "https://dc.lft.to/lastmile_qr_scan"}, "bike_id": "22ea44dd14b47f25c31d233becf97dc8", "fusion_lat": 0.0}, {"lon": -77.0660235, "name": "2330c83c5c14275f3cde1a13db2ae341", "is_disabled": 0, "type": "electric_scooter", "is_reserved": 0, "fusion_lon": 0.0, "lat": 38.912227, "rental_uris": {"ios": "https://dc.lft.to/lastmile_qr_scan", "android": "https://dc.lft.to/lastmile_qr_scan"}, "bike_id": "2330c83c5c14275f3cde1a13db2ae341", "fusion_lat": 0.0}, {"lon": -76.91784166666666, "name": "a54bd39f417a9e034a4836614ef766d9", "is_disabled": 0, "type": "electric_bike", "is_reserved": 0, "fusion_lon": 0.0, "lat": 39.00002833333333, "rental_uris": {"ios": "https://dc.lft.to/lastmile_qr_scan", "android": "https://dc.lft.to/lastmile_qr_scan"}, "bike_id": "a54bd39f417a9e034a4836614ef766d9", "fusion_lat": 0.0}, {"lon": -77.01607466666667, "name": "29c1bd17ef92d84f693dc0f7ea4bf9eb", "is_disabled": 0, "type": "electric_scooter", "is_reserved": 0, "fusion_lon": 0.0, "lat": 38.899580666666665, "rental_uris": {"ios": "https://dc.lft.to/lastmile_qr_scan", "android": "https://dc.lft.to/lastmile_qr_scan"}, "bike_id": "29c1bd17ef92d84f693dc0f7ea4bf9eb", "fusion_lat": 0.0}, {"lon": -77.0668315, "name": "f102663a94942214ce5c7a5ab834c96a", "is_disabled": 0, "type": "electric_scooter", "is_reserved": 0, "fusion_lon": 0.0, "lat": 38.91420016666667, "rental_uris": {"ios": "https://dc.lft.to/lastmile_qr_scan", "android": "https://dc.lft.to/lastmile_qr_scan"}, "bike_id": "f102663a94942214ce5c7a5ab834c96a", "fusion_lat": 0.0}, {"lon": -77.0338655, "name": "c2a994a220ccf1a2723e62bfa9667b48", "is_disabled": 0, "type": "electric_scooter", "is_reserved": 0, "fusion_lon": 0.0, "lat": 38.92469366666667, "rental_uris": {"ios": "https://dc.lft.to/lastmile_qr_scan", "android": "https://dc.lft.to/lastmile_qr_scan"}, "bike_id": "c2a994a220ccf1a2723e62bfa9667b48", "fusion_lat": 0.0}, {"lon": -76.98839633333333, "name": "d459266174d1af7c44013f2043007660", "is_disabled": 0, "type": "electric_scooter", "is_reserved": 0, "fusion_lon": 0.0, "lat": 38.9003505, "rental_uris": {"ios": "https://dc.lft.to/lastmile_qr_scan", "android": "https://dc.lft.to/lastmile_qr_scan"}, "bike_id": "d459266174d1af7c44013f2043007660", "fusion_lat": 0.0}, {"lon": -77.0419425, "name": "e6814e86eff1683373d2895df2945827", "is_disabled": 0, "type": "electric_scooter", "is_reserved": 0, "fusion_lon": 0.0, "lat": 38.9206185, "rental_uris": {"ios": "https://dc.lft.to/lastmile_qr_scan", "android": "https://dc.lft.to/lastmile_qr_scan"}, "bike_id": "e6814e86eff1683373d2895df2945827", "fusion_lat": 0.0}, {"lon": -77.01992783333333, "name": "6bee0a169d4ed56a15757dab04459cee", "is_disabled": 0, "type": "electric_scooter", "is_reserved": 0, "fusion_lon": 0.0, "lat": 38.91363183333333, "rental_uris": {"ios": "https://dc.lft.to/lastmile_qr_scan", "android": "https://dc.lft.to/lastmile_qr_scan"}, "bike_id": "6bee0a169d4ed56a15757dab04459cee", "fusion_lat": 0.0}, {"lon": -76.97380966666667, "name": "95e7035b039806c088b2321e702d09c6", "is_disabled": 0, "type": "electric_scooter", "is_reserved": 0, "fusion_lon": 0.0, "lat": 38.871890666666665, "rental_uris": {"ios": "https://dc.lft.to/lastmile_qr_scan", "android": "https://dc.lft.to/lastmile_qr_scan"}, "bike_id": "95e7035b039806c088b2321e702d09c6", "fusion_lat": 0.0}, {"lon": -77.00922533333333, "name": "eb2c795f906b5ecb5215a01bc5c97fe4", "is_disabled": 0, "type": "electric_scooter", "is_reserved": 0, "fusion_lon": 0.0, "lat": 38.9187935, "rental_uris": {"ios": "https://dc.lft.to/lastmile_qr_scan", "android": "https://dc.lft.to/lastmile_qr_scan"}, "bike_id": "eb2c795f906b5ecb5215a01bc5c97fe4", "fusion_lat": 0.0}, {"lon": -76.939127, "name": "d1caf4675b6bc41f4da6aa6f58952b64", "is_disabled": 0, "type": "electric_scooter", "is_reserved": 0, "fusion_lon": 0.0, "lat": 38.89163166666667, "rental_uris": {"ios": "https://dc.lft.to/lastmile_qr_scan", "android": "https://dc.lft.to/lastmile_qr_scan"}, "bike_id": "d1caf4675b6bc41f4da6aa6f58952b64", "fusion_lat": 0.0}, {"lon": -77.04928366666667, "name": "b5e2ab751eb4e679a3e24b20590ce876", "is_disabled": 0, "type": "electric_scooter", "is_reserved": 0, "fusion_lon": 0.0, "lat": 38.9065755, "rental_uris": {"ios": "https://dc.lft.to/lastmile_qr_scan", "android": "https://dc.lft.to/lastmile_qr_scan"}, "bike_id": "b5e2ab751eb4e679a3e24b20590ce876", "fusion_lat": 0.0}, {"lon": -77.04130066666667, "name": "a5835bfed417fc83fb7b06883f7f8713", "is_disabled": 0, "type": "electric_scooter", "is_reserved": 0, "fusion_lon": 0.0, "lat": 38.903897666666666, "rental_uris": {"ios": "https://dc.lft.to/lastmile_qr_scan", "android": "https://dc.lft.to/lastmile_qr_scan"}, "bike_id": "a5835bfed417fc83fb7b06883f7f8713", "fusion_lat": 0.0}, {"lon": -77.04008766666666, "name": "93a8742a5e06b7402f01920fa315fbb3", "is_disabled": 0, "type": "electric_scooter", "is_reserved": 0, "fusion_lon": 0.0, "lat": 38.934304833333336, "rental_uris": {"ios": "https://dc.lft.to/lastmile_qr_scan", "android": "https://dc.lft.to/lastmile_qr_scan"}, "bike_id": "93a8742a5e06b7402f01920fa315fbb3", "fusion_lat": 0.0}, {"lon": -77.02344183333334, "name": "2392d8ae0b735840f17d31db18163951", "is_disabled": 0, "type": "electric_scooter", "is_reserved": 0, "fusion_lon": 0.0, "lat": 38.917798166666664, "rental_uris": {"ios": "https://dc.lft.to/lastmile_qr_scan", "android": "https://dc.lft.to/lastmile_qr_scan"}, "bike_id": "2392d8ae0b735840f17d31db18163951", "fusion_lat": 0.0}, {"lon": -77.02780216666666, "name": "fac90cdddc63972beb228e43314eee77", "is_disabled": 0, "type": "electric_scooter", "is_reserved": 0, "fusion_lon": 0.0, "lat": 38.929538, "rental_uris": {"ios": "https://dc.lft.to/lastmile_qr_scan", "android": "https://dc.lft.to/lastmile_qr_scan"}, "bike_id": "fac90cdddc63972beb228e43314eee77", "fusion_lat": 0.0}, {"lon": -77.09613783333333, "name": "97d21a82553c8a6143623331b4eadeea", "is_disabled": 0, "type": "electric_bike", "is_reserved": 0, "fusion_lon": 0.0, "lat": 38.97438833333333, "rental_uris": {"ios": "https://dc.lft.to/lastmile_qr_scan", "android": "https://dc.lft.to/lastmile_qr_scan"}, "bike_id": "97d21a82553c8a6143623331b4eadeea", "fusion_lat": 0.0}, {"lon": -77.00573016666667, "name": "33f8b2c98009257838b804530c778b4c", "is_disabled": 0, "type": "electric_scooter", "is_reserved": 0, "fusion_lon": 0.0, "lat": 38.872167833333336, "rental_uris": {"ios": "https://dc.lft.to/lastmile_qr_scan", "android": "https://dc.lft.to/lastmile_qr_scan"}, "bike_id": "33f8b2c98009257838b804530c778b4c", "fusion_lat": 0.0}, {"lon": -77.04998, "name": "40b668830e2617d4241ebc594d3978c6", "is_disabled": 0, "type": "electric_scooter", "is_reserved": 0, "fusion_lon": 0.0, "lat": 38.892285666666666, "rental_uris": {"ios": "https://dc.lft.to/lastmile_qr_scan", "android": "https://dc.lft.to/lastmile_qr_scan"}, "bike_id": "40b668830e2617d4241ebc594d3978c6", "fusion_lat": 0.0}, {"lon": -77.0030855, "name": "3e7168626dc0ad08c7b54cac95f26567", "is_disabled": 0, "type": "electric_scooter", "is_reserved": 0, "fusion_lon": 0.0, "lat": 38.876610166666666, "rental_uris": {"ios": "https://dc.lft.to/lastmile_qr_scan", "android": "https://dc.lft.to/lastmile_qr_scan"}, "bike_id": "3e7168626dc0ad08c7b54cac95f26567", "fusion_lat": 0.0}, {"lon": -77.07799483333334, "name": "cccb1f61c8abaed22533756d43d8309f", "is_disabled": 0, "type": "electric_scooter", "is_reserved": 0, "fusion_lon": 0.0, "lat": 38.9384815, "rental_uris": {"ios": "https://dc.lft.to/lastmile_qr_scan", "android": "https://dc.lft.to/lastmile_qr_scan"}, "bike_id": "cccb1f61c8abaed22533756d43d8309f", "fusion_lat": 0.0}, {"lon": -77.00862516666666, "name": "d330af9c3d659adc102102a17d8c6177", "is_disabled": 0, "type": "electric_scooter", "is_reserved": 0, "fusion_lon": 0.0, "lat": 38.89957866666666, "rental_uris": {"ios": "https://dc.lft.to/lastmile_qr_scan", "android": "https://dc.lft.to/lastmile_qr_scan"}, "bike_id": "d330af9c3d659adc102102a17d8c6177", "fusion_lat": 0.0}, {"lon": -77.0122355, "name": "d539e26bf4ff47ded18c772d3eb9872e", "is_disabled": 0, "type": "electric_scooter", "is_reserved": 0, "fusion_lon": 0.0, "lat": 38.91519316666667, "rental_uris": {"ios": "https://dc.lft.to/lastmile_qr_scan", "android": "https://dc.lft.to/lastmile_qr_scan"}, "bike_id": "d539e26bf4ff47ded18c772d3eb9872e", "fusion_lat": 0.0}, {"lon": -77.03042783333333, "name": "c5d5c6872a16f5eb2929f4f6d6d7e5f6", "is_disabled": 0, "type": "electric_scooter", "is_reserved": 0, "fusion_lon": 0.0, "lat": 38.902723, "rental_uris": {"ios": "https://dc.lft.to/lastmile_qr_scan", "android": "https://dc.lft.to/lastmile_qr_scan"}, "bike_id": "c5d5c6872a16f5eb2929f4f6d6d7e5f6", "fusion_lat": 0.0}, {"lon": -77.032159, "name": "08fa00101c02ede684c1764028cc4256", "is_disabled": 0, "type": "electric_scooter", "is_reserved": 0, "fusion_lon": 0.0, "lat": 38.92245033333333, "rental_uris": {"ios": "https://dc.lft.to/lastmile_qr_scan", "android": "https://dc.lft.to/lastmile_qr_scan"}, "bike_id": "08fa00101c02ede684c1764028cc4256", "fusion_lat": 0.0}, {"lon": -77.063866, "name": "3aab2f13cbd9a703a3479ffa030cdbf3", "is_disabled": 0, "type": "electric_scooter", "is_reserved": 0, "fusion_lon": 0.0, "lat": 38.90824816666667, "rental_uris": {"ios": "https://dc.lft.to/lastmile_qr_scan", "android": "https://dc.lft.to/lastmile_qr_scan"}, "bike_id": "3aab2f13cbd9a703a3479ffa030cdbf3", "fusion_lat": 0.0}, {"lon": -77.03258783333334, "name": "c24108e5e3c238422d1ac283b4262e02", "is_disabled": 0, "type": "electric_scooter", "is_reserved": 0, "fusion_lon": 0.0, "lat": 38.93972466666666, "rental_uris": {"ios": "https://dc.lft.to/lastmile_qr_scan", "android": "https://dc.lft.to/lastmile_qr_scan"}, "bike_id": "c24108e5e3c238422d1ac283b4262e02", "fusion_lat": 0.0}, {"lon": -76.99660366666667, "name": "ce05ac89bdd9e22335dbf7cf879db145", "is_disabled": 0, "type": "electric_bike", "is_reserved": 0, "fusion_lon": 0.0, "lat": 38.96775483333333, "rental_uris": {"ios": "https://dc.lft.to/lastmile_qr_scan", "android": "https://dc.lft.to/lastmile_qr_scan"}, "bike_id": "ce05ac89bdd9e22335dbf7cf879db145", "fusion_lat": 0.0}, {"lon": -77.0429995, "name": "0ad43fe189e6ea6432a69fea1bad01c0", "is_disabled": 0, "type": "electric_scooter", "is_reserved": 0, "fusion_lon": 0.0, "lat": 38.89999066666667, "rental_uris": {"ios": "https://dc.lft.to/lastmile_qr_scan", "android": "https://dc.lft.to/lastmile_qr_scan"}, "bike_id": "0ad43fe189e6ea6432a69fea1bad01c0", "fusion_lat": 0.0}, {"lon": -77.0384505, "name": "99b8490e178e49c3258c5254ce5563a7", "is_disabled": 0, "type": "electric_scooter", "is_reserved": 0, "fusion_lon": 0.0, "lat": 38.903861166666665, "rental_uris": {"ios": "https://dc.lft.to/lastmile_qr_scan", "android": "https://dc.lft.to/lastmile_qr_scan"}, "bike_id": "99b8490e178e49c3258c5254ce5563a7", "fusion_lat": 0.0}, {"lon": -77.01523733333333, "name": "f9fc0f01aae6ce8fd2d1b5edbedc96c7", "is_disabled": 0, "type": "electric_scooter", "is_reserved": 0, "fusion_lon": 0.0, "lat": 38.896870666666665, "rental_uris": {"ios": "https://dc.lft.to/lastmile_qr_scan", "android": "https://dc.lft.to/lastmile_qr_scan"}, "bike_id": "f9fc0f01aae6ce8fd2d1b5edbedc96c7", "fusion_lat": 0.0}, {"lon": -76.99508216666666, "name": "471556d3c9ffaaabf85e9ceb62da46c1", "is_disabled": 0, "type": "electric_scooter", "is_reserved": 0, "fusion_lon": 0.0, "lat": 38.89077416666667, "rental_uris": {"ios": "https://dc.lft.to/lastmile_qr_scan", "android": "https://dc.lft.to/lastmile_qr_scan"}, "bike_id": "471556d3c9ffaaabf85e9ceb62da46c1", "fusion_lat": 0.0}, {"lon": -77.02954516666667, "name": "eaaeda9c8d20538c5a1f99ba22c49ff8", "is_disabled": 0, "type": "electric_scooter", "is_reserved": 0, "fusion_lon": 0.0, "lat": 38.89565066666667, "rental_uris": {"ios": "https://dc.lft.to/lastmile_qr_scan", "android": "https://dc.lft.to/lastmile_qr_scan"}, "bike_id": "eaaeda9c8d20538c5a1f99ba22c49ff8", "fusion_lat": 0.0}, {"lon": -76.97684316666667, "name": "5ce09a397decdd6897cc98e3fb81f54c", "is_disabled": 0, "type": "electric_scooter", "is_reserved": 0, "fusion_lon": 0.0, "lat": 38.891932, "rental_uris": {"ios": "https://dc.lft.to/lastmile_qr_scan", "android": "https://dc.lft.to/lastmile_qr_scan"}, "bike_id": "5ce09a397decdd6897cc98e3fb81f54c", "fusion_lat": 0.0}, {"lon": -77.0191125, "name": "992a6dad856ac7f8a273f296b96cd118", "is_disabled": 0, "type": "electric_scooter", "is_reserved": 0, "fusion_lon": 0.0, "lat": 38.897258, "rental_uris": {"ios": "https://dc.lft.to/lastmile_qr_scan", "android": "https://dc.lft.to/lastmile_qr_scan"}, "bike_id": "992a6dad856ac7f8a273f296b96cd118", "fusion_lat": 0.0}, {"lon": -77.0430715, "name": "77f7548123c4906efd93592baf84bf33", "is_disabled": 0, "type": "electric_scooter", "is_reserved": 0, "fusion_lon": 0.0, "lat": 38.92398016666667, "rental_uris": {"ios": "https://dc.lft.to/lastmile_qr_scan", "android": "https://dc.lft.to/lastmile_qr_scan"}, "bike_id": "77f7548123c4906efd93592baf84bf33", "fusion_lat": 0.0}, {"lon": -77.03197633333333, "name": "53da74668792e50d48afa027c5a3fbd5", "is_disabled": 0, "type": "electric_scooter", "is_reserved": 0, "fusion_lon": 0.0, "lat": 38.92293216666667, "rental_uris": {"ios": "https://dc.lft.to/lastmile_qr_scan", "android": "https://dc.lft.to/lastmile_qr_scan"}, "bike_id": "53da74668792e50d48afa027c5a3fbd5", "fusion_lat": 0.0}, {"lon": -76.93925983333334, "name": "cb06aa7f96bfdd7284cd924e6f0f641b", "is_disabled": 0, "type": "electric_scooter", "is_reserved": 0, "fusion_lon": 0.0, "lat": 38.89329716666667, "rental_uris": {"ios": "https://dc.lft.to/lastmile_qr_scan", "android": "https://dc.lft.to/lastmile_qr_scan"}, "bike_id": "cb06aa7f96bfdd7284cd924e6f0f641b", "fusion_lat": 0.0}, {"lon": -77.23408783333333, "name": "360030e7b900d24ba7e0961032b5f980", "is_disabled": 0, "type": "electric_bike", "is_reserved": 0, "fusion_lon": 0.0, "lat": 38.87576966666666, "rental_uris": {"ios": "https://dc.lft.to/lastmile_qr_scan", "android": "https://dc.lft.to/lastmile_qr_scan"}, "bike_id": "360030e7b900d24ba7e0961032b5f980", "fusion_lat": 0.0}, {"lon": -77.00599833333334, "name": "14b1ef4bb83d2e6e2d02e52a029c9610", "is_disabled": 0, "type": "electric_scooter", "is_reserved": 0, "fusion_lon": 0.0, "lat": 38.902294, "rental_uris": {"ios": "https://dc.lft.to/lastmile_qr_scan", "android": "https://dc.lft.to/lastmile_qr_scan"}, "bike_id": "14b1ef4bb83d2e6e2d02e52a029c9610", "fusion_lat": 0.0}, {"lon": -77.02189283333334, "name": "8d30fe8b9bd8b6084d64e9c838836bde", "is_disabled": 0, "type": "electric_scooter", "is_reserved": 0, "fusion_lon": 0.0, "lat": 38.919866666666664, "rental_uris": {"ios": "https://dc.lft.to/lastmile_qr_scan", "android": "https://dc.lft.to/lastmile_qr_scan"}, "bike_id": "8d30fe8b9bd8b6084d64e9c838836bde", "fusion_lat": 0.0}, {"lon": -77.077016, "name": "b7eeaa581824a5f08db0afa8d32fcafd", "is_disabled": 0, "type": "electric_scooter", "is_reserved": 0, "fusion_lon": 0.0, "lat": 38.922460666666666, "rental_uris": {"ios": "https://dc.lft.to/lastmile_qr_scan", "android": "https://dc.lft.to/lastmile_qr_scan"}, "bike_id": "b7eeaa581824a5f08db0afa8d32fcafd", "fusion_lat": 0.0}, {"lon": -77.00551766666666, "name": "cf0d35c8ad53b314a223f8e12573f7f0", "is_disabled": 0, "type": "electric_bike", "is_reserved": 0, "fusion_lon": 0.0, "lat": 38.927415833333335, "rental_uris": {"ios": "https://dc.lft.to/lastmile_qr_scan", "android": "https://dc.lft.to/lastmile_qr_scan"}, "bike_id": "cf0d35c8ad53b314a223f8e12573f7f0", "fusion_lat": 0.0}, {"lon": -77.00569433333334, "name": "bf5260ae788933c337cb993712bc077b", "is_disabled": 0, "type": "electric_scooter", "is_reserved": 0, "fusion_lon": 0.0, "lat": 38.885011166666665, "rental_uris": {"ios": "https://dc.lft.to/lastmile_qr_scan", "android": "https://dc.lft.to/lastmile_qr_scan"}, "bike_id": "bf5260ae788933c337cb993712bc077b", "fusion_lat": 0.0}, {"lon": -77.023837, "name": "55653289ef108e85155cbbb6372f55fc", "is_disabled": 0, "type": "electric_scooter", "is_reserved": 0, "fusion_lon": 0.0, "lat": 38.9084955, "rental_uris": {"ios": "https://dc.lft.to/lastmile_qr_scan", "android": "https://dc.lft.to/lastmile_qr_scan"}, "bike_id": "55653289ef108e85155cbbb6372f55fc", "fusion_lat": 0.0}, {"lon": -77.02510016666666, "name": "67fedf4803abee45934996adde0db754", "is_disabled": 0, "type": "electric_scooter", "is_reserved": 0, "fusion_lon": 0.0, "lat": 38.92059866666666, "rental_uris": {"ios": "https://dc.lft.to/lastmile_qr_scan", "android": "https://dc.lft.to/lastmile_qr_scan"}, "bike_id": "67fedf4803abee45934996adde0db754", "fusion_lat": 0.0}, {"lon": -77.0257195, "name": "899572cbb733289b72b7a9e9c66b82af", "is_disabled": 0, "type": "electric_scooter", "is_reserved": 0, "fusion_lon": 0.0, "lat": 38.887445, "rental_uris": {"ios": "https://dc.lft.to/lastmile_qr_scan", "android": "https://dc.lft.to/lastmile_qr_scan"}, "bike_id": "899572cbb733289b72b7a9e9c66b82af", "fusion_lat": 0.0}, {"lon": -77.059442, "name": "2f12c9dcfc1301139931f3d3d985cf46", "is_disabled": 0, "type": "electric_scooter", "is_reserved": 0, "fusion_lon": 0.0, "lat": 38.93698633333333, "rental_uris": {"ios": "https://dc.lft.to/lastmile_qr_scan", "android": "https://dc.lft.to/lastmile_qr_scan"}, "bike_id": "2f12c9dcfc1301139931f3d3d985cf46", "fusion_lat": 0.0}, {"lon": -77.07133233333333, "name": "9811ecf2b66a521852b5bf105e8599ad", "is_disabled": 0, "type": "electric_scooter", "is_reserved": 0, "fusion_lon": 0.0, "lat": 38.9201585, "rental_uris": {"ios": "https://dc.lft.to/lastmile_qr_scan", "android": "https://dc.lft.to/lastmile_qr_scan"}, "bike_id": "9811ecf2b66a521852b5bf105e8599ad", "fusion_lat": 0.0}, {"lon": -77.03292816666666, "name": "8785d6b1f3bd9804a5d06f20bb2ed82a", "is_disabled": 0, "type": "electric_scooter", "is_reserved": 0, "fusion_lon": 0.0, "lat": 38.9565445, "rental_uris": {"ios": "https://dc.lft.to/lastmile_qr_scan", "android": "https://dc.lft.to/lastmile_qr_scan"}, "bike_id": "8785d6b1f3bd9804a5d06f20bb2ed82a", "fusion_lat": 0.0}, {"lon": -77.01680883333333, "name": "c4dd93a8e7b0f1ba5a32ccc25fd87dde", "is_disabled": 0, "type": "electric_scooter", "is_reserved": 0, "fusion_lon": 0.0, "lat": 38.910842333333335, "rental_uris": {"ios": "https://dc.lft.to/lastmile_qr_scan", "android": "https://dc.lft.to/lastmile_qr_scan"}, "bike_id": "c4dd93a8e7b0f1ba5a32ccc25fd87dde", "fusion_lat": 0.0}, {"lon": -77.03218833333334, "name": "4217da1a2aa9139fcd970885498e684d", "is_disabled": 0, "type": "electric_scooter", "is_reserved": 0, "fusion_lon": 0.0, "lat": 38.89222066666667, "rental_uris": {"ios": "https://dc.lft.to/lastmile_qr_scan", "android": "https://dc.lft.to/lastmile_qr_scan"}, "bike_id": "4217da1a2aa9139fcd970885498e684d", "fusion_lat": 0.0}, {"lon": -77.042873, "name": "3788959133a48858f1141ca03dd55989", "is_disabled": 0, "type": "electric_scooter", "is_reserved": 0, "fusion_lon": 0.0, "lat": 38.9170625, "rental_uris": {"ios": "https://dc.lft.to/lastmile_qr_scan", "android": "https://dc.lft.to/lastmile_qr_scan"}, "bike_id": "3788959133a48858f1141ca03dd55989", "fusion_lat": 0.0}, {"lon": -77.02501833333334, "name": "9ec30905d4af6fd0321f7ca4c7b8edeb", "is_disabled": 0, "type": "electric_scooter", "is_reserved": 0, "fusion_lon": 0.0, "lat": 38.919196, "rental_uris": {"ios": "https://dc.lft.to/lastmile_qr_scan", "android": "https://dc.lft.to/lastmile_qr_scan"}, "bike_id": "9ec30905d4af6fd0321f7ca4c7b8edeb", "fusion_lat": 0.0}, {"lon": -77.0956635, "name": "95fb5da4b6f54b257187ea7b841107f3", "is_disabled": 0, "type": "electric_bike", "is_reserved": 0, "fusion_lon": 0.0, "lat": 38.99192466666667, "rental_uris": {"ios": "https://dc.lft.to/lastmile_qr_scan", "android": "https://dc.lft.to/lastmile_qr_scan"}, "bike_id": "95fb5da4b6f54b257187ea7b841107f3", "fusion_lat": 0.0}, {"lon": -77.08995483333334, "name": "ba22908318d7cc0333def7c457e08a74", "is_disabled": 0, "type": "electric_bike", "is_reserved": 0, "fusion_lon": 0.0, "lat": 38.909069, "rental_uris": {"ios": "https://dc.lft.to/lastmile_qr_scan", "android": "https://dc.lft.to/lastmile_qr_scan"}, "bike_id": "ba22908318d7cc0333def7c457e08a74", "fusion_lat": 0.0}, {"lon": -77.03256033333334, "name": "29e70396c5b1e79e8e57a87f91f6d8ca", "is_disabled": 0, "type": "electric_scooter", "is_reserved": 0, "fusion_lon": 0.0, "lat": 38.92929483333333, "rental_uris": {"ios": "https://dc.lft.to/lastmile_qr_scan", "android": "https://dc.lft.to/lastmile_qr_scan"}, "bike_id": "29e70396c5b1e79e8e57a87f91f6d8ca", "fusion_lat": 0.0}, {"lon": -77.0344415, "name": "20931037f0ebac9b7e1b56382c199bd2", "is_disabled": 0, "type": "electric_scooter", "is_reserved": 0, "fusion_lon": 0.0, "lat": 38.930916833333335, "rental_uris": {"ios": "https://dc.lft.to/lastmile_qr_scan", "android": "https://dc.lft.to/lastmile_qr_scan"}, "bike_id": "20931037f0ebac9b7e1b56382c199bd2", "fusion_lat": 0.0}, {"lon": -77.04871333333334, "name": "2d309aedd90498244495f33ab0b45d07", "is_disabled": 0, "type": "electric_bike", "is_reserved": 0, "fusion_lon": 0.0, "lat": 38.900272666666666, "rental_uris": {"ios": "https://dc.lft.to/lastmile_qr_scan", "android": "https://dc.lft.to/lastmile_qr_scan"}, "bike_id": "2d309aedd90498244495f33ab0b45d07", "fusion_lat": 0.0}, {"lon": -77.027151, "name": "7271749b97e6e6a4f6237b9c9ee3da3e", "is_disabled": 0, "type": "electric_scooter", "is_reserved": 0, "fusion_lon": 0.0, "lat": 38.916848, "rental_uris": {"ios": "https://dc.lft.to/lastmile_qr_scan", "android": "https://dc.lft.to/lastmile_qr_scan"}, "bike_id": "7271749b97e6e6a4f6237b9c9ee3da3e", "fusion_lat": 0.0}, {"lon": -77.01577233333333, "name": "55d5671e9db29fe54c46f6bff59f2261", "is_disabled": 0, "type": "electric_scooter", "is_reserved": 0, "fusion_lon": 0.0, "lat": 38.900180166666665, "rental_uris": {"ios": "https://dc.lft.to/lastmile_qr_scan", "android": "https://dc.lft.to/lastmile_qr_scan"}, "bike_id": "55d5671e9db29fe54c46f6bff59f2261", "fusion_lat": 0.0}, {"lon": -76.97333449999999, "name": "cfd9d1a83059d2dc820c105c757c7700", "is_disabled": 0, "type": "electric_scooter", "is_reserved": 0, "fusion_lon": 0.0, "lat": 38.904068333333335, "rental_uris": {"ios": "https://dc.lft.to/lastmile_qr_scan", "android": "https://dc.lft.to/lastmile_qr_scan"}, "bike_id": "cfd9d1a83059d2dc820c105c757c7700", "fusion_lat": 0.0}, {"lon": -77.0327125, "name": "5889ad0c88d190432a51d86c8dbbab91", "is_disabled": 0, "type": "electric_scooter", "is_reserved": 0, "fusion_lon": 0.0, "lat": 38.928657666666666, "rental_uris": {"ios": "https://dc.lft.to/lastmile_qr_scan", "android": "https://dc.lft.to/lastmile_qr_scan"}, "bike_id": "5889ad0c88d190432a51d86c8dbbab91", "fusion_lat": 0.0}, {"lon": -77.02529683333333, "name": "43009eec6c4c9941e00c71f81038c506", "is_disabled": 0, "type": "electric_scooter", "is_reserved": 0, "fusion_lon": 0.0, "lat": 38.9209325, "rental_uris": {"ios": "https://dc.lft.to/lastmile_qr_scan", "android": "https://dc.lft.to/lastmile_qr_scan"}, "bike_id": "43009eec6c4c9941e00c71f81038c506", "fusion_lat": 0.0}, {"lon": -77.01913966666666, "name": "aa0a7fc324b36b4e71afe7a91167c377", "is_disabled": 0, "type": "electric_scooter", "is_reserved": 0, "fusion_lon": 0.0, "lat": 38.923379, "rental_uris": {"ios": "https://dc.lft.to/lastmile_qr_scan", "android": "https://dc.lft.to/lastmile_qr_scan"}, "bike_id": "aa0a7fc324b36b4e71afe7a91167c377", "fusion_lat": 0.0}, {"lon": -77.0747055, "name": "1bf8853372e718432296ad4b3b4ceac5", "is_disabled": 0, "type": "electric_scooter", "is_reserved": 0, "fusion_lon": 0.0, "lat": 38.92241716666667, "rental_uris": {"ios": "https://dc.lft.to/lastmile_qr_scan", "android": "https://dc.lft.to/lastmile_qr_scan"}, "bike_id": "1bf8853372e718432296ad4b3b4ceac5", "fusion_lat": 0.0}, {"lon": -77.04075883333333, "name": "cf26fba31c16b11c1b40acef79cc96a6", "is_disabled": 0, "type": "electric_scooter", "is_reserved": 0, "fusion_lon": 0.0, "lat": 38.928844166666664, "rental_uris": {"ios": "https://dc.lft.to/lastmile_qr_scan", "android": "https://dc.lft.to/lastmile_qr_scan"}, "bike_id": "cf26fba31c16b11c1b40acef79cc96a6", "fusion_lat": 0.0}, {"lon": -77.01933416666667, "name": "0b2b96f539e1e9bd65445de12437d2bd", "is_disabled": 0, "type": "electric_scooter", "is_reserved": 0, "fusion_lon": 0.0, "lat": 38.932685666666664, "rental_uris": {"ios": "https://dc.lft.to/lastmile_qr_scan", "android": "https://dc.lft.to/lastmile_qr_scan"}, "bike_id": "0b2b96f539e1e9bd65445de12437d2bd", "fusion_lat": 0.0}, {"lon": -77.04598, "name": "b208c4375afc41329f7e71d727071800", "is_disabled": 0, "type": "electric_scooter", "is_reserved": 0, "fusion_lon": 0.0, "lat": 38.896196333333336, "rental_uris": {"ios": "https://dc.lft.to/lastmile_qr_scan", "android": "https://dc.lft.to/lastmile_qr_scan"}, "bike_id": "b208c4375afc41329f7e71d727071800", "fusion_lat": 0.0}, {"lon": -77.022028, "name": "35061b36251929fbb49642415bdd5445", "is_disabled": 0, "type": "electric_scooter", "is_reserved": 0, "fusion_lon": 0.0, "lat": 38.92474433333334, "rental_uris": {"ios": "https://dc.lft.to/lastmile_qr_scan", "android": "https://dc.lft.to/lastmile_qr_scan"}, "bike_id": "35061b36251929fbb49642415bdd5445", "fusion_lat": 0.0}, {"lon": -77.00589083333334, "name": "b9f3385b134c19bcbe1fc47f81850001", "is_disabled": 0, "type": "electric_scooter", "is_reserved": 0, "fusion_lon": 0.0, "lat": 38.875473666666664, "rental_uris": {"ios": "https://dc.lft.to/lastmile_qr_scan", "android": "https://dc.lft.to/lastmile_qr_scan"}, "bike_id": "b9f3385b134c19bcbe1fc47f81850001", "fusion_lat": 0.0}, {"lon": -77.02112866666667, "name": "add1438e2e81be0d77a3a7b98d36ea11", "is_disabled": 0, "type": "electric_scooter", "is_reserved": 0, "fusion_lon": 0.0, "lat": 38.9278515, "rental_uris": {"ios": "https://dc.lft.to/lastmile_qr_scan", "android": "https://dc.lft.to/lastmile_qr_scan"}, "bike_id": "add1438e2e81be0d77a3a7b98d36ea11", "fusion_lat": 0.0}, {"lon": -76.9979775, "name": "c981abf751c17ed742b245bb218bb947", "is_disabled": 0, "type": "electric_bike", "is_reserved": 0, "fusion_lon": 0.0, "lat": 38.99805383333333, "rental_uris": {"ios": "https://dc.lft.to/lastmile_qr_scan", "android": "https://dc.lft.to/lastmile_qr_scan"}, "bike_id": "c981abf751c17ed742b245bb218bb947", "fusion_lat": 0.0}, {"lon": -77.02550583333333, "name": "c05b73399ebdb5fa5b9b5801f94499e0", "is_disabled": 0, "type": "electric_scooter", "is_reserved": 0, "fusion_lon": 0.0, "lat": 38.922437, "rental_uris": {"ios": "https://dc.lft.to/lastmile_qr_scan", "android": "https://dc.lft.to/lastmile_qr_scan"}, "bike_id": "c05b73399ebdb5fa5b9b5801f94499e0", "fusion_lat": 0.0}, {"lon": -77.02068283333334, "name": "0dbee045c9127c757c9bdb87ae320a14", "is_disabled": 0, "type": "electric_scooter", "is_reserved": 0, "fusion_lon": 0.0, "lat": 38.93388083333333, "rental_uris": {"ios": "https://dc.lft.to/lastmile_qr_scan", "android": "https://dc.lft.to/lastmile_qr_scan"}, "bike_id": "0dbee045c9127c757c9bdb87ae320a14", "fusion_lat": 0.0}, {"lon": -76.98372616666667, "name": "9af11c4341f4992def3f61eb307454d8", "is_disabled": 0, "type": "electric_scooter", "is_reserved": 0, "fusion_lon": 0.0, "lat": 38.90645683333334, "rental_uris": {"ios": "https://dc.lft.to/lastmile_qr_scan", "android": "https://dc.lft.to/lastmile_qr_scan"}, "bike_id": "9af11c4341f4992def3f61eb307454d8", "fusion_lat": 0.0}, {"lon": -77.02818466666666, "name": "2f8fd96aeb3f3656ee3ec5772936cbf0", "is_disabled": 0, "type": "electric_scooter", "is_reserved": 0, "fusion_lon": 0.0, "lat": 38.9070645, "rental_uris": {"ios": "https://dc.lft.to/lastmile_qr_scan", "android": "https://dc.lft.to/lastmile_qr_scan"}, "bike_id": "2f8fd96aeb3f3656ee3ec5772936cbf0", "fusion_lat": 0.0}, {"lon": -77.02558866666666, "name": "2643d237c80bc49a6b2a7930c31e2f02", "is_disabled": 0, "type": "electric_scooter", "is_reserved": 0, "fusion_lon": 0.0, "lat": 38.94164416666667, "rental_uris": {"ios": "https://dc.lft.to/lastmile_qr_scan", "android": "https://dc.lft.to/lastmile_qr_scan"}, "bike_id": "2643d237c80bc49a6b2a7930c31e2f02", "fusion_lat": 0.0}, {"lon": -76.9906275, "name": "0198f8ab210e9d7ccdbcae7f29dc7f6d", "is_disabled": 0, "type": "electric_scooter", "is_reserved": 0, "fusion_lon": 0.0, "lat": 38.85630033333333, "rental_uris": {"ios": "https://dc.lft.to/lastmile_qr_scan", "android": "https://dc.lft.to/lastmile_qr_scan"}, "bike_id": "0198f8ab210e9d7ccdbcae7f29dc7f6d", "fusion_lat": 0.0}, {"lon": -76.96109166666666, "name": "cf603c2c6f988b7534dec4cf18c14d45", "is_disabled": 0, "type": "electric_scooter", "is_reserved": 0, "fusion_lon": 0.0, "lat": 38.8920265, "rental_uris": {"ios": "https://dc.lft.to/lastmile_qr_scan", "android": "https://dc.lft.to/lastmile_qr_scan"}, "bike_id": "cf603c2c6f988b7534dec4cf18c14d45", "fusion_lat": 0.0}, {"lon": -77.032967, "name": "64d74859e6de9ef7fb01f058029151b7", "is_disabled": 0, "type": "electric_scooter", "is_reserved": 0, "fusion_lon": 0.0, "lat": 38.898956166666665, "rental_uris": {"ios": "https://dc.lft.to/lastmile_qr_scan", "android": "https://dc.lft.to/lastmile_qr_scan"}, "bike_id": "64d74859e6de9ef7fb01f058029151b7", "fusion_lat": 0.0},