{"data": {"bikes": [{"bike_id": "a82cffcc95df4a32c368257e80c0cfc1", "type": "electric_scooter", "is_disabled": 0, "lat": 38.920175, "rental_uris": {"ios": "https://dc.lft.to/lastmile_qr_scan", "android": "https://dc.lft.to/lastmile_qr_scan"}, "is_reserved": 0, "fusion_lon": 0.0, "fusion_lat": 0.0, "lon": -77.01320116666666, "name": "a82cffcc95df4a32c368257e80c0cfc1"}, {"bike_id": "1a7aec421846c46b1a68426ab2a1c661", "type": "electric_scooter", "is_disabled": 0, "lat": 38.89701, "rental_uris": {"ios": "https://dc.lft.to/lastmile_qr_scan", "android": "https://dc.lft.to/lastmile_qr_scan"}, "is_reserved": 0, "fusion_lon": 0.0, "fusion_lat": 0.0, "lon": -77.04348466666667, "name": "1a7aec421846c46b1a68426ab2a1c661"}, {"bike_id": "0780d0b8ed3e5cc41a6ca507e91e9365", "type": "electric_scooter", "is_disabled": 0, "lat": 38.916172833333334, "rental_uris": {"ios": "https://dc.lft.to/lastmile_qr_scan", "android": "https://dc.lft.to/lastmile_qr_scan"}, "is_reserved": 0, "fusion_lon": 0.0, "fusion_lat": 0.0, "lon": -77.03039666666666, "name": "0780d0b8ed3e5cc41a6ca507e91e9365"}, {"bike_id": "5c1072b59d8c812c147a86c8e6c5bbc4", "type": "electric_scooter", "is_disabled": 0, "lat": 38.91707866666667, "rental_uris": {"ios": "https://dc.lft.to/lastmile_qr_scan", "android": "https://dc.lft.to/lastmile_qr_scan"}, "is_reserved": 0, "fusion_lon": 0.0, "fusion_lat": 0.0, "lon": -77.02414733333333, "name": "5c1072b59d8c812c147a86c8e6c5bbc4"}, {"bike_id": "c38bb8064e80cb79bcc34668a5076a41", "type": "electric_scooter", "is_disabled": 0, "lat": 38.93252233333333, "rental_uris": {"ios": "https://dc.lft.to/lastmile_qr_scan", "android": "https://dc.lft.to/lastmile_qr_scan"}, "is_reserved": 0, "fusion_lon": 0.0, "fusion_lat": 0.0, "lon": -77.027253, "name": "c38bb8064e80cb79bcc34668a5076a41"}, {"bike_id": "e6e7db2e2a27c65e986536a22b89b8c4", "type": "electric_scooter", "is_disabled": 0, "lat": 38.938898, "rental_uris": {"ios": "https://dc.lft.to/lastmile_qr_scan", "android": "https://dc.lft.to/lastmile_qr_scan"}, "is_reserved": 0, "fusion_lon": 0.0, "fusion_lat": 0.0, "lon": -77.03338983333333, "name": "e6e7db2e2a27c65e986536a22b89b8c4"}, {"bike_id": "ab2dad853a28f034e3f4eaf3a60963b7", "type": "electric_scooter", "is_disabled": 0, "lat": 38.920052, "rental_uris": {"ios": "https://dc.lft.to/lastmile_qr_scan", "android": "https://dc.lft.to/lastmile_qr_scan"}, "is_reserved": 0, "fusion_lon": 0.0, "fusion_lat": 0.0, "lon": -77.02477316666666, "name": "ab2dad853a28f034e3f4eaf3a60963b7"}, {"bike_id": "001bf6a5618330f856a2c0bd999f1afd", "type": "electric_scooter", "is_disabled": 0, "lat": 38.892340833333336, "rental_uris": {"ios": "https://dc.lft.to/lastmile_qr_scan", "android": "https://dc.lft.to/lastmile_qr_scan"}, "is_reserved": 0, "fusion_lon": 0.0, "fusion_lat": 0.0, "lon": -77.04164183333333, "name": "001bf6a5618330f856a2c0bd999f1afd"}, {"bike_id": "58464d694e1ce97ce11ed20a73f13d3d", "type": "electric_scooter", "is_disabled": 0, "lat": 38.8922275, "rental_uris": {"ios": "https://dc.lft.to/lastmile_qr_scan", "android": "https://dc.lft.to/lastmile_qr_scan"}, "is_reserved": 0, "fusion_lon": 0.0, "fusion_lat": 0.0, "lon": -77.04686683333334, "name": "58464d694e1ce97ce11ed20a73f13d3d"}, {"bike_id": "e6f2a05197676b2c580d64c68f3e3109", "type": "electric_scooter", "is_disabled": 0, "lat": 38.9017185, "rental_uris": {"ios": "https://dc.lft.to/lastmile_qr_scan", "android": "https://dc.lft.to/lastmile_qr_scan"}, "is_reserved": 0, "fusion_lon": 0.0, "fusion_lat": 0.0, "lon": -77.03211533333334, "name": "e6f2a05197676b2c580d64c68f3e3109"}, {"bike_id": "5421ed228c849649612fcb932d132002", "type": "electric_bike", "is_disabled": 0, "lat": 38.8748025, "rental_uris": {"ios": "https://dc.lft.to/lastmile_qr_scan", "android": "https://dc.lft.to/lastmile_qr_scan"}, "is_reserved": 0, "fusion_lon": 0.0, "fusion_lat": 0.0, "lon": -76.96530833333334, "name": "5421ed228c849649612fcb932d132002"}, {"bike_id": "ff8fff028b0f35a1683ec1dcab6bd9b4", "type": "electric_scooter", "is_disabled": 0, "lat": 38.9215305, "rental_uris": {"ios": "https://dc.lft.to/lastmile_qr_scan", "android": "https://dc.lft.to/lastmile_qr_scan"}, "is_reserved": 0, "fusion_lon": 0.0, "fusion_lat": 0.0, "lon": -77.03516316666666, "name": "ff8fff028b0f35a1683ec1dcab6bd9b4"}, {"bike_id": "82166879bcc3795f9c139a285eac3464", "type": "electric_scooter", "is_disabled": 0, "lat": 38.90503866666667, "rental_uris": {"ios": "https://dc.lft.to/lastmile_qr_scan", "android": "https://dc.lft.to/lastmile_qr_scan"}, "is_reserved": 0, "fusion_lon": 0.0, "fusion_lat": 0.0, "lon": -77.06433666666666, "name": "82166879bcc3795f9c139a285eac3464"}, {"bike_id": "7c5b8bbaa760c95bd2b7b80093572ba7", "type": "electric_scooter", "is_disabled": 0, "lat": 38.91266866666667, "rental_uris": {"ios": "https://dc.lft.to/lastmile_qr_scan", "android": "https://dc.lft.to/lastmile_qr_scan"}, "is_reserved": 0, "fusion_lon": 0.0, "fusion_lat": 0.0, "lon": -77.03862233333334, "name": "7c5b8bbaa760c95bd2b7b80093572ba7"}, {"bike_id": "9c5ba29d1f282c6c1021cfdb188ab830", "type": "electric_scooter", "is_disabled": 0, "lat": 38.89221666666667, "rental_uris": {"ios": "https://dc.lft.to/lastmile_qr_scan", "android": "https://dc.lft.to/lastmile_qr_scan"}, "is_reserved": 0, "fusion_lon": 0.0, "fusion_lat": 0.0, "lon": -77.03168116666667, "name": "9c5ba29d1f282c6c1021cfdb188ab830"}, {"bike_id": "c66bfdc143998639e57457132fed30ec", "type": "electric_scooter", "is_disabled": 0, "lat": 38.911835833333335, "rental_uris": {"ios": "https://dc.lft.to/lastmile_qr_scan", "android": "https://dc.lft.to/lastmile_qr_scan"}, "is_reserved": 0, "fusion_lon": 0.0, "fusion_lat": 0.0, "lon": -77.04031316666666, "name": "c66bfdc143998639e57457132fed30ec"}, {"bike_id": "c33faa51801b07969af120462c8db29b", "type": "electric_scooter", "is_disabled": 0, "lat": 38.91487683333333, "rental_uris": {"ios": "https://dc.lft.to/lastmile_qr_scan", "android": "https://dc.lft.to/lastmile_qr_scan"}, "is_reserved": 0, "fusion_lon": 0.0, "fusion_lat": 0.0, "lon": -77.03761533333333, "name": "c33faa51801b07969af120462c8db29b"}, {"bike_id": "c98d0f4719b01e664180576c4ad35ae5", "type": "electric_scooter", "is_disabled": 0, "lat": 38.894783, "rental_uris": {"ios": "https://dc.lft.to/lastmile_qr_scan", "android": "https://dc.lft.to/lastmile_qr_scan"}, "is_reserved": 0, "fusion_lon": 0.0, "fusion_lat": 0.0, "lon": -76.94860283333334, "name": "c98d0f4719b01e664180576c4ad35ae5"}, {"bike_id": "a0ff5c63842ac855596b63e8b783123b", "type": "electric_scooter", "is_disabled": 0, "lat": 38.90125866666666, "rental_uris": {"ios": "https://dc.lft.to/lastmile_qr_scan", "android": "https://dc.lft.to/lastmile_qr_scan"}, "is_reserved": 0, "fusion_lon": 0.0, "fusion_lat": 0.0, "lon": -77.00320966666666, "name": "a0ff5c63842ac855596b63e8b783123b"}, {"bike_id": "47baa83c722f55028922999e5430e25b", "type": "electric_scooter", "is_disabled": 0, "lat": 38.9132535, "rental_uris": {"ios": "https://dc.lft.to/lastmile_qr_scan", "android": "https://dc.lft.to/lastmile_qr_scan"}, "is_reserved": 0, "fusion_lon": 0.0, "fusion_lat": 0.0, "lon": -77.0318085, "name": "47baa83c722f55028922999e5430e25b"}, {"bike_id": "322a2ee693529464fb12b0d66d4e492d", "type": "electric_scooter", "is_disabled": 0, "lat": 38.907610166666664, "rental_uris": {"ios": "https://dc.lft.to/lastmile_qr_scan", "android": "https://dc.lft.to/lastmile_qr_scan"}, "is_reserved": 0, "fusion_lon": 0.0, "fusion_lat": 0.0, "lon": -77.01702866666666, "name": "322a2ee693529464fb12b0d66d4e492d"}, {"bike_id": "2b419b9ec95d957685aad0026cc43702", "type": "electric_scooter", "is_disabled": 0, "lat": 38.92543333333333, "rental_uris": {"ios": "https://dc.lft.to/lastmile_qr_scan", "android": "https://dc.lft.to/lastmile_qr_scan"}, "is_reserved": 0, "fusion_lon": 0.0, "fusion_lat": 0.0, "lon": -77.038591, "name": "2b419b9ec95d957685aad0026cc43702"}, {"bike_id": "2a00f8cccdf13f8e2683b8378beb6257", "type": "electric_scooter", "is_disabled": 0, "lat": 38.905050333333335, "rental_uris": {"ios": "https://dc.lft.to/lastmile_qr_scan", "android": "https://dc.lft.to/lastmile_qr_scan"}, "is_reserved": 0, "fusion_lon": 0.0, "fusion_lat": 0.0, "lon": -77.01715983333334, "name": "2a00f8cccdf13f8e2683b8378beb6257"}, {"bike_id": "3e6c6bb0730acfc54a25f26011f8d6e2", "type": "electric_scooter", "is_disabled": 0, "lat": 38.902690166666666, "rental_uris": {"ios": "https://dc.lft.to/lastmile_qr_scan", "android": "https://dc.lft.to/lastmile_qr_scan"}, "is_reserved": 0, "fusion_lon": 0.0, "fusion_lat": 0.0, "lon": -77.0547965, "name": "3e6c6bb0730acfc54a25f26011f8d6e2"}, {"bike_id": "ee288356294168fae2920a28f055abfb", "type": "electric_scooter", "is_disabled": 0, "lat": 38.89840183333333, "rental_uris": {"ios": "https://dc.lft.to/lastmile_qr_scan", "android": "https://dc.lft.to/lastmile_qr_scan"}, "is_reserved": 0, "fusion_lon": 0.0, "fusion_lat": 0.0, "lon": -76.94631483333333, "name": "ee288356294168fae2920a28f055abfb"}, {"bike_id": "58581dc499ca9ff117f64d0a8173423a", "type": "electric_scooter", "is_disabled": 0, "lat": 38.88397283333333, "rental_uris": {"ios": "https://dc.lft.to/lastmile_qr_scan", "android": "https://dc.lft.to/lastmile_qr_scan"}, "is_reserved": 0, "fusion_lon": 0.0, "fusion_lat": 0.0, "lon": -77.02952316666666, "name": "58581dc499ca9ff117f64d0a8173423a"}, {"bike_id": "924e94e7fb08c04ea7869c8d4ec578ee", "type": "electric_scooter", "is_disabled": 0, "lat": 38.914217, "rental_uris": {"ios": "https://dc.lft.to/lastmile_qr_scan", "android": "https://dc.lft.to/lastmile_qr_scan"}, "is_reserved": 0, "fusion_lon": 0.0, "fusion_lat": 0.0, "lon": -77.01985533333334, "name": "924e94e7fb08c04ea7869c8d4ec578ee"}, {"bike_id": "a13c6b542ddee857f7ee528c47f20cb5", "type": "electric_scooter", "is_disabled": 0, "lat": 38.92333516666667, "rental_uris": {"ios": "https://dc.lft.to/lastmile_qr_scan", "android": "https://dc.lft.to/lastmile_qr_scan"}, "is_reserved": 0, "fusion_lon": 0.0, "fusion_lat": 0.0, "lon": -77.02301616666666, "name": "a13c6b542ddee857f7ee528c47f20cb5"}, {"bike_id": "7779f5ba2937bb59088ae31a3b2c1360", "type": "electric_scooter", "is_disabled": 0, "lat": 38.922334166666666, "rental_uris": {"ios": "https://dc.lft.to/lastmile_qr_scan", "android": "https://dc.lft.to/lastmile_qr_scan"}, "is_reserved": 0, "fusion_lon": 0.0, "fusion_lat": 0.0, "lon": -77.04256433333333, "name": "7779f5ba2937bb59088ae31a3b2c1360"}, {"bike_id": "0a872415d581cc32e1b628b94403f89a", "type": "electric_scooter", "is_disabled": 0, "lat": 38.91564483333333, "rental_uris": {"ios": "https://dc.lft.to/lastmile_qr_scan", "android": "https://dc.lft.to/lastmile_qr_scan"}, "is_reserved": 0, "fusion_lon": 0.0, "fusion_lat": 0.0, "lon": -77.02017433333333, "name": "0a872415d581cc32e1b628b94403f89a"}, {"bike_id": "bcc5b4e17bd76b498e5cebba687f3edc", "type": "electric_scooter", "is_disabled": 0, "lat": 38.88531866666667, "rental_uris": {"ios": "https://dc.lft.to/lastmile_qr_scan", "android": "https://dc.lft.to/lastmile_qr_scan"}, "is_reserved": 0, "fusion_lon": 0.0, "fusion_lat": 0.0, "lon": -76.99824916666667, "name": "bcc5b4e17bd76b498e5cebba687f3edc"}, {"bike_id": "d91a29f172022131c3822304c6a5e3c7", "type": "electric_scooter", "is_disabled": 0, "lat": 38.91384216666667, "rental_uris": {"ios": "https://dc.lft.to/lastmile_qr_scan", "android": "https://dc.lft.to/lastmile_qr_scan"}, "is_reserved": 0, "fusion_lon": 0.0, "fusion_lat": 0.0, "lon": -77.03210383333334, "name": "d91a29f172022131c3822304c6a5e3c7"}, {"bike_id": "6fc4fc0ba02fd60e604a6e2127a47b24", "type": "electric_scooter", "is_disabled": 0, "lat": 38.920786, "rental_uris": {"ios": "https://dc.lft.to/lastmile_qr_scan", "android": "https://dc.lft.to/lastmile_qr_scan"}, "is_reserved": 0, "fusion_lon": 0.0, "fusion_lat": 0.0, "lon": -77.04194383333333, "name": "6fc4fc0ba02fd60e604a6e2127a47b24"}, {"bike_id": "342bca8653cc76d16d1d4a13d7182be2", "type": "electric_scooter", "is_disabled": 0, "lat": 38.88710783333333, "rental_uris": {"ios": "https://dc.lft.to/lastmile_qr_scan", "android": "https://dc.lft.to/lastmile_qr_scan"}, "is_reserved": 0, "fusion_lon": 0.0, "fusion_lat": 0.0, "lon": -77.01776583333333, "name": "342bca8653cc76d16d1d4a13d7182be2"}, {"bike_id": "e4ed3dec5046915ccb58cc3a0539c4dc", "type": "electric_scooter", "is_disabled": 0, "lat": 38.931934, "rental_uris": {"ios": "https://dc.lft.to/lastmile_qr_scan", "android": "https://dc.lft.to/lastmile_qr_scan"}, "is_reserved": 0, "fusion_lon": 0.0, "fusion_lat": 0.0, "lon": -77.02387983333334, "name": "e4ed3dec5046915ccb58cc3a0539c4dc"}, {"bike_id": "4378a5d7c3c389e85052a119288471bc", "type": "electric_scooter", "is_disabled": 0, "lat": 38.90819416666667, "rental_uris": {"ios": "https://dc.lft.to/lastmile_qr_scan", "android": "https://dc.lft.to/lastmile_qr_scan"}, "is_reserved": 0, "fusion_lon": 0.0, "fusion_lat": 0.0, "lon": -76.99708566666666, "name": "4378a5d7c3c389e85052a119288471bc"}, {"bike_id": "8489c7273ee98017ff4ba3596b803509", "type": "electric_scooter", "is_disabled": 0, "lat": 38.923363333333334, "rental_uris": {"ios": "https://dc.lft.to/lastmile_qr_scan", "android": "https://dc.lft.to/lastmile_qr_scan"}, "is_reserved": 0, "fusion_lon": 0.0, "fusion_lat": 0.0, "lon": -77.0461695, "name": "8489c7273ee98017ff4ba3596b803509"}, {"bike_id": "21a87200e43cb156dc052d6a9c682969", "type": "electric_scooter", "is_disabled": 0, "lat": 38.917722166666664, "rental_uris": {"ios": "https://dc.lft.to/lastmile_qr_scan", "android": "https://dc.lft.to/lastmile_qr_scan"}, "is_reserved": 0, "fusion_lon": 0.0, "fusion_lat": 0.0, "lon": -77.02949533333333, "name": "21a87200e43cb156dc052d6a9c682969"}, {"bike_id": "a178b22df4ba925ddf07e05fb9408845", "type": "electric_scooter", "is_disabled": 0, "lat": 38.88301083333333, "rental_uris": {"ios": "https://dc.lft.to/lastmile_qr_scan", "android": "https://dc.lft.to/lastmile_qr_scan"}, "is_reserved": 0, "fusion_lon": 0.0, "fusion_lat": 0.0, "lon": -76.942079, "name": "a178b22df4ba925ddf07e05fb9408845"}, {"bike_id": "0c38af902b22085d7d9a44b5a29cf9f8", "type": "electric_scooter", "is_disabled": 0, "lat": 38.91915266666667, "rental_uris": {"ios": "https://dc.lft.to/lastmile_qr_scan", "android": "https://dc.lft.to/lastmile_qr_scan"}, "is_reserved": 0, "fusion_lon": 0.0, "fusion_lat": 0.0, "lon": -77.030245, "name": "0c38af902b22085d7d9a44b5a29cf9f8"}, {"bike_id": "c159f5362dc91edfc8e0c398742cdfc2", "type": "electric_scooter", "is_disabled": 0, "lat": 38.921512666666665, "rental_uris": {"ios": "https://dc.lft.to/lastmile_qr_scan", "android": "https://dc.lft.to/lastmile_qr_scan"}, "is_reserved": 0, "fusion_lon": 0.0, "fusion_lat": 0.0, "lon": -77.04235233333333, "name": "c159f5362dc91edfc8e0c398742cdfc2"}, {"bike_id": "52ed301882779f7a6337c8f683f1e457", "type": "electric_scooter", "is_disabled": 0, "lat": 38.854543, "rental_uris": {"ios": "https://dc.lft.to/lastmile_qr_scan", "android": "https://dc.lft.to/lastmile_qr_scan"}, "is_reserved": 0, "fusion_lon": 0.0, "fusion_lat": 0.0, "lon": -76.9723935, "name": "52ed301882779f7a6337c8f683f1e457"}, {"bike_id": "3177707bc475d8135b14cedb3d4c9ed0", "type": "electric_scooter", "is_disabled": 0, "lat": 38.920591, "rental_uris": {"ios": "https://dc.lft.to/lastmile_qr_scan", "android": "https://dc.lft.to/lastmile_qr_scan"}, "is_reserved": 0, "fusion_lon": 0.0, "fusion_lat": 0.0, "lon": -77.02360166666666, "name": "3177707bc475d8135b14cedb3d4c9ed0"}, {"bike_id": "292b7d3a4d95adb241d18d3a84af4e0e", "type": "electric_scooter", "is_disabled": 0, "lat": 38.915966166666664, "rental_uris": {"ios": "https://dc.lft.to/lastmile_qr_scan", "android": "https://dc.lft.to/lastmile_qr_scan"}, "is_reserved": 0, "fusion_lon": 0.0, "fusion_lat": 0.0, "lon": -77.00194966666666, "name": "292b7d3a4d95adb241d18d3a84af4e0e"}, {"bike_id": "1bcc0f91caeb4ca61643e756b6e633cb", "type": "electric_scooter", "is_disabled": 0, "lat": 38.92325133333333, "rental_uris": {"ios": "https://dc.lft.to/lastmile_qr_scan", "android": "https://dc.lft.to/lastmile_qr_scan"}, "is_reserved": 0, "fusion_lon": 0.0, "fusion_lat": 0.0, "lon": -77.02960766666666, "name": "1bcc0f91caeb4ca61643e756b6e633cb"}, {"bike_id": "000007acac5f3c45f85ea418f0da5f71", "type": "electric_scooter", "is_disabled": 0, "lat": 38.915541833333336, "rental_uris": {"ios": "https://dc.lft.to/lastmile_qr_scan", "android": "https://dc.lft.to/lastmile_qr_scan"}, "is_reserved": 0, "fusion_lon": 0.0, "fusion_lat": 0.0, "lon": -77.03324966666666, "name": "000007acac5f3c45f85ea418f0da5f71"}, {"bike_id": "d836b5cde0d87674a8b4e863b122b5a1", "type": "electric_scooter", "is_disabled": 0, "lat": 38.921473, "rental_uris": {"ios": "https://dc.lft.to/lastmile_qr_scan", "android": "https://dc.lft.to/lastmile_qr_scan"}, "is_reserved": 0, "fusion_lon": 0.0, "fusion_lat": 0.0, "lon": -77.03439966666667, "name": "d836b5cde0d87674a8b4e863b122b5a1"}, {"bike_id": "79834cad424ed386ca25820d26d1485d", "type": "electric_scooter", "is_disabled": 0, "lat": 38.924754, "rental_uris": {"ios": "https://dc.lft.to/lastmile_qr_scan", "android": "https://dc.lft.to/lastmile_qr_scan"}, "is_reserved": 0, "fusion_lon": 0.0, "fusion_lat": 0.0, "lon": -77.03790416666666, "name": "79834cad424ed386ca25820d26d1485d"}, {"bike_id": "1e0c3f7bec9520ff55be81fe46de4a74", "type": "electric_scooter", "is_disabled": 0, "lat": 38.92357716666667, "rental_uris": {"ios": "https://dc.lft.to/lastmile_qr_scan", "android": "https://dc.lft.to/lastmile_qr_scan"}, "is_reserved": 0, "fusion_lon": 0.0, "fusion_lat": 0.0, "lon": -77.0764425, "name": "1e0c3f7bec9520ff55be81fe46de4a74"}, {"bike_id": "b481b0385442c98d87f85cb01e34ca3b", "type": "electric_scooter", "is_disabled": 0, "lat": 38.965575333333334, "rental_uris": {"ios": "https://dc.lft.to/lastmile_qr_scan", "android": "https://dc.lft.to/lastmile_qr_scan"}, "is_reserved": 0, "fusion_lon": 0.0, "fusion_lat": 0.0, "lon": -77.00201216666666, "name": "b481b0385442c98d87f85cb01e34ca3b"}, {"bike_id": "bd130fe5613ba579b37a1af232f87840", "type": "electric_scooter", "is_disabled": 0, "lat": 38.91596416666667, "rental_uris": {"ios": "https://dc.lft.to/lastmile_qr_scan", "android": "https://dc.lft.to/lastmile_qr_scan"}, "is_reserved": 0, "fusion_lon": 0.0, "fusion_lat": 0.0, "lon": -77.021382, "name": "bd130fe5613ba579b37a1af232f87840"}, {"bike_id": "8f1b135c50818b3d366af5140730915c", "type": "electric_scooter", "is_disabled": 0, "lat": 38.91407133333333, "rental_uris": {"ios": "https://dc.lft.to/lastmile_qr_scan", "android": "https://dc.lft.to/lastmile_qr_scan"}, "is_reserved": 0, "fusion_lon": 0.0, "fusion_lat": 0.0, "lon": -77.039975, "name": "8f1b135c50818b3d366af5140730915c"}, {"bike_id": "8815c972d40db2a0b325888669ba4430", "type": "electric_scooter", "is_disabled": 0, "lat": 38.908358, "rental_uris": {"ios": "https://dc.lft.to/lastmile_qr_scan", "android": "https://dc.lft.to/lastmile_qr_scan"}, "is_reserved": 0, "fusion_lon": 0.0, "fusion_lat": 0.0, "lon": -77.02194933333334, "name": "8815c972d40db2a0b325888669ba4430"}, {"bike_id": "34da39964d04e59edc583dcda7b300b2", "type": "electric_scooter", "is_disabled": 0, "lat": 38.893437, "rental_uris": {"ios": "https://dc.lft.to/lastmile_qr_scan", "android": "https://dc.lft.to/lastmile_qr_scan"}, "is_reserved": 0, "fusion_lon": 0.0, "fusion_lat": 0.0, "lon": -76.99270983333334, "name": "34da39964d04e59edc583dcda7b300b2"}, {"bike_id": "b45f934c3b0d3410f2f9f719438e3839", "type": "electric_scooter", "is_disabled": 0, "lat": 38.868276333333334, "rental_uris": {"ios": "https://dc.lft.to/lastmile_qr_scan", "android": "https://dc.lft.to/lastmile_qr_scan"}, "is_reserved": 0, "fusion_lon": 0.0, "fusion_lat": 0.0, "lon": -77.01147233333333, "name": "b45f934c3b0d3410f2f9f719438e3839"}, {"bike_id": "f3189ec2847ea5da594713b65ee9ef38", "type": "electric_bike", "is_disabled": 0, "lat": 39.0374835, "rental_uris": {"ios": "https://dc.lft.to/lastmile_qr_scan", "android": "https://dc.lft.to/lastmile_qr_scan"}, "is_reserved": 0, "fusion_lon": 0.0, "fusion_lat": 0.0, "lon": -77.05471283333334, "name": "f3189ec2847ea5da594713b65ee9ef38"}, {"bike_id": "899bc753b7b38b4912dc6fdd90979156", "type": "electric_scooter", "is_disabled": 0, "lat": 38.8972845, "rental_uris": {"ios": "https://dc.lft.to/lastmile_qr_scan", "android": "https://dc.lft.to/lastmile_qr_scan"}, "is_reserved": 0, "fusion_lon": 0.0, "fusion_lat": 0.0, "lon": -77.046996, "name": "899bc753b7b38b4912dc6fdd90979156"}, {"bike_id": "19e4c1cd7c75f13372ebaadc9b53b721", "type": "electric_bike", "is_disabled": 0, "lat": 38.9082625, "rental_uris": {"ios": "https://dc.lft.to/lastmile_qr_scan", "android": "https://dc.lft.to/lastmile_qr_scan"}, "is_reserved": 0, "fusion_lon": 0.0, "fusion_lat": 0.0, "lon": -76.94156266666667, "name": "19e4c1cd7c75f13372ebaadc9b53b721"}, {"bike_id": "625a204bceb0ea64ba06a14370abe7d7", "type": "electric_scooter", "is_disabled": 0, "lat": 38.909972, "rental_uris": {"ios": "https://dc.lft.to/lastmile_qr_scan", "android": "https://dc.lft.to/lastmile_qr_scan"}, "is_reserved": 0, "fusion_lon": 0.0, "fusion_lat": 0.0, "lon": -77.0400285, "name": "625a204bceb0ea64ba06a14370abe7d7"}, {"bike_id": "c9b0f59ced8ff5412558735210a858e1", "type": "electric_scooter", "is_disabled": 0, "lat": 38.905603, "rental_uris": {"ios": "https://dc.lft.to/lastmile_qr_scan", "android": "https://dc.lft.to/lastmile_qr_scan"}, "is_reserved": 0, "fusion_lon": 0.0, "fusion_lat": 0.0, "lon": -77.01796916666666, "name": "c9b0f59ced8ff5412558735210a858e1"}, {"bike_id": "769b1cd34ada18f144b8ab0e2ee656d6", "type": "electric_scooter", "is_disabled": 0, "lat": 38.917070333333335, "rental_uris": {"ios": "https://dc.lft.to/lastmile_qr_scan", "android": "https://dc.lft.to/lastmile_qr_scan"}, "is_reserved": 0, "fusion_lon": 0.0, "fusion_lat": 0.0, "lon": -77.02475766666667, "name": "769b1cd34ada18f144b8ab0e2ee656d6"}, {"bike_id": "9e2c10716c525be7e9ed316154435ddb", "type": "electric_bike", "is_disabled": 0, "lat": 38.88130916666667, "rental_uris": {"ios": "https://dc.lft.to/lastmile_qr_scan", "android": "https://dc.lft.to/lastmile_qr_scan"}, "is_reserved": 0, "fusion_lon": 0.0, "fusion_lat": 0.0, "lon": -77.09349983333334, "name": "9e2c10716c525be7e9ed316154435ddb"}, {"bike_id": "c15a849f7169eed4e69ebc3168b74869", "type": "electric_bike", "is_disabled": 0, "lat": 39.054979, "rental_uris": {"ios": "https://dc.lft.to/lastmile_qr_scan", "android": "https://dc.lft.to/lastmile_qr_scan"}, "is_reserved": 0, "fusion_lon": 0.0, "fusion_lat": 0.0, "lon": -77.1178865, "name": "c15a849f7169eed4e69ebc3168b74869"}, {"bike_id": "d8a4377163ea94fe6f156632aeef458b", "type": "electric_scooter", "is_disabled": 0, "lat": 38.956182166666665, "rental_uris": {"ios": "https://dc.lft.to/lastmile_qr_scan", "android": "https://dc.lft.to/lastmile_qr_scan"}, "is_reserved": 0, "fusion_lon": 0.0, "fusion_lat": 0.0, "lon": -77.0102555, "name": "d8a4377163ea94fe6f156632aeef458b"}, {"bike_id": "9027b7c1b6edac9a39f69232b2cb5873", "type": "electric_scooter", "is_disabled": 0, "lat": 38.9204285, "rental_uris": {"ios": "https://dc.lft.to/lastmile_qr_scan", "android": "https://dc.lft.to/lastmile_qr_scan"}, "is_reserved": 0, "fusion_lon": 0.0, "fusion_lat": 0.0, "lon": -77.03393716666666, "name": "9027b7c1b6edac9a39f69232b2cb5873"}, {"bike_id": "fe92485cdb5c2a9540f2a8cc65c9ffb2", "type": "electric_scooter", "is_disabled": 0, "lat": 38.902299166666666, "rental_uris": {"ios": "https://dc.lft.to/lastmile_qr_scan", "android": "https://dc.lft.to/lastmile_qr_scan"}, "is_reserved": 0, "fusion_lon": 0.0, "fusion_lat": 0.0, "lon": -77.05341833333334, "name": "fe92485cdb5c2a9540f2a8cc65c9ffb2"}, {"bike_id": "db69028fdef4b6fbb4d984ba34a8826d", "type": "electric_scooter", "is_disabled": 0, "lat": 38.91727266666667, "rental_uris": {"ios": "https://dc.lft.to/lastmile_qr_scan", "android": "https://dc.lft.to/lastmile_qr_scan"}, "is_reserved": 0, "fusion_lon": 0.0, "fusion_lat": 0.0, "lon": -77.01923, "name": "db69028fdef4b6fbb4d984ba34a8826d"}, {"bike_id": "11eb2c9847c6e6194efe9167a2215077", "type": "electric_scooter", "is_disabled": 0, "lat": 38.90183716666667, "rental_uris": {"ios": "https://dc.lft.to/lastmile_qr_scan", "android": "https://dc.lft.to/lastmile_qr_scan"}, "is_reserved": 0, "fusion_lon": 0.0, "fusion_lat": 0.0, "lon": -77.02101233333333, "name": "11eb2c9847c6e6194efe9167a2215077"}, {"bike_id": "1be0f0debeab1597835c442c296f7f53", "type": "electric_scooter", "is_disabled": 0, "lat": 38.87625633333333, "rental_uris": {"ios": "https://dc.lft.to/lastmile_qr_scan", "android": "https://dc.lft.to/lastmile_qr_scan"}, "is_reserved": 0, "fusion_lon": 0.0, "fusion_lat": 0.0, "lon": -76.9652885, "name": "1be0f0debeab1597835c442c296f7f53"}, {"bike_id": "28ff5122889a2439a63a2e16938e8264", "type": "electric_scooter", "is_disabled": 0, "lat": 38.91382483333334, "rental_uris": {"ios": "https://dc.lft.to/lastmile_qr_scan", "android": "https://dc.lft.to/lastmile_qr_scan"}, "is_reserved": 0, "fusion_lon": 0.0, "fusion_lat": 0.0, "lon": -77.0321, "name": "28ff5122889a2439a63a2e16938e8264"}, {"bike_id": "9f7ab486d00393dee07d8a4b2834de8e", "type": "electric_scooter", "is_disabled": 0, "lat": 38.87505566666667, "rental_uris": {"ios": "https://dc.lft.to/lastmile_qr_scan", "android": "https://dc.lft.to/lastmile_qr_scan"}, "is_reserved": 0, "fusion_lon": 0.0, "fusion_lat": 0.0, "lon": -77.01250433333334, "name": "9f7ab486d00393dee07d8a4b2834de8e"}, {"bike_id": "d2122a8b417bcb5a871b2f846ebe4db5", "type": "electric_scooter", "is_disabled": 0, "lat": 38.8767225, "rental_uris": {"ios": "https://dc.lft.to/lastmile_qr_scan", "android": "https://dc.lft.to/lastmile_qr_scan"}, "is_reserved": 0, "fusion_lon": 0.0, "fusion_lat": 0.0, "lon": -77.0081345, "name": "d2122a8b417bcb5a871b2f846ebe4db5"}, {"bike_id": "a2148109bca524c8e3c274f03c2c49cf", "type": "electric_scooter", "is_disabled": 0, "lat": 38.94015016666667, "rental_uris": {"ios": "https://dc.lft.to/lastmile_qr_scan", "android": "https://dc.lft.to/lastmile_qr_scan"}, "is_reserved": 0, "fusion_lon": 0.0, "fusion_lat": 0.0, "lon": -77.02636983333333, "name": "a2148109bca524c8e3c274f03c2c49cf"}, {"bike_id": "d47ba323d91177dbbad8b2b5b1b7d4b0", "type": "electric_scooter", "is_disabled": 0, "lat": 38.9206255, "rental_uris": {"ios": "https://dc.lft.to/lastmile_qr_scan", "android": "https://dc.lft.to/lastmile_qr_scan"}, "is_reserved": 0, "fusion_lon": 0.0, "fusion_lat": 0.0, "lon": -76.99874233333334, "name": "d47ba323d91177dbbad8b2b5b1b7d4b0"}, {"bike_id": "6f73ddf602ba5b05b1d2b2127c8ec502", "type": "electric_scooter", "is_disabled": 0, "lat": 38.902674833333336, "rental_uris": {"ios": "https://dc.lft.to/lastmile_qr_scan", "android": "https://dc.lft.to/lastmile_qr_scan"}, "is_reserved": 0, "fusion_lon": 0.0, "fusion_lat": 0.0, "lon": -77.03087916666667, "name": "6f73ddf602ba5b05b1d2b2127c8ec502"}, {"bike_id": "bc2851eb3cb35b488613a1667ab3b3bc", "type": "electric_scooter", "is_disabled": 0, "lat": 38.905683833333335, "rental_uris": {"ios": "https://dc.lft.to/lastmile_qr_scan", "android": "https://dc.lft.to/lastmile_qr_scan"}, "is_reserved": 0, "fusion_lon": 0.0, "fusion_lat": 0.0, "lon": -76.97780933333334, "name": "bc2851eb3cb35b488613a1667ab3b3bc"}, {"bike_id": "b244d0e2965c9cb25b465bb8177284bc", "type": "electric_bike", "is_disabled": 0, "lat": 38.832426833333336, "rental_uris": {"ios": "https://dc.lft.to/lastmile_qr_scan", "android": "https://dc.lft.to/lastmile_qr_scan"}, "is_reserved": 0, "fusion_lon": 0.0, "fusion_lat": 0.0, "lon": -76.94632733333333, "name": "b244d0e2965c9cb25b465bb8177284bc"}, {"bike_id": "ac39c93c2f80674d40b7fc128f0a996f", "type": "electric_scooter", "is_disabled": 0, "lat": 38.939932, "rental_uris": {"ios": "https://dc.lft.to/lastmile_qr_scan", "android": "https://dc.lft.to/lastmile_qr_scan"}, "is_reserved": 0, "fusion_lon": 0.0, "fusion_lat": 0.0, "lon": -77.016934, "name": "ac39c93c2f80674d40b7fc128f0a996f"}, {"bike_id": "e51fb9e4cb301dc0e32b5580a173f91e", "type": "electric_scooter", "is_disabled": 0, "lat": 38.877528, "rental_uris": {"ios": "https://dc.lft.to/lastmile_qr_scan", "android": "https://dc.lft.to/lastmile_qr_scan"}, "is_reserved": 0, "fusion_lon": 0.0, "fusion_lat": 0.0, "lon": -76.98685816666666, "name": "e51fb9e4cb301dc0e32b5580a173f91e"}, {"bike_id": "f212bcc5d4a37e84418d5adb14b35546", "type": "electric_scooter", "is_disabled": 0, "lat": 38.90275966666667, "rental_uris": {"ios": "https://dc.lft.to/lastmile_qr_scan", "android": "https://dc.lft.to/lastmile_qr_scan"}, "is_reserved": 0, "fusion_lon": 0.0, "fusion_lat": 0.0, "lon": -76.97030733333334, "name": "f212bcc5d4a37e84418d5adb14b35546"}, {"bike_id": "d8aa284180be3058635fd069b338deea", "type": "electric_scooter", "is_disabled": 0, "lat": 38.91412116666667, "rental_uris": {"ios": "https://dc.lft.to/lastmile_qr_scan", "android": "https://dc.lft.to/lastmile_qr_scan"}, "is_reserved": 0, "fusion_lon": 0.0, "fusion_lat": 0.0, "lon": -77.02405983333334, "name": "d8aa284180be3058635fd069b338deea"}, {"bike_id": "3e312b9b1324d6b600bf2a9b52224762", "type": "electric_scooter", "is_disabled": 0, "lat": 38.895701, "rental_uris": {"ios": "https://dc.lft.to/lastmile_qr_scan", "android": "https://dc.lft.to/lastmile_qr_scan"}, "is_reserved": 0, "fusion_lon": 0.0, "fusion_lat": 0.0, "lon": -76.93026733333333, "name": "3e312b9b1324d6b600bf2a9b52224762"}, {"bike_id": "7f8df22d896bf83e26acb45131973b97", "type": "electric_scooter", "is_disabled": 0, "lat": 38.903531, "rental_uris": {"ios": "https://dc.lft.to/lastmile_qr_scan", "android": "https://dc.lft.to/lastmile_qr_scan"}, "is_reserved": 0, "fusion_lon": 0.0, "fusion_lat": 0.0, "lon": -77.03148633333333, "name": "7f8df22d896bf83e26acb45131973b97"}, {"bike_id": "5f3f517ff0dec06977fad866456b1a71", "type": "electric_scooter", "is_disabled": 0, "lat": 38.921809833333334, "rental_uris": {"ios": "https://dc.lft.to/lastmile_qr_scan", "android": "https://dc.lft.to/lastmile_qr_scan"}, "is_reserved": 0, "fusion_lon": 0.0, "fusion_lat": 0.0, "lon": -77.0266505, "name": "5f3f517ff0dec06977fad866456b1a71"}, {"bike_id": "d0a231e7de859d4d261e39f70d7bcfee", "type": "electric_bike", "is_disabled": 0, "lat": 39.03432383333333, "rental_uris": {"ios": "https://dc.lft.to/lastmile_qr_scan", "android": "https://dc.lft.to/lastmile_qr_scan"}, "is_reserved": 0, "fusion_lon": 0.0, "fusion_lat": 0.0, "lon": -77.0430785, "name": "d0a231e7de859d4d261e39f70d7bcfee"}, {"bike_id": "6aade8a67fd5f4e1c0bba00ed99233cd", "type": "electric_scooter", "is_disabled": 0, "lat": 38.91853533333333, "rental_uris": {"ios": "https://dc.lft.to/lastmile_qr_scan", "android": "https://dc.lft.to/lastmile_qr_scan"}, "is_reserved": 0, "fusion_lon": 0.0, "fusion_lat": 0.0, "lon": -77.02528483333333, "name": "6aade8a67fd5f4e1c0bba00ed99233cd"}, {"bike_id": "c7ca8e4ed9ade2ae4f739be1fab17951", "type": "electric_scooter", "is_disabled": 0, "lat": 38.92714616666667, "rental_uris": {"ios": "https://dc.lft.to/lastmile_qr_scan", "android": "https://dc.lft.to/lastmile_qr_scan"}, "is_reserved": 0, "fusion_lon": 0.0, "fusion_lat": 0.0, "lon": -77.02102616666667, "name": "c7ca8e4ed9ade2ae4f739be1fab17951"}, {"bike_id": "4b7ab20d3a888157748ba52aa09df155", "type": "electric_scooter", "is_disabled": 0, "lat": 38.900741333333336, "rental_uris": {"ios": "https://dc.lft.to/lastmile_qr_scan", "android": "https://dc.lft.to/lastmile_qr_scan"}, "is_reserved": 0, "fusion_lon": 0.0, "fusion_lat": 0.0, "lon": -77.01817766666667, "name": "4b7ab20d3a888157748ba52aa09df155"}, {"bike_id": "502d8754dcfaa42e92c6816bff6f1ff3", "type": "electric_scooter", "is_disabled": 0, "lat": 38.898321333333335, "rental_uris": {"ios": "https://dc.lft.to/lastmile_qr_scan", "android": "https://dc.lft.to/lastmile_qr_scan"}, "is_reserved": 0, "fusion_lon": 0.0, "fusion_lat": 0.0, "lon": -77.03043116666667, "name": "502d8754dcfaa42e92c6816bff6f1ff3"}, {"bike_id": "22fa5e652ccda626a65f592970f02287", "type": "electric_scooter", "is_disabled": 0, "lat": 38.91488666666667, "rental_uris": {"ios": "https://dc.lft.to/lastmile_qr_scan", "android": "https://dc.lft.to/lastmile_qr_scan"}, "is_reserved": 0, "fusion_lon": 0.0, "fusion_lat": 0.0, "lon": -77.02188466666666, "name": "22fa5e652ccda626a65f592970f02287"}, {"bike_id": "5ba89111e1a5bcb77ca51b30a2fe70e5", "type": "electric_scooter", "is_disabled": 0, "lat": 38.90061566666667, "rental_uris": {"ios": "https://dc.lft.to/lastmile_qr_scan", "android": "https://dc.lft.to/lastmile_qr_scan"}, "is_reserved": 0, "fusion_lon": 0.0, "fusion_lat": 0.0, "lon": -77.04613916666666, "name": "5ba89111e1a5bcb77ca51b30a2fe70e5"}, {"bike_id": "2c7b7aa6bd28e54536e10e4299b7cb6f", "type": "electric_scooter", "is_disabled": 0, "lat": 38.916939, "rental_uris": {"ios": "https://dc.lft.to/lastmile_qr_scan", "android": "https://dc.lft.to/lastmile_qr_scan"}, "is_reserved": 0, "fusion_lon": 0.0, "fusion_lat": 0.0, "lon": -77.03163066666667, "name": "2c7b7aa6bd28e54536e10e4299b7cb6f"}, {"bike_id": "ff7f144f2debdc0b0c47506ddea277b7", "type": "electric_bike", "is_disabled": 0, "lat": 38.8729435, "rental_uris": {"ios": "https://dc.lft.to/lastmile_qr_scan", "android": "https://dc.lft.to/lastmile_qr_scan"}, "is_reserved": 0, "fusion_lon": 0.0, "fusion_lat": 0.0, "lon": -77.139262, "name": "ff7f144f2debdc0b0c47506ddea277b7"}, {"bike_id": "5a992ed9eb086d10704d9c638a978a50", "type": "electric_scooter", "is_disabled": 0, "lat": 38.90669033333333, "rental_uris": {"ios": "https://dc.lft.to/lastmile_qr_scan", "android": "https://dc.lft.to/lastmile_qr_scan"}, "is_reserved": 0, "fusion_lon": 0.0, "fusion_lat": 0.0, "lon": -77.02714016666667, "name": "5a992ed9eb086d10704d9c638a978a50"}, {"bike_id": "c47201dfc55e98c79cd5e9b321d7f3ec", "type": "electric_scooter", "is_disabled": 0, "lat": 38.91565633333333, "rental_uris": {"ios": "https://dc.lft.to/lastmile_qr_scan", "android": "https://dc.lft.to/lastmile_qr_scan"}, "is_reserved": 0, "fusion_lon": 0.0, "fusion_lat": 0.0, "lon": -77.02714116666667, "name": "c47201dfc55e98c79cd5e9b321d7f3ec"}, {"bike_id": "8231ff67ee9a3255b6dcf1748963be73", "type": "electric_scooter", "is_disabled": 0, "lat": 38.92070733333333, "rental_uris": {"ios": "https://dc.lft.to/lastmile_qr_scan", "android": "https://dc.lft.to/lastmile_qr_scan"}, "is_reserved": 0, "fusion_lon": 0.0, "fusion_lat": 0.0, "lon": -77.0240515, "name": "8231ff67ee9a3255b6dcf1748963be73"}, {"bike_id": "2a2be18ffc9edf712cb4dc903ee6a948", "type": "electric_scooter", "is_disabled": 0, "lat": 38.9242645, "rental_uris": {"ios": "https://dc.lft.to/lastmile_qr_scan", "android": "https://dc.lft.to/lastmile_qr_scan"}, "is_reserved": 0, "fusion_lon": 0.0, "fusion_lat": 0.0, "lon": -77.042425, "name": "2a2be18ffc9edf712cb4dc903ee6a948"}, {"bike_id": "106b5f9d068fa408a4c42a6b0c89dafc", "type": "electric_scooter", "is_disabled": 0, "lat": 38.896052166666664, "rental_uris": {"ios": "https://dc.lft.to/lastmile_qr_scan", "android": "https://dc.lft.to/lastmile_qr_scan"}, "is_reserved": 0, "fusion_lon": 0.0, "fusion_lat": 0.0, "lon": -77.0448905, "name": "106b5f9d068fa408a4c42a6b0c89dafc"}, {"bike_id": "ae8c31690d02ac6fbe4fafb97758f4a8", "type": "electric_scooter", "is_disabled": 0, "lat": 38.9114045, "rental_uris": {"ios": "https://dc.lft.to/lastmile_qr_scan", "android": "https://dc.lft.to/lastmile_qr_scan"}, "is_reserved": 0, "fusion_lon": 0.0, "fusion_lat": 0.0, "lon": -76.99012016666667, "name": "ae8c31690d02ac6fbe4fafb97758f4a8"}, {"bike_id": "4c65d8bd83507d82d1262701a6d70117", "type": "electric_scooter", "is_disabled": 0, "lat": 38.91820666666667, "rental_uris": {"ios": "https://dc.lft.to/lastmile_qr_scan", "android": "https://dc.lft.to/lastmile_qr_scan"}, "is_reserved": 0, "fusion_lon": 0.0, "fusion_lat": 0.0, "lon": -77.02530116666667, "name": "4c65d8bd83507d82d1262701a6d70117"}, {"bike_id": "cf1f16f1a3f362e355660895caa5a1ea", "type": "electric_bike", "is_disabled": 0, "lat": 38.931432666666666, "rental_uris": {"ios": "https://dc.lft.to/lastmile_qr_scan", "android": "https://dc.lft.to/lastmile_qr_scan"}, "is_reserved": 0, "fusion_lon": 0.0, "fusion_lat": 0.0, "lon": -77.00075066666666, "name": "cf1f16f1a3f362e355660895caa5a1ea"}, {"bike_id": "41868a9f11942b6336f798fb5f8300ed", "type": "electric_scooter", "is_disabled": 0, "lat": 38.95731966666666, "rental_uris": {"ios": "https://dc.lft.to/lastmile_qr_scan", "android": "https://dc.lft.to/lastmile_qr_scan"}, "is_reserved": 0, "fusion_lon": 0.0, "fusion_lat": 0.0, "lon": -77.0279545, "name": "41868a9f11942b6336f798fb5f8300ed"}, {"bike_id": "17a2209f3582dbabc53d9b92533eddbd", "type": "electric_bike", "is_disabled": 0, "lat": 38.853534833333335, "rental_uris": {"ios": "https://dc.lft.to/lastmile_qr_scan", "android": "https://dc.lft.to/lastmile_qr_scan"}, "is_reserved": 0, "fusion_lon": 0.0, "fusion_lat": 0.0, "lon": -77.08683766666667, "name": "17a2209f3582dbabc53d9b92533eddbd"}, {"bike_id": "8c04e51c92697a2f2cc3348ba3b7180b", "type": "electric_scooter", "is_disabled": 0, "lat": 38.922376, "rental_uris": {"ios": "https://dc.lft.to/lastmile_qr_scan", "android": "https://dc.lft.to/lastmile_qr_scan"}, "is_reserved": 0, "fusion_lon": 0.0, "fusion_lat": 0.0, "lon": -77.0298415, "name": "8c04e51c92697a2f2cc3348ba3b7180b"}, {"bike_id": "a251cb6c605308cb5843a33dad541dbf", "type": "electric_scooter", "is_disabled": 0, "lat": 38.86503366666667, "rental_uris": {"ios": "https://dc.lft.to/lastmile_qr_scan", "android": "https://dc.lft.to/lastmile_qr_scan"}, "is_reserved": 0, "fusion_lon": 0.0, "fusion_lat": 0.0, "lon": -76.99003383333333, "name": "a251cb6c605308cb5843a33dad541dbf"}, {"bike_id": "ec9ebcc90c304fc176088099fd650de2", "type": "electric_scooter", "is_disabled": 0, "lat": 38.92277683333333, "rental_uris": {"ios": "https://dc.lft.to/lastmile_qr_scan", "android": "https://dc.lft.to/lastmile_qr_scan"}, "is_reserved": 0, "fusion_lon": 0.0, "fusion_lat": 0.0, "lon": -77.04231783333333, "name": "ec9ebcc90c304fc176088099fd650de2"}, {"bike_id": "b6b8db6e3e1517d035740b5ca8cf5af9", "type": "electric_scooter", "is_disabled": 0, "lat": 38.874944166666666, "rental_uris": {"ios": "https://dc.lft.to/lastmile_qr_scan", "android": "https://dc.lft.to/lastmile_qr_scan"}, "is_reserved": 0, "fusion_lon": 0.0, "fusion_lat": 0.0, "lon": -77.00104116666667, "name": "b6b8db6e3e1517d035740b5ca8cf5af9"}, {"bike_id": "afcb6bfa12b243761af9945b722187eb", "type": "electric_scooter", "is_disabled": 0, "lat": 38.91550183333333, "rental_uris": {"ios": "https://dc.lft.to/lastmile_qr_scan", "android": "https://dc.lft.to/lastmile_qr_scan"}, "is_reserved": 0, "fusion_lon": 0.0, "fusion_lat": 0.0, "lon": -77.02561066666667, "name": "afcb6bfa12b243761af9945b722187eb"}, {"bike_id": "91b93f54b17b929bdd999b88b1ae53d4", "type": "electric_scooter", "is_disabled": 0, "lat": 38.892253333333336, "rental_uris": {"ios": "https://dc.lft.to/lastmile_qr_scan", "android": "https://dc.lft.to/lastmile_qr_scan"}, "is_reserved": 0, "fusion_lon": 0.0, "fusion_lat": 0.0, "lon": -77.01372783333333, "name": "91b93f54b17b929bdd999b88b1ae53d4"}, {"bike_id": "4bc0161783addd1361d22ab83de2bc0b", "type": "electric_scooter", "is_disabled": 0, "lat": 38.92329816666667, "rental_uris": {"ios": "https://dc.lft.to/lastmile_qr_scan", "android": "https://dc.lft.to/lastmile_qr_scan"}, "is_reserved": 0, "fusion_lon": 0.0, "fusion_lat": 0.0, "lon": -77.036819, "name": "4bc0161783addd1361d22ab83de2bc0b"}, {"bike_id": "73cc2b112ccfc3bffe3cc6dff891b81e", "type": "electric_scooter", "is_disabled": 0, "lat": 38.92328766666667, "rental_uris": {"ios": "https://dc.lft.to/lastmile_qr_scan", "android": "https://dc.lft.to/lastmile_qr_scan"}, "is_reserved": 0, "fusion_lon": 0.0, "fusion_lat": 0.0, "lon": -77.036805, "name": "73cc2b112ccfc3bffe3cc6dff891b81e"}, {"bike_id": "3e95ad88c5286c4ac0b171ef9cded642", "type": "electric_scooter", "is_disabled": 0, "lat": 38.9212135, "rental_uris": {"ios": "https://dc.lft.to/lastmile_qr_scan", "android": "https://dc.lft.to/lastmile_qr_scan"}, "is_reserved": 0, "fusion_lon": 0.0, "fusion_lat": 0.0, "lon": -77.01208833333334, "name": "3e95ad88c5286c4ac0b171ef9cded642"}, {"bike_id": "b3573dc3971c32849a1eaa2ef423eacb", "type": "electric_scooter", "is_disabled": 0, "lat": 38.91477966666667, "rental_uris": {"ios": "https://dc.lft.to/lastmile_qr_scan", "android": "https://dc.lft.to/lastmile_qr_scan"}, "is_reserved": 0, "fusion_lon": 0.0, "fusion_lat": 0.0, "lon": -77.00289416666666, "name": "b3573dc3971c32849a1eaa2ef423eacb"}, {"bike_id": "ee183dfc4c45099aeb4e7c05e23f7869", "type": "electric_scooter", "is_disabled": 0, "lat": 38.908415833333336, "rental_uris": {"ios": "https://dc.lft.to/lastmile_qr_scan", "android": "https://dc.lft.to/lastmile_qr_scan"}, "is_reserved": 0, "fusion_lon": 0.0, "fusion_lat": 0.0, "lon": -77.04340883333333, "name": "ee183dfc4c45099aeb4e7c05e23f7869"}, {"bike_id": "bc4e48b291ba66deb0ec8d56622bebfc", "type": "electric_bike", "is_disabled": 0, "lat": 38.9256655, "rental_uris": {"ios": "https://dc.lft.to/lastmile_qr_scan", "android": "https://dc.lft.to/lastmile_qr_scan"}, "is_reserved": 0, "fusion_lon": 0.0, "fusion_lat": 0.0, "lon": -77.04371066666667, "name": "bc4e48b291ba66deb0ec8d56622bebfc"}, {"bike_id": "25b5073549de23ee4ca75dce9827c97c", "type": "electric_scooter", "is_disabled": 0, "lat": 38.9094045, "rental_uris": {"ios": "https://dc.lft.to/lastmile_qr_scan", "android": "https://dc.lft.to/lastmile_qr_scan"}, "is_reserved": 0, "fusion_lon": 0.0, "fusion_lat": 0.0, "lon": -77.04498733333334, "name": "25b5073549de23ee4ca75dce9827c97c"}, {"bike_id": "613e1d71e09e19a74ab1c4302f2a348c", "type": "electric_scooter", "is_disabled": 0, "lat": 38.924761333333336, "rental_uris": {"ios": "https://dc.lft.to/lastmile_qr_scan", "android": "https://dc.lft.to/lastmile_qr_scan"}, "is_reserved": 0, "fusion_lon": 0.0, "fusion_lat": 0.0, "lon": -77.0283555, "name": "613e1d71e09e19a74ab1c4302f2a348c"}, {"bike_id": "e82acc32c0ef323ae9ba1a3cede2d697", "type": "electric_scooter", "is_disabled": 0, "lat": 38.883730166666666, "rental_uris": {"ios": "https://dc.lft.to/lastmile_qr_scan", "android": "https://dc.lft.to/lastmile_qr_scan"}, "is_reserved": 0, "fusion_lon": 0.0, "fusion_lat": 0.0, "lon": -77.01991566666666, "name": "e82acc32c0ef323ae9ba1a3cede2d697"}, {"bike_id": "f117ff6be0b7460f8c9f0937b1cd8b71", "type": "electric_scooter", "is_disabled": 0, "lat": 38.93715366666667, "rental_uris": {"ios": "https://dc.lft.to/lastmile_qr_scan", "android": "https://dc.lft.to/lastmile_qr_scan"}, "is_reserved": 0, "fusion_lon": 0.0, "fusion_lat": 0.0, "lon": -77.02458166666666, "name": "f117ff6be0b7460f8c9f0937b1cd8b71"}, {"bike_id": "390a3886bfc47d66ae49536e941ba4a4", "type": "electric_scooter", "is_disabled": 0, "lat": 38.8987525, "rental_uris": {"ios": "https://dc.lft.to/lastmile_qr_scan", "android": "https://dc.lft.to/lastmile_qr_scan"}, "is_reserved": 0, "fusion_lon": 0.0, "fusion_lat": 0.0, "lon": -76.931843, "name": "390a3886bfc47d66ae49536e941ba4a4"}, {"bike_id": "6084e0d5311a35954f7fc1d4e6b4e5d6", "type": "electric_scooter", "is_disabled": 0, "lat": 38.9310965, "rental_uris": {"ios": "https://dc.lft.to/lastmile_qr_scan", "android": "https://dc.lft.to/lastmile_qr_scan"}, "is_reserved": 0, "fusion_lon": 0.0, "fusion_lat": 0.0, "lon": -77.0411545, "name": "6084e0d5311a35954f7fc1d4e6b4e5d6"}, {"bike_id": "2ce4e03e47a0b5303ef4e9f1b91d0c6f", "type": "electric_bike", "is_disabled": 0, "lat": 38.93965083333333, "rental_uris": {"ios": "https://dc.lft.to/lastmile_qr_scan", "android": "https://dc.lft.to/lastmile_qr_scan"}, "is_reserved": 0, "fusion_lon": 0.0, "fusion_lat": 0.0, "lon": -77.052574, "name": "2ce4e03e47a0b5303ef4e9f1b91d0c6f"}, {"bike_id": "84f90bb6dd903b6d2cba2bb82effa8e7", "type": "electric_scooter", "is_disabled": 0, "lat": 38.9112015, "rental_uris": {"ios": "https://dc.lft.to/lastmile_qr_scan", "android": "https://dc.lft.to/lastmile_qr_scan"}, "is_reserved": 0, "fusion_lon": 0.0, "fusion_lat": 0.0, "lon": -77.03733016666666, "name": "84f90bb6dd903b6d2cba2bb82effa8e7"}, {"bike_id": "e0524297ce7cf7c1b7d065f38b525de1", "type": "electric_scooter", "is_disabled": 0, "lat": 38.91494616666667, "rental_uris": {"ios": "https://dc.lft.to/lastmile_qr_scan", "android": "https://dc.lft.to/lastmile_qr_scan"}, "is_reserved": 0, "fusion_lon": 0.0, "fusion_lat": 0.0, "lon": -77.03125966666667, "name": "e0524297ce7cf7c1b7d065f38b525de1"}, {"bike_id": "ddd92a7b8d515be0f93092a95bf22482", "type": "electric_scooter", "is_disabled": 0, "lat": 38.89384866666666, "rental_uris": {"ios": "https://dc.lft.to/lastmile_qr_scan", "android": "https://dc.lft.to/lastmile_qr_scan"}, "is_reserved": 0, "fusion_lon": 0.0, "fusion_lat": 0.0, "lon": -77.02267833333333, "name": "ddd92a7b8d515be0f93092a95bf22482"}, {"bike_id": "f095843d3c01e8f191778d30ca9838f9", "type": "electric_scooter", "is_disabled": 0, "lat": 38.92244733333333, "rental_uris": {"ios": "https://dc.lft.to/lastmile_qr_scan", "android": "https://dc.lft.to/lastmile_qr_scan"}, "is_reserved": 0, "fusion_lon": 0.0, "fusion_lat": 0.0, "lon": -77.04267566666667, "name": "f095843d3c01e8f191778d30ca9838f9"}, {"bike_id": "0e4466d460afdaf59c789d77da496d7e", "type": "electric_scooter", "is_disabled": 0, "lat": 38.930120333333335, "rental_uris": {"ios": "https://dc.lft.to/lastmile_qr_scan", "android": "https://dc.lft.to/lastmile_qr_scan"}, "is_reserved": 0, "fusion_lon": 0.0, "fusion_lat": 0.0, "lon": -77.02091666666666, "name": "0e4466d460afdaf59c789d77da496d7e"}, {"bike_id": "836cefe4f47b3f14318f6cec98ca9e12", "type": "electric_scooter", "is_disabled": 0, "lat": 38.90864916666666, "rental_uris": {"ios": "https://dc.lft.to/lastmile_qr_scan", "android": "https://dc.lft.to/lastmile_qr_scan"}, "is_reserved": 0, "fusion_lon": 0.0, "fusion_lat": 0.0, "lon": -76.9995555, "name": "836cefe4f47b3f14318f6cec98ca9e12"}, {"bike_id": "a455fa66bc1fd6ace3757d1df685cdd1", "type": "electric_scooter", "is_disabled": 0, "lat": 38.90063466666667, "rental_uris": {"ios": "https://dc.lft.to/lastmile_qr_scan", "android": "https://dc.lft.to/lastmile_qr_scan"}, "is_reserved": 0, "fusion_lon": 0.0, "fusion_lat": 0.0, "lon": -77.0501415, "name": "a455fa66bc1fd6ace3757d1df685cdd1"}, {"bike_id": "ff14b6722042350a3c51a5f25fb6aa2f", "type": "electric_scooter", "is_disabled": 0, "lat": 38.8963615, "rental_uris": {"ios": "https://dc.lft.to/lastmile_qr_scan", "android": "https://dc.lft.to/lastmile_qr_scan"}, "is_reserved": 0, "fusion_lon": 0.0, "fusion_lat": 0.0, "lon": -77.02618133333333, "name": "ff14b6722042350a3c51a5f25fb6aa2f"}, {"bike_id": "f644f30a8a0c49832bb50abdc3833db8", "type": "electric_scooter", "is_disabled": 0, "lat": 38.93396883333333, "rental_uris": {"ios": "https://dc.lft.to/lastmile_qr_scan", "android": "https://dc.lft.to/lastmile_qr_scan"}, "is_reserved": 0, "fusion_lon": 0.0, "fusion_lat": 0.0, "lon": -77.05743, "name": "f644f30a8a0c49832bb50abdc3833db8"}, {"bike_id": "14d22df0ad77447df6d1c5716530c475", "type": "electric_scooter", "is_disabled": 0, "lat": 38.90062266666666, "rental_uris": {"ios": "https://dc.lft.to/lastmile_qr_scan", "android": "https://dc.lft.to/lastmile_qr_scan"}, "is_reserved": 0, "fusion_lon": 0.0, "fusion_lat": 0.0, "lon": -77.04821, "name": "14d22df0ad77447df6d1c5716530c475"}, {"bike_id": "53a76df4b70894feda4c189b77d0c385", "type": "electric_scooter", "is_disabled": 0, "lat": 38.9066695, "rental_uris": {"ios": "https://dc.lft.to/lastmile_qr_scan", "android": "https://dc.lft.to/lastmile_qr_scan"}, "is_reserved": 0, "fusion_lon": 0.0, "fusion_lat": 0.0, "lon": -77.0271225, "name": "53a76df4b70894feda4c189b77d0c385"}, {"bike_id": "efe7aac754ebaff3eaac44c627d8b450", "type": "electric_scooter", "is_disabled": 0, "lat": 38.902306, "rental_uris": {"ios": "https://dc.lft.to/lastmile_qr_scan", "android": "https://dc.lft.to/lastmile_qr_scan"}, "is_reserved": 0, "fusion_lon": 0.0, "fusion_lat": 0.0, "lon": -77.02982283333333, "name": "efe7aac754ebaff3eaac44c627d8b450"}, {"bike_id": "8db0d458fcbdcfb9fbb6cf5beaa2f3f9", "type": "electric_scooter", "is_disabled": 0, "lat": 38.92122883333333, "rental_uris": {"ios": "https://dc.lft.to/lastmile_qr_scan", "android": "https://dc.lft.to/lastmile_qr_scan"}, "is_reserved": 0, "fusion_lon": 0.0, "fusion_lat": 0.0, "lon": -77.027147, "name": "8db0d458fcbdcfb9fbb6cf5beaa2f3f9"}, {"bike_id": "4dfaacdd7da3c719ac24371984e12466", "type": "electric_scooter", "is_disabled": 0, "lat": 38.964414833333336, "rental_uris": {"ios": "https://dc.lft.to/lastmile_qr_scan", "android": "https://dc.lft.to/lastmile_qr_scan"}, "is_reserved": 0, "fusion_lon": 0.0, "fusion_lat": 0.0, "lon": -77.020674, "name": "4dfaacdd7da3c719ac24371984e12466"}, {"bike_id": "d9b41d8964654f2aa28bc5bc7faa469e", "type": "electric_scooter", "is_disabled": 0, "lat": 38.917457166666665, "rental_uris": {"ios": "https://dc.lft.to/lastmile_qr_scan", "android": "https://dc.lft.to/lastmile_qr_scan"}, "is_reserved": 0, "fusion_lon": 0.0, "fusion_lat": 0.0, "lon": -77.031924, "name": "d9b41d8964654f2aa28bc5bc7faa469e"}, {"bike_id": "992d605c3452c9a7e5d93f89df8b0905", "type": "electric_scooter", "is_disabled": 0, "lat": 38.91635633333333, "rental_uris": {"ios": "https://dc.lft.to/lastmile_qr_scan", "android": "https://dc.lft.to/lastmile_qr_scan"}, "is_reserved": 0, "fusion_lon": 0.0, "fusion_lat": 0.0, "lon": -77.02550516666666, "name": "992d605c3452c9a7e5d93f89df8b0905"}, {"bike_id": "5f17d60f3983667d8d0b30cfe60b0958", "type": "electric_scooter", "is_disabled": 0, "lat": 38.884101666666666, "rental_uris": {"ios": "https://dc.lft.to/lastmile_qr_scan", "android": "https://dc.lft.to/lastmile_qr_scan"}, "is_reserved": 0, "fusion_lon": 0.0, "fusion_lat": 0.0, "lon": -76.94823916666667, "name": "5f17d60f3983667d8d0b30cfe60b0958"}, {"bike_id": "d11abe9495fd836fad35571a756524af", "type": "electric_scooter", "is_disabled": 0, "lat": 38.901483, "rental_uris": {"ios": "https://dc.lft.to/lastmile_qr_scan", "android": "https://dc.lft.to/lastmile_qr_scan"}, "is_reserved": 0, "fusion_lon": 0.0, "fusion_lat": 0.0, "lon": -77.02027083333333, "name": "d11abe9495fd836fad35571a756524af"}, {"bike_id": "75f126ffe84829570cdf33614d8127a2", "type": "electric_scooter", "is_disabled": 0, "lat": 38.9296165, "rental_uris": {"ios": "https://dc.lft.to/lastmile_qr_scan", "android": "https://dc.lft.to/lastmile_qr_scan"}, "is_reserved": 0, "fusion_lon": 0.0, "fusion_lat": 0.0, "lon": -77.02786833333333, "name": "75f126ffe84829570cdf33614d8127a2"}, {"bike_id": "237dd156b13c26acc0a0dda3337a423c", "type": "electric_scooter", "is_disabled": 0, "lat": 38.90953666666667, "rental_uris": {"ios": "https://dc.lft.to/lastmile_qr_scan", "android": "https://dc.lft.to/lastmile_qr_scan"}, "is_reserved": 0, "fusion_lon": 0.0, "fusion_lat": 0.0, "lon": -77.04546383333333, "name": "237dd156b13c26acc0a0dda3337a423c"}, {"bike_id": "bf7de10411ac6f2e7523b646ecf47c7a", "type": "electric_scooter", "is_disabled": 0, "lat": 38.905328833333336, "rental_uris": {"ios": "https://dc.lft.to/lastmile_qr_scan", "android": "https://dc.lft.to/lastmile_qr_scan"}, "is_reserved": 0, "fusion_lon": 0.0, "fusion_lat": 0.0, "lon": -77.065202, "name": "bf7de10411ac6f2e7523b646ecf47c7a"}, {"bike_id": "27c569de735ae0a45be0fb0f7121ff49", "type": "electric_scooter", "is_disabled": 0, "lat": 38.919503, "rental_uris": {"ios": "https://dc.lft.to/lastmile_qr_scan", "android": "https://dc.lft.to/lastmile_qr_scan"}, "is_reserved": 0, "fusion_lon": 0.0, "fusion_lat": 0.0, "lon": -77.04486383333334, "name": "27c569de735ae0a45be0fb0f7121ff49"}, {"bike_id": "dbcfdbda5c2d69a8ee0c02bd7bbf14e3", "type": "electric_scooter", "is_disabled": 0, "lat": 38.90496433333333, "rental_uris": {"ios": "https://dc.lft.to/lastmile_qr_scan", "android": "https://dc.lft.to/lastmile_qr_scan"}, "is_reserved": 0, "fusion_lon": 0.0, "fusion_lat": 0.0, "lon": -77.06883116666667, "name": "dbcfdbda5c2d69a8ee0c02bd7bbf14e3"}, {"bike_id": "a18ab404a88c4ccfac9b8ad66f698cb2", "type": "electric_scooter", "is_disabled": 0, "lat": 38.916116, "rental_uris": {"ios": "https://dc.lft.to/lastmile_qr_scan", "android": "https://dc.lft.to/lastmile_qr_scan"}, "is_reserved": 0, "fusion_lon": 0.0, "fusion_lat": 0.0, "lon": -77.02297283333333, "name": "a18ab404a88c4ccfac9b8ad66f698cb2"}, {"bike_id": "bc81add61700808c2e831a3fee78b2fe", "type": "electric_scooter", "is_disabled": 0, "lat": 38.920488166666665, "rental_uris": {"ios": "https://dc.lft.to/lastmile_qr_scan", "android": "https://dc.lft.to/lastmile_qr_scan"}, "is_reserved": 0, "fusion_lon": 0.0, "fusion_lat": 0.0, "lon": -77.03402816666667, "name": "bc81add61700808c2e831a3fee78b2fe"}, {"bike_id": "15a1632e5c7bcade01219713320f79bb", "type": "electric_scooter", "is_disabled": 0, "lat": 38.900838, "rental_uris": {"ios": "https://dc.lft.to/lastmile_qr_scan", "android": "https://dc.lft.to/lastmile_qr_scan"}, "is_reserved": 0, "fusion_lon": 0.0, "fusion_lat": 0.0, "lon": -77.03069766666667, "name": "15a1632e5c7bcade01219713320f79bb"}, {"bike_id": "b32a30f4ca3cea3c93be03bc24431db4", "type": "electric_bike", "is_disabled": 0, "lat": 38.93698833333333, "rental_uris": {"ios": "https://dc.lft.to/lastmile_qr_scan", "android": "https://dc.lft.to/lastmile_qr_scan"}, "is_reserved": 0, "fusion_lon": 0.0, "fusion_lat": 0.0, "lon": -77.05608933333333, "name": "b32a30f4ca3cea3c93be03bc24431db4"}, {"bike_id": "e3c6fc49255a4152bf19e07a6b08cce4", "type": "electric_bike", "is_disabled": 0, "lat": 38.83157383333333, "rental_uris": {"ios": "https://dc.lft.to/lastmile_qr_scan", "android": "https://dc.lft.to/lastmile_qr_scan"}, "is_reserved": 0, "fusion_lon": 0.0, "fusion_lat": 0.0, "lon": -76.995408, "name": "e3c6fc49255a4152bf19e07a6b08cce4"}, {"bike_id": "057b6252c2063b33d3635aa03abcf3ce", "type": "electric_scooter", "is_disabled": 0, "lat": 38.88712983333333, "rental_uris": {"ios": "https://dc.lft.to/lastmile_qr_scan", "android": "https://dc.lft.to/lastmile_qr_scan"}, "is_reserved": 0, "fusion_lon": 0.0, "fusion_lat": 0.0, "lon": -77.01778016666667, "name": "057b6252c2063b33d3635aa03abcf3ce"}, {"bike_id": "48130f238a3baf51a86eb6779bf9c867", "type": "electric_scooter", "is_disabled": 0, "lat": 38.90589933333333, "rental_uris": {"ios": "https://dc.lft.to/lastmile_qr_scan", "android": "https://dc.lft.to/lastmile_qr_scan"}, "is_reserved": 0, "fusion_lon": 0.0, "fusion_lat": 0.0, "lon": -77.05147216666667, "name": "48130f238a3baf51a86eb6779bf9c867"}, {"bike_id": "ee2e91f7a696abf9763026b80a4c04e2", "type": "electric_scooter", "is_disabled": 0, "lat": 38.92211366666667, "rental_uris": {"ios": "https://dc.lft.to/lastmile_qr_scan", "android": "https://dc.lft.to/lastmile_qr_scan"}, "is_reserved": 0, "fusion_lon": 0.0, "fusion_lat": 0.0, "lon": -77.0423865, "name": "ee2e91f7a696abf9763026b80a4c04e2"}, {"bike_id": "1413c28b0c5d81712c399bd629419a60", "type": "electric_scooter", "is_disabled": 0, "lat": 38.9008435, "rental_uris": {"ios": "https://dc.lft.to/lastmile_qr_scan", "android": "https://dc.lft.to/lastmile_qr_scan"}, "is_reserved": 0, "fusion_lon": 0.0, "fusion_lat": 0.0, "lon": -77.0499425, "name": "1413c28b0c5d81712c399bd629419a60"}, {"bike_id": "c684db97ee26fefa91d8c727bc7cfc9f", "type": "electric_scooter", "is_disabled": 0, "lat": 38.89725816666667, "rental_uris": {"ios": "https://dc.lft.to/lastmile_qr_scan", "android": "https://dc.lft.to/lastmile_qr_scan"}, "is_reserved": 0, "fusion_lon": 0.0, "fusion_lat": 0.0, "lon": -77.02710183333333, "name": "c684db97ee26fefa91d8c727bc7cfc9f"}, {"bike_id": "364cfb96867a0a4a57b9f08fc9e8e49c", "type": "electric_scooter", "is_disabled": 0, "lat": 38.92291866666667, "rental_uris": {"ios": "https://dc.lft.to/lastmile_qr_scan", "android": "https://dc.lft.to/lastmile_qr_scan"}, "is_reserved": 0, "fusion_lon": 0.0, "fusion_lat": 0.0, "lon": -77.0731455, "name": "364cfb96867a0a4a57b9f08fc9e8e49c"}, {"bike_id": "8502c81d9581f5b0ac9ca0de0429c4eb", "type": "electric_scooter", "is_disabled": 0, "lat": 38.90420616666667, "rental_uris": {"ios": "https://dc.lft.to/lastmile_qr_scan", "android": "https://dc.lft.to/lastmile_qr_scan"}, "is_reserved": 0, "fusion_lon": 0.0, "fusion_lat": 0.0, "lon": -77.04866116666666, "name": "8502c81d9581f5b0ac9ca0de0429c4eb"}, {"bike_id": "015457c2df5054ef9dff7316b7fa8653", "type": "electric_scooter", "is_disabled": 0, "lat": 38.92149333333333, "rental_uris": {"ios": "https://dc.lft.to/lastmile_qr_scan", "android": "https://dc.lft.to/lastmile_qr_scan"}, "is_reserved": 0, "fusion_lon": 0.0, "fusion_lat": 0.0, "lon": -77.03869, "name": "015457c2df5054ef9dff7316b7fa8653"}, {"bike_id": "5057ccba738398343610e9abcb942635", "type": "electric_scooter", "is_disabled": 0, "lat": 38.918290999999996, "rental_uris": {"ios": "https://dc.lft.to/lastmile_qr_scan", "android": "https://dc.lft.to/lastmile_qr_scan"}, "is_reserved": 0, "fusion_lon": 0.0, "fusion_lat": 0.0, "lon": -77.03936666666667, "name": "5057ccba738398343610e9abcb942635"}, {"bike_id": "31dcb0cc7fa766621f28370ccead3354", "type": "electric_scooter", "is_disabled": 0, "lat": 38.9055515, "rental_uris": {"ios": "https://dc.lft.to/lastmile_qr_scan", "android": "https://dc.lft.to/lastmile_qr_scan"}, "is_reserved": 0, "fusion_lon": 0.0, "fusion_lat": 0.0, "lon": -77.00606083333334, "name": "31dcb0cc7fa766621f28370ccead3354"}, {"bike_id": "47e81f016a3522c2f11a3795391e0136", "type": "electric_scooter", "is_disabled": 0, "lat": 38.9236085, "rental_uris": {"ios": "https://dc.lft.to/lastmile_qr_scan", "android": "https://dc.lft.to/lastmile_qr_scan"}, "is_reserved": 0, "fusion_lon": 0.0, "fusion_lat": 0.0, "lon": -77.05046566666667, "name": "47e81f016a3522c2f11a3795391e0136"}, {"bike_id": "803ddfb0ca5503930048297cb96dbda2", "type": "electric_scooter", "is_disabled": 0, "lat": 38.9089085, "rental_uris": {"ios": "https://dc.lft.to/lastmile_qr_scan", "android": "https://dc.lft.to/lastmile_qr_scan"}, "is_reserved": 0, "fusion_lon": 0.0, "fusion_lat": 0.0, "lon": -77.04402483333334, "name": "803ddfb0ca5503930048297cb96dbda2"}, {"bike_id": "a2dcfc86faf55e12856455a012bbd233", "type": "electric_scooter", "is_disabled": 0, "lat": 38.92602733333333, "rental_uris": {"ios": "https://dc.lft.to/lastmile_qr_scan", "android": "https://dc.lft.to/lastmile_qr_scan"}, "is_reserved": 0, "fusion_lon": 0.0, "fusion_lat": 0.0, "lon": -77.02153333333334, "name": "a2dcfc86faf55e12856455a012bbd233"}, {"bike_id": "61c81dbf36834d5688731ecc6a1c35da", "type": "electric_scooter", "is_disabled": 0, "lat": 38.91412, "rental_uris": {"ios": "https://dc.lft.to/lastmile_qr_scan", "android": "https://dc.lft.to/lastmile_qr_scan"}, "is_reserved": 0, "fusion_lon": 0.0, "fusion_lat": 0.0, "lon": -77.0243085, "name": "61c81dbf36834d5688731ecc6a1c35da"}, {"bike_id": "86a4cb23299da5fbcb3100944833590e", "type": "electric_scooter", "is_disabled": 0, "lat": 38.914195166666666, "rental_uris": {"ios": "https://dc.lft.to/lastmile_qr_scan", "android": "https://dc.lft.to/lastmile_qr_scan"}, "is_reserved": 0, "fusion_lon": 0.0, "fusion_lat": 0.0, "lon": -77.0222645, "name": "86a4cb23299da5fbcb3100944833590e"}, {"bike_id": "519718023972c769e63543dd2ac050d5", "type": "electric_scooter", "is_disabled": 0, "lat": 38.91816816666667, "rental_uris": {"ios": "https://dc.lft.to/lastmile_qr_scan", "android": "https://dc.lft.to/lastmile_qr_scan"}, "is_reserved": 0, "fusion_lon": 0.0, "fusion_lat": 0.0, "lon": -77.0279025, "name": "519718023972c769e63543dd2ac050d5"}, {"bike_id": "50717a7e2051c7448c01a2b3e06d15d9", "type": "electric_scooter", "is_disabled": 0, "lat": 38.914221166666664, "rental_uris": {"ios": "https://dc.lft.to/lastmile_qr_scan", "android": "https://dc.lft.to/lastmile_qr_scan"}, "is_reserved": 0, "fusion_lon": 0.0, "fusion_lat": 0.0, "lon": -77.024057, "name": "50717a7e2051c7448c01a2b3e06d15d9"}, {"bike_id": "8368c54e9639207614804ed9d1a87e67", "type": "electric_scooter", "is_disabled": 0, "lat": 38.915683333333334, "rental_uris": {"ios": "https://dc.lft.to/lastmile_qr_scan", "android": "https://dc.lft.to/lastmile_qr_scan"}, "is_reserved": 0, "fusion_lon": 0.0, "fusion_lat": 0.0, "lon": -77.0195545, "name": "8368c54e9639207614804ed9d1a87e67"}, {"bike_id": "95d43a00d037c9fd6ed358a2bd029619", "type": "electric_scooter", "is_disabled": 0, "lat": 38.867009833333334, "rental_uris": {"ios": "https://dc.lft.to/lastmile_qr_scan", "android": "https://dc.lft.to/lastmile_qr_scan"}, "is_reserved": 0, "fusion_lon": 0.0, "fusion_lat": 0.0, "lon": -76.98543783333334, "name": "95d43a00d037c9fd6ed358a2bd029619"}, {"bike_id": "af41f5bf89dac32f35e65881786d1200", "type": "electric_scooter", "is_disabled": 0, "lat": 38.897829333333334, "rental_uris": {"ios": "https://dc.lft.to/lastmile_qr_scan", "android": "https://dc.lft.to/lastmile_qr_scan"}, "is_reserved": 0, "fusion_lon": 0.0, "fusion_lat": 0.0, "lon": -76.94732583333334, "name": "af41f5bf89dac32f35e65881786d1200"}, {"bike_id": "c3adf28a9f82aaf496e98481160670ba", "type": "electric_scooter", "is_disabled": 0, "lat": 38.9013235, "rental_uris": {"ios": "https://dc.lft.to/lastmile_qr_scan", "android": "https://dc.lft.to/lastmile_qr_scan"}, "is_reserved": 0, "fusion_lon": 0.0, "fusion_lat": 0.0, "lon": -77.0431885, "name": "c3adf28a9f82aaf496e98481160670ba"}, {"bike_id": "be8dbead319d656681a91cad3dfd716c", "type": "electric_scooter", "is_disabled": 0, "lat": 38.92477483333333, "rental_uris": {"ios": "https://dc.lft.to/lastmile_qr_scan", "android": "https://dc.lft.to/lastmile_qr_scan"}, "is_reserved": 0, "fusion_lon": 0.0, "fusion_lat": 0.0, "lon": -77.02839716666666, "name": "be8dbead319d656681a91cad3dfd716c"}, {"bike_id": "45b51675903771426b0024dfa3bebfb8", "type": "electric_scooter", "is_disabled": 0, "lat": 38.91690083333334, "rental_uris": {"ios": "https://dc.lft.to/lastmile_qr_scan", "android": "https://dc.lft.to/lastmile_qr_scan"}, "is_reserved": 0, "fusion_lon": 0.0, "fusion_lat": 0.0, "lon": -77.02874483333333, "name": "45b51675903771426b0024dfa3bebfb8"}, {"bike_id": "70b13d4132fa79b38199ee8a5807d4e3", "type": "electric_scooter", "is_disabled": 0, "lat": 38.92872216666667, "rental_uris": {"ios": "https://dc.lft.to/lastmile_qr_scan", "android": "https://dc.lft.to/lastmile_qr_scan"}, "is_reserved": 0, "fusion_lon": 0.0, "fusion_lat": 0.0, "lon": -77.03296583333334, "name": "70b13d4132fa79b38199ee8a5807d4e3"}, {"bike_id": "c31655ee9a42c774e27b50ece285b2f3", "type": "electric_scooter", "is_disabled": 0, "lat": 38.8997585, "rental_uris": {"ios": "https://dc.lft.to/lastmile_qr_scan", "android": "https://dc.lft.to/lastmile_qr_scan"}, "is_reserved": 0, "fusion_lon": 0.0, "fusion_lat": 0.0, "lon": -77.02156583333333, "name": "c31655ee9a42c774e27b50ece285b2f3"}, {"bike_id": "510117deeade96e8497dd8ba9b86aa82", "type": "electric_scooter", "is_disabled": 0, "lat": 38.922541333333335, "rental_uris": {"ios": "https://dc.lft.to/lastmile_qr_scan", "android": "https://dc.lft.to/lastmile_qr_scan"}, "is_reserved": 0, "fusion_lon": 0.0, "fusion_lat": 0.0, "lon": -77.04251166666667, "name": "510117deeade96e8497dd8ba9b86aa82"}, {"bike_id": "50d22b189a40132e97443b70078a7c5b", "type": "electric_scooter", "is_disabled": 0, "lat": 38.92838583333333, "rental_uris": {"ios": "https://dc.lft.to/lastmile_qr_scan", "android": "https://dc.lft.to/lastmile_qr_scan"}, "is_reserved": 0, "fusion_lon": 0.0, "fusion_lat": 0.0, "lon": -77.01405416666667, "name": "50d22b189a40132e97443b70078a7c5b"}, {"bike_id": "40c15e71d81242ef573b777409a5ec9b", "type": "electric_scooter", "is_disabled": 0, "lat": 38.8764845, "rental_uris": {"ios": "https://dc.lft.to/lastmile_qr_scan", "android": "https://dc.lft.to/lastmile_qr_scan"}, "is_reserved": 0, "fusion_lon": 0.0, "fusion_lat": 0.0, "lon": -76.9650635, "name": "40c15e71d81242ef573b777409a5ec9b"}, {"bike_id": "f906db894a95effa86bce03962d9a41b", "type": "electric_scooter", "is_disabled": 0, "lat": 38.915645166666664, "rental_uris": {"ios": "https://dc.lft.to/lastmile_qr_scan", "android": "https://dc.lft.to/lastmile_qr_scan"}, "is_reserved": 0, "fusion_lon": 0.0, "fusion_lat": 0.0, "lon": -77.03336483333334, "name": "f906db894a95effa86bce03962d9a41b"}, {"bike_id": "af5749e2a1fad6c92c8901e8498a8817", "type": "electric_scooter", "is_disabled": 0, "lat": 38.91414966666667, "rental_uris": {"ios": "https://dc.lft.to/lastmile_qr_scan", "android": "https://dc.lft.to/lastmile_qr_scan"}, "is_reserved": 0, "fusion_lon": 0.0, "fusion_lat": 0.0, "lon": -77.03222033333333, "name": "af5749e2a1fad6c92c8901e8498a8817"}, {"bike_id": "cfbfcddd919e69ed2ca9378a1a6fd203", "type": "electric_scooter", "is_disabled": 0, "lat": 38.92735483333333, "rental_uris": {"ios": "https://dc.lft.to/lastmile_qr_scan", "android": "https://dc.lft.to/lastmile_qr_scan"}, "is_reserved": 0, "fusion_lon": 0.0, "fusion_lat": 0.0, "lon": -77.034234, "name": "cfbfcddd919e69ed2ca9378a1a6fd203"}, {"bike_id": "1f4063175285ed7f3134eba722b3d7c5", "type": "electric_scooter", "is_disabled": 0, "lat": 38.87903933333333, "rental_uris": {"ios": "https://dc.lft.to/lastmile_qr_scan", "android": "https://dc.lft.to/lastmile_qr_scan"}, "is_reserved": 0, "fusion_lon": 0.0, "fusion_lat": 0.0, "lon": -77.02194933333334, "name": "1f4063175285ed7f3134eba722b3d7c5"}, {"bike_id": "2fbf395f50bf5e9167b8ec9b7f3d23ce", "type": "electric_bike", "is_disabled": 0, "lat": 38.9087355, "rental_uris": {"ios": "https://dc.lft.to/lastmile_qr_scan", "android": "https://dc.lft.to/lastmile_qr_scan"}, "is_reserved": 0, "fusion_lon": 0.0, "fusion_lat": 0.0, "lon": -76.99135183333334, "name": "2fbf395f50bf5e9167b8ec9b7f3d23ce"}, {"bike_id": "ba12876a428f5e45fbc9c6b4977c9f57", "type": "electric_scooter", "is_disabled": 0, "lat": 38.913814, "rental_uris": {"ios": "https://dc.lft.to/lastmile_qr_scan", "android": "https://dc.lft.to/lastmile_qr_scan"}, "is_reserved": 0, "fusion_lon": 0.0, "fusion_lat": 0.0, "lon": -77.0169875, "name": "ba12876a428f5e45fbc9c6b4977c9f57"}, {"bike_id": "13ba262e40f4778f1e10c4ef0dd35c4f", "type": "electric_scooter", "is_disabled": 0, "lat": 38.905826833333336, "rental_uris": {"ios": "https://dc.lft.to/lastmile_qr_scan", "android": "https://dc.lft.to/lastmile_qr_scan"}, "is_reserved": 0, "fusion_lon": 0.0, "fusion_lat": 0.0, "lon": -77.02383466666667, "name": "13ba262e40f4778f1e10c4ef0dd35c4f"}, {"bike_id": "9ac4619beedee992a89e180a7f0d1d83", "type": "electric_scooter", "is_disabled": 0, "lat": 38.880248333333334, "rental_uris": {"ios": "https://dc.lft.to/lastmile_qr_scan", "android": "https://dc.lft.to/lastmile_qr_scan"}, "is_reserved": 0, "fusion_lon": 0.0, "fusion_lat": 0.0, "lon": -77.010057, "name": "9ac4619beedee992a89e180a7f0d1d83"}, {"bike_id": "811d801bd6e99ca7a4650379250c1a36", "type": "electric_scooter", "is_disabled": 0, "lat": 38.929167666666665, "rental_uris": {"ios": "https://dc.lft.to/lastmile_qr_scan", "android": "https://dc.lft.to/lastmile_qr_scan"}, "is_reserved": 0, "fusion_lon": 0.0, "fusion_lat": 0.0, "lon": -77.03262166666667, "name": "811d801bd6e99ca7a4650379250c1a36"}, {"bike_id": "e256d894997b77bfaf8df1768ece229a", "type": "electric_bike", "is_disabled": 0, "lat": 38.839284666666664, "rental_uris": {"ios": "https://dc.lft.to/lastmile_qr_scan", "android": "https://dc.lft.to/lastmile_qr_scan"}, "is_reserved": 0, "fusion_lon": 0.0, "fusion_lat": 0.0, "lon": -77.07903766666666, "name": "e256d894997b77bfaf8df1768ece229a"}, {"bike_id": "0feaf54c8d3a4f124d952db6c77736b7", "type": "electric_scooter", "is_disabled": 0, "lat": 38.88432016666667, "rental_uris": {"ios": "https://dc.lft.to/lastmile_qr_scan", "android": "https://dc.lft.to/lastmile_qr_scan"}, "is_reserved": 0, "fusion_lon": 0.0, "fusion_lat": 0.0, "lon": -76.95754716666667, "name": "0feaf54c8d3a4f124d952db6c77736b7"}, {"bike_id": "a22a2e28cdb6c43d9fa05e3b5af3441a", "type": "electric_scooter", "is_disabled": 0, "lat": 38.905508, "rental_uris": {"ios": "https://dc.lft.to/lastmile_qr_scan", "android": "https://dc.lft.to/lastmile_qr_scan"}, "is_reserved": 0, "fusion_lon": 0.0, "fusion_lat": 0.0, "lon": -76.99620166666666, "name": "a22a2e28cdb6c43d9fa05e3b5af3441a"}, {"bike_id": "834bb7e32c8f2ea632ea329e4cf67d12", "type": "electric_bike", "is_disabled": 0, "lat": 38.9552845, "rental_uris": {"ios": "https://dc.lft.to/lastmile_qr_scan", "android": "https://dc.lft.to/lastmile_qr_scan"}, "is_reserved": 0, "fusion_lon": 0.0, "fusion_lat": 0.0, "lon": -76.96824116666667, "name": "834bb7e32c8f2ea632ea329e4cf67d12"}, {"bike_id": "9abbb2543a06323a5f83c31466f2571a", "type": "electric_scooter", "is_disabled": 0, "lat": 38.9112255, "rental_uris": {"ios": "https://dc.lft.to/lastmile_qr_scan", "android": "https://dc.lft.to/lastmile_qr_scan"}, "is_reserved": 0, "fusion_lon": 0.0, "fusion_lat": 0.0, "lon": -77.03183616666666, "name": "9abbb2543a06323a5f83c31466f2571a"}, {"bike_id": "6f623d4e707e9dbff809152fe7d6b242", "type": "electric_scooter", "is_disabled": 0, "lat": 38.894641, "rental_uris": {"ios": "https://dc.lft.to/lastmile_qr_scan", "android": "https://dc.lft.to/lastmile_qr_scan"}, "is_reserved": 0, "fusion_lon": 0.0, "fusion_lat": 0.0, "lon": -77.0279655, "name": "6f623d4e707e9dbff809152fe7d6b242"}, {"bike_id": "f2b3aea4fb6fbdb568365478412053de", "type": "electric_scooter", "is_disabled": 0, "lat": 38.905059, "rental_uris": {"ios": "https://dc.lft.to/lastmile_qr_scan", "android": "https://dc.lft.to/lastmile_qr_scan"}, "is_reserved": 0, "fusion_lon": 0.0, "fusion_lat": 0.0, "lon": -77.02710866666666, "name": "f2b3aea4fb6fbdb568365478412053de"}, {"bike_id": "d82d56a2b5c6e2d5ae6f13171704e7ad", "type": "electric_bike", "is_disabled": 0, "lat": 38.95311983333333, "rental_uris": {"ios": "https://dc.lft.to/lastmile_qr_scan", "android": "https://dc.lft.to/lastmile_qr_scan"}, "is_reserved": 0, "fusion_lon": 0.0, "fusion_lat": 0.0, "lon": -76.99902966666667, "name": "d82d56a2b5c6e2d5ae6f13171704e7ad"}, {"bike_id": "5b8dfd5aa40ecdda0b8ae350279aea1c", "type": "electric_bike", "is_disabled": 0, "lat": 38.81166, "rental_uris": {"ios": "https://dc.lft.to/lastmile_qr_scan", "android": "https://dc.lft.to/lastmile_qr_scan"}, "is_reserved": 0, "fusion_lon": 0.0, "fusion_lat": 0.0, "lon": -77.06965216666667, "name": "5b8dfd5aa40ecdda0b8ae350279aea1c"}, {"bike_id": "e908356d3f4f8f937800577705204af8", "type": "electric_scooter", "is_disabled": 0, "lat": 38.895317666666664, "rental_uris": {"ios": "https://dc.lft.to/lastmile_qr_scan", "android": "https://dc.lft.to/lastmile_qr_scan"}, "is_reserved": 0, "fusion_lon": 0.0, "fusion_lat": 0.0, "lon": -77.011198, "name": "e908356d3f4f8f937800577705204af8"}, {"bike_id": "7f17ce5c30a605b4272865864200947b", "type": "electric_scooter", "is_disabled": 0, "lat": 38.91705733333333, "rental_uris": {"ios": "https://dc.lft.to/lastmile_qr_scan", "android": "https://dc.lft.to/lastmile_qr_scan"}, "is_reserved": 0, "fusion_lon": 0.0, "fusion_lat": 0.0, "lon": -77.0349755, "name": "7f17ce5c30a605b4272865864200947b"}, {"bike_id": "56a7efc30a50b9404544c06db274d1b4", "type": "electric_bike", "is_disabled": 0, "lat": 38.8044395, "rental_uris": {"ios": "https://dc.lft.to/lastmile_qr_scan", "android": "https://dc.lft.to/lastmile_qr_scan"}, "is_reserved": 0, "fusion_lon": 0.0, "fusion_lat": 0.0, "lon": -77.0539465, "name": "56a7efc30a50b9404544c06db274d1b4"}, {"bike_id": "2aad544c48d8ee7cee61bbe70112d958", "type": "electric_scooter", "is_disabled": 0, "lat": 38.9054115, "rental_uris": {"ios": "https://dc.lft.to/lastmile_qr_scan", "android": "https://dc.lft.to/lastmile_qr_scan"}, "is_reserved": 0, "fusion_lon": 0.0, "fusion_lat": 0.0, "lon": -77.05016616666667, "name": "2aad544c48d8ee7cee61bbe70112d958"}, {"bike_id": "6181549c245048f470b8ded21097e139", "type": "electric_scooter", "is_disabled": 0, "lat": 38.91973566666667, "rental_uris": {"ios": "https://dc.lft.to/lastmile_qr_scan", "android": "https://dc.lft.to/lastmile_qr_scan"}, "is_reserved": 0, "fusion_lon": 0.0, "fusion_lat": 0.0, "lon": -77.01211166666667, "name": "6181549c245048f470b8ded21097e139"}, {"bike_id": "7c8e34621d080947dea3468e4d5bca6d", "type": "electric_bike", "is_disabled": 0, "lat": 38.90005333333333, "rental_uris": {"ios": "https://dc.lft.to/lastmile_qr_scan", "android": "https://dc.lft.to/lastmile_qr_scan"}, "is_reserved": 0, "fusion_lon": 0.0, "fusion_lat": 0.0, "lon": -77.0753645, "name": "7c8e34621d080947dea3468e4d5bca6d"}, {"bike_id": "b69b3b1b0c3af1dd9059100b4948420a", "type": "electric_scooter", "is_disabled": 0, "lat": 38.8768145, "rental_uris": {"ios": "https://dc.lft.to/lastmile_qr_scan", "android": "https://dc.lft.to/lastmile_qr_scan"}, "is_reserved": 0, "fusion_lon": 0.0, "fusion_lat": 0.0, "lon": -77.01753933333333, "name": "b69b3b1b0c3af1dd9059100b4948420a"}, {"bike_id": "b849a3f1397ca3912ef7fe6a94d83390", "type": "electric_scooter", "is_disabled": 0, "lat": 38.919747, "rental_uris": {"ios": "https://dc.lft.to/lastmile_qr_scan", "android": "https://dc.lft.to/lastmile_qr_scan"}, "is_reserved": 0, "fusion_lon": 0.0, "fusion_lat": 0.0, "lon": -77.0422095, "name": "b849a3f1397ca3912ef7fe6a94d83390"}, {"bike_id": "d4d012f51316a698712d80e3d4362722", "type": "electric_scooter", "is_disabled": 0, "lat": 38.9176305, "rental_uris": {"ios": "https://dc.lft.to/lastmile_qr_scan", "android": "https://dc.lft.to/lastmile_qr_scan"}, "is_reserved": 0, "fusion_lon": 0.0, "fusion_lat": 0.0, "lon": -77.022877, "name": "d4d012f51316a698712d80e3d4362722"}, {"bike_id": "81fb81476a60b6fc1b173dca6e7770ef", "type": "electric_scooter", "is_disabled": 0, "lat": 38.933911, "rental_uris": {"ios": "https://dc.lft.to/lastmile_qr_scan", "android": "https://dc.lft.to/lastmile_qr_scan"}, "is_reserved": 0, "fusion_lon": 0.0, "fusion_lat": 0.0, "lon": -77.03226316666667, "name": "81fb81476a60b6fc1b173dca6e7770ef"}, {"bike_id": "933fa1c4d409bb052795681fc98c9c58", "type": "electric_bike", "is_disabled": 0, "lat": 38.87297083333333, "rental_uris": {"ios": "https://dc.lft.to/lastmile_qr_scan", "android": "https://dc.lft.to/lastmile_qr_scan"}, "is_reserved": 0, "fusion_lon": 0.0, "fusion_lat": 0.0, "lon": -76.96978716666666, "name": "933fa1c4d409bb052795681fc98c9c58"}, {"bike_id": "20c61022c384ba8e65746fac8a50a000", "type": "electric_bike", "is_disabled": 0, "lat": 38.908241, "rental_uris": {"ios": "https://dc.lft.to/lastmile_qr_scan", "android": "https://dc.lft.to/lastmile_qr_scan"}, "is_reserved": 0, "fusion_lon": 0.0, "fusion_lat": 0.0, "lon": -76.94157733333333, "name": "20c61022c384ba8e65746fac8a50a000"}, {"bike_id": "c27f4c8c2b70dc5b77809ba1f6864272", "type": "electric_scooter", "is_disabled": 0, "lat": 38.86504933333333, "rental_uris": {"ios": "https://dc.lft.to/lastmile_qr_scan", "android": "https://dc.lft.to/lastmile_qr_scan"}, "is_reserved": 0, "fusion_lon": 0.0, "fusion_lat": 0.0, "lon": -76.99004533333333, "name": "c27f4c8c2b70dc5b77809ba1f6864272"}, {"bike_id": "b19c3c246eac430826146bc924fae248", "type": "electric_scooter", "is_disabled": 0, "lat": 38.916274333333334, "rental_uris": {"ios": "https://dc.lft.to/lastmile_qr_scan", "android": "https://dc.lft.to/lastmile_qr_scan"}, "is_reserved": 0, "fusion_lon": 0.0, "fusion_lat": 0.0, "lon": -77.02291316666667, "name": "b19c3c246eac430826146bc924fae248"}, {"bike_id": "cab09c0ab05e23e78f64e3dfdd6c9400", "type": "electric_scooter", "is_disabled": 0, "lat": 38.932820666666665, "rental_uris": {"ios": "https://dc.lft.to/lastmile_qr_scan", "android": "https://dc.lft.to/lastmile_qr_scan"}, "is_reserved": 0, "fusion_lon": 0.0, "fusion_lat": 0.0, "lon": -77.040318, "name": "cab09c0ab05e23e78f64e3dfdd6c9400"}, {"bike_id": "44870baa6f13939315583bc06f3b9975", "type": "electric_scooter", "is_disabled": 0, "lat": 38.90366816666667, "rental_uris": {"ios": "https://dc.lft.to/lastmile_qr_scan", "android": "https://dc.lft.to/lastmile_qr_scan"}, "is_reserved": 0, "fusion_lon": 0.0, "fusion_lat": 0.0, "lon": -77.016351, "name": "44870baa6f13939315583bc06f3b9975"}, {"bike_id": "1ee665fcde4643238d3fbc2e2159f8a3", "type": "electric_scooter", "is_disabled": 0, "lat": 38.92155866666667, "rental_uris": {"ios": "https://dc.lft.to/lastmile_qr_scan", "android": "https://dc.lft.to/lastmile_qr_scan"}, "is_reserved": 0, "fusion_lon": 0.0, "fusion_lat": 0.0, "lon": -77.0333, "name": "1ee665fcde4643238d3fbc2e2159f8a3"}, {"bike_id": "667e9ec8d777dc4bc3b32a882e74fbbf", "type": "electric_scooter", "is_disabled": 0, "lat": 38.90353016666667, "rental_uris": {"ios": "https://dc.lft.to/lastmile_qr_scan", "android": "https://dc.lft.to/lastmile_qr_scan"}, "is_reserved": 0, "fusion_lon": 0.0, "fusion_lat": 0.0, "lon": -77.0315, "name": "667e9ec8d777dc4bc3b32a882e74fbbf"}, {"bike_id": "d863b4ac2f8c4653e615f422658f8335", "type": "electric_scooter", "is_disabled": 0, "lat": 38.9025185, "rental_uris": {"ios": "https://dc.lft.to/lastmile_qr_scan", "android": "https://dc.lft.to/lastmile_qr_scan"}, "is_reserved": 0, "fusion_lon": 0.0, "fusion_lat": 0.0, "lon": -77.03256283333333, "name": "d863b4ac2f8c4653e615f422658f8335"}, {"bike_id": "a2284f4afa3558d85c0adf692e56d9bd", "type": "electric_scooter", "is_disabled": 0, "lat": 38.9149655, "rental_uris": {"ios": "https://dc.lft.to/lastmile_qr_scan", "android": "https://dc.lft.to/lastmile_qr_scan"}, "is_reserved": 0, "fusion_lon": 0.0, "fusion_lat": 0.0, "lon": -77.01220733333334, "name": "a2284f4afa3558d85c0adf692e56d9bd"}, {"bike_id": "185aba4e4fbafac17ea2c94ed3581395", "type": "electric_scooter", "is_disabled": 0, "lat": 38.863718166666665, "rental_uris": {"ios": "https://dc.lft.to/lastmile_qr_scan", "android": "https://dc.lft.to/lastmile_qr_scan"}, "is_reserved": 0, "fusion_lon": 0.0, "fusion_lat": 0.0, "lon": -76.9905635, "name": "185aba4e4fbafac17ea2c94ed3581395"}, {"bike_id": "0e9d96a2b4d731f3e93afd9a0a51f018", "type": "electric_scooter", "is_disabled": 0, "lat": 38.92716566666667, "rental_uris": {"ios": "https://dc.lft.to/lastmile_qr_scan", "android": "https://dc.lft.to/lastmile_qr_scan"}, "is_reserved": 0, "fusion_lon": 0.0, "fusion_lat": 0.0, "lon": -77.02102316666667, "name": "0e9d96a2b4d731f3e93afd9a0a51f018"}, {"bike_id": "e6e73b5f3f017c0e2d150acde7442951", "type": "electric_scooter", "is_disabled": 0, "lat": 38.9231925, "rental_uris": {"ios": "https://dc.lft.to/lastmile_qr_scan", "android": "https://dc.lft.to/lastmile_qr_scan"}, "is_reserved": 0, "fusion_lon": 0.0, "fusion_lat": 0.0, "lon": -77.0367665, "name": "e6e73b5f3f017c0e2d150acde7442951"}, {"bike_id": "acc7a0d8c440f9be4d667b80333ad461", "type": "electric_scooter", "is_disabled": 0, "lat": 38.91410333333334, "rental_uris": {"ios": "https://dc.lft.to/lastmile_qr_scan", "android": "https://dc.lft.to/lastmile_qr_scan"}, "is_reserved": 0, "fusion_lon": 0.0, "fusion_lat": 0.0, "lon": -77.02257466666667, "name": "acc7a0d8c440f9be4d667b80333ad461"}, {"bike_id": "b8a3c9bcf780c7aa8d4c4bdd9cce4e4a", "type": "electric_scooter", "is_disabled": 0, "lat": 38.88701183333333, "rental_uris": {"ios": "https://dc.lft.to/lastmile_qr_scan", "android": "https://dc.lft.to/lastmile_qr_scan"}, "is_reserved": 0, "fusion_lon": 0.0, "fusion_lat": 0.0, "lon": -77.01368716666667, "name": "b8a3c9bcf780c7aa8d4c4bdd9cce4e4a"}, {"bike_id": "f5f23c25bd13a709f61b9a6bc193feb3", "type": "electric_scooter", "is_disabled": 0, "lat": 38.907187, "rental_uris": {"ios": "https://dc.lft.to/lastmile_qr_scan", "android": "https://dc.lft.to/lastmile_qr_scan"}, "is_reserved": 0, "fusion_lon": 0.0, "fusion_lat": 0.0, "lon": -77.02535866666666, "name": "f5f23c25bd13a709f61b9a6bc193feb3"}, {"bike_id": "b54dea3e569dbeab3eed3f125c35ec34", "type": "electric_scooter", "is_disabled": 0, "lat": 38.93909683333333, "rental_uris": {"ios": "https://dc.lft.to/lastmile_qr_scan", "android": "https://dc.lft.to/lastmile_qr_scan"}, "is_reserved": 0, "fusion_lon": 0.0, "fusion_lat": 0.0, "lon": -77.06046416666666, "name": "b54dea3e569dbeab3eed3f125c35ec34"}, {"bike_id": "a7b349360edc4f65b2b176cc6ee02374", "type": "electric_scooter", "is_disabled": 0, "lat": 38.884829, "rental_uris": {"ios": "https://dc.lft.to/lastmile_qr_scan", "android": "https://dc.lft.to/lastmile_qr_scan"}, "is_reserved": 0, "fusion_lon": 0.0, "fusion_lat": 0.0, "lon": -76.997064, "name": "a7b349360edc4f65b2b176cc6ee02374"}, {"bike_id": "21302a649a67589fde63778dbdf619e2", "type": "electric_scooter", "is_disabled": 0, "lat": 38.916322666666666, "rental_uris": {"ios": "https://dc.lft.to/lastmile_qr_scan", "android": "https://dc.lft.to/lastmile_qr_scan"}, "is_reserved": 0, "fusion_lon": 0.0, "fusion_lat": 0.0, "lon": -77.04810933333333, "name": "21302a649a67589fde63778dbdf619e2"}, {"bike_id": "34018778dccce90d5f18b7ba9d019e0b", "type": "electric_scooter", "is_disabled": 0, "lat": 38.915837, "rental_uris": {"ios": "https://dc.lft.to/lastmile_qr_scan", "android": "https://dc.lft.to/lastmile_qr_scan"}, "is_reserved": 0, "fusion_lon": 0.0, "fusion_lat": 0.0, "lon": -77.03194016666667, "name": "34018778dccce90d5f18b7ba9d019e0b"}, {"bike_id": "c2e9e20a1125e461d86c157d5426951a", "type": "electric_scooter", "is_disabled": 0, "lat": 38.926440166666666, "rental_uris": {"ios": "https://dc.lft.to/lastmile_qr_scan", "android": "https://dc.lft.to/lastmile_qr_scan"}, "is_reserved": 0, "fusion_lon": 0.0, "fusion_lat": 0.0, "lon": -77.035495, "name": "c2e9e20a1125e461d86c157d5426951a"}, {"bike_id": "20386bd05390aaba2b61f65fe0c387fa", "type": "electric_bike", "is_disabled": 0, "lat": 38.8589255, "rental_uris": {"ios": "https://dc.lft.to/lastmile_qr_scan", "android": "https://dc.lft.to/lastmile_qr_scan"}, "is_reserved": 0, "fusion_lon": 0.0, "fusion_lat": 0.0, "lon": -77.1186015, "name": "20386bd05390aaba2b61f65fe0c387fa"}, {"bike_id": "32ddac988cfcbf8e19f598c47991e880", "type": "electric_scooter", "is_disabled": 0, "lat": 38.88060866666667, "rental_uris": {"ios": "https://dc.lft.to/lastmile_qr_scan", "android": "https://dc.lft.to/lastmile_qr_scan"}, "is_reserved": 0, "fusion_lon": 0.0, "fusion_lat": 0.0, "lon": -77.02560433333333, "name": "32ddac988cfcbf8e19f598c47991e880"}, {"bike_id": "80b2fda602026b70f3ff763da40a5978", "type": "electric_scooter", "is_disabled": 0, "lat": 38.90060716666667, "rental_uris": {"ios": "https://dc.lft.to/lastmile_qr_scan", "android": "https://dc.lft.to/lastmile_qr_scan"}, "is_reserved": 0, "fusion_lon": 0.0, "fusion_lat": 0.0, "lon": -77.04927466666666, "name": "80b2fda602026b70f3ff763da40a5978"}, {"bike_id": "ee008b164a4af7c102e771f908d90c60", "type": "electric_scooter", "is_disabled": 0, "lat": 38.90264116666667, "rental_uris": {"ios": "https://dc.lft.to/lastmile_qr_scan", "android": "https://dc.lft.to/lastmile_qr_scan"}, "is_reserved": 0, "fusion_lon": 0.0, "fusion_lat": 0.0, "lon": -77.03145266666667, "name": "ee008b164a4af7c102e771f908d90c60"}, {"bike_id": "86ecb6625bfa80f1f9e9508939b6ac9b", "type": "electric_scooter", "is_disabled": 0, "lat": 38.904084166666664, "rental_uris": {"ios": "https://dc.lft.to/lastmile_qr_scan", "android": "https://dc.lft.to/lastmile_qr_scan"}, "is_reserved": 0, "fusion_lon": 0.0, "fusion_lat": 0.0, "lon": -76.9732945, "name": "86ecb6625bfa80f1f9e9508939b6ac9b"}, {"bike_id": "0543bf40211559f6ce498bbca37ad689", "type": "electric_scooter", "is_disabled": 0, "lat": 38.9053985, "rental_uris": {"ios": "https://dc.lft.to/lastmile_qr_scan", "android": "https://dc.lft.to/lastmile_qr_scan"}, "is_reserved": 0, "fusion_lon": 0.0, "fusion_lat": 0.0, "lon": -77.058142, "name": "0543bf40211559f6ce498bbca37ad689"}, {"bike_id": "c42646cfd9cf1a0d1b841b5bdfc948ee", "type": "electric_scooter", "is_disabled": 0, "lat": 38.915913333333336, "rental_uris": {"ios": "https://dc.lft.to/lastmile_qr_scan", "android": "https://dc.lft.to/lastmile_qr_scan"}, "is_reserved": 0, "fusion_lon": 0.0, "fusion_lat": 0.0, "lon": -77.00198933333333, "name": "c42646cfd9cf1a0d1b841b5bdfc948ee"}, {"bike_id": "3b27bd05ad7264d86ead77c3d068e765", "type": "electric_scooter", "is_disabled": 0, "lat": 38.89801766666667, "rental_uris": {"ios": "https://dc.lft.to/lastmile_qr_scan", "android": "https://dc.lft.to/lastmile_qr_scan"}, "is_reserved": 0, "fusion_lon": 0.0, "fusion_lat": 0.0, "lon": -77.03204866666667, "name": "3b27bd05ad7264d86ead77c3d068e765"}, {"bike_id": "d0bda702f67077c09ec7469c3b84f317", "type": "electric_scooter", "is_disabled": 0, "lat": 38.8997315, "rental_uris": {"ios": "https://dc.lft.to/lastmile_qr_scan", "android": "https://dc.lft.to/lastmile_qr_scan"}, "is_reserved": 0, "fusion_lon": 0.0, "fusion_lat": 0.0, "lon": -76.98305266666667, "name": "d0bda702f67077c09ec7469c3b84f317"}, {"bike_id": "412bb37bd15de415b8a1fa3a18a20d75", "type": "electric_scooter", "is_disabled": 0, "lat": 38.9046975, "rental_uris": {"ios": "https://dc.lft.to/lastmile_qr_scan", "android": "https://dc.lft.to/lastmile_qr_scan"}, "is_reserved": 0, "fusion_lon": 0.0, "fusion_lat": 0.0, "lon": -77.00920666666667, "name": "412bb37bd15de415b8a1fa3a18a20d75"}, {"bike_id": "f37903394c932f9c000557d6bd193f91", "type": "electric_scooter", "is_disabled": 0, "lat": 38.906624666666666, "rental_uris": {"ios": "https://dc.lft.to/lastmile_qr_scan", "android": "https://dc.lft.to/lastmile_qr_scan"}, "is_reserved": 0, "fusion_lon": 0.0, "fusion_lat": 0.0, "lon": -77.03854333333334, "name": "f37903394c932f9c000557d6bd193f91"}, {"bike_id": "ce2f4da73bce210bbc70f3f615029d0f", "type": "electric_scooter", "is_disabled": 0, "lat": 38.89738166666667, "rental_uris": {"ios": "https://dc.lft.to/lastmile_qr_scan", "android": "https://dc.lft.to/lastmile_qr_scan"}, "is_reserved": 0, "fusion_lon": 0.0, "fusion_lat": 0.0, "lon": -76.94719916666666, "name": "ce2f4da73bce210bbc70f3f615029d0f"}, {"bike_id": "c08181ed416b498b37b3ab52e80dc861", "type": "electric_bike", "is_disabled": 0, "lat": 38.88405433333333, "rental_uris": {"ios": "https://dc.lft.to/lastmile_qr_scan", "android": "https://dc.lft.to/lastmile_qr_scan"}, "is_reserved": 0, "fusion_lon": 0.0, "fusion_lat": 0.0, "lon": -76.96060283333334, "name": "c08181ed416b498b37b3ab52e80dc861"}, {"bike_id": "90a1775480cbc37cbac0b4d476d84bb8", "type": "electric_bike", "is_disabled": 0, "lat": 38.948966, "rental_uris": {"ios": "https://dc.lft.to/lastmile_qr_scan", "android": "https://dc.lft.to/lastmile_qr_scan"}, "is_reserved": 0, "fusion_lon": 0.0, "fusion_lat": 0.0, "lon": -76.96375433333333, "name": "90a1775480cbc37cbac0b4d476d84bb8"}, {"bike_id": "16267f7b68850300f7ed4e4706be001a", "type": "electric_scooter", "is_disabled": 0, "lat": 38.918185333333334, "rental_uris": {"ios": "https://dc.lft.to/lastmile_qr_scan", "android": "https://dc.lft.to/lastmile_qr_scan"}, "is_reserved": 0, "fusion_lon": 0.0, "fusion_lat": 0.0, "lon": -77.002586, "name": "16267f7b68850300f7ed4e4706be001a"}, {"bike_id": "7d08f1ea06f5118ea02ccf408786d141", "type": "electric_scooter", "is_disabled": 0, "lat": 38.91804716666667, "rental_uris": {"ios": "https://dc.lft.to/lastmile_qr_scan", "android": "https://dc.lft.to/lastmile_qr_scan"}, "is_reserved": 0, "fusion_lon": 0.0, "fusion_lat": 0.0, "lon": -77.03436883333333, "name": "7d08f1ea06f5118ea02ccf408786d141"}, {"bike_id": "eb3907bec9739ecb174d9b46e185f953", "type": "electric_scooter", "is_disabled": 0, "lat": 38.9176175, "rental_uris": {"ios": "https://dc.lft.to/lastmile_qr_scan", "android": "https://dc.lft.to/lastmile_qr_scan"}, "is_reserved": 0, "fusion_lon": 0.0, "fusion_lat": 0.0, "lon": -77.00452333333334, "name": "eb3907bec9739ecb174d9b46e185f953"}, {"bike_id": "1c8f4a6a889c0b727c2e3d9a639deac1", "type": "electric_scooter", "is_disabled": 0, "lat": 38.927966166666664, "rental_uris": {"ios": "https://dc.lft.to/lastmile_qr_scan", "android": "https://dc.lft.to/lastmile_qr_scan"}, "is_reserved": 0, "fusion_lon": 0.0, "fusion_lat": 0.0, "lon": -77.02600433333333, "name": "1c8f4a6a889c0b727c2e3d9a639deac1"}, {"bike_id": "a5a6c21c476397a7234534ef8d6439d2", "type": "electric_scooter", "is_disabled": 0, "lat": 38.904059333333336, "rental_uris": {"ios": "https://dc.lft.to/lastmile_qr_scan", "android": "https://dc.lft.to/lastmile_qr_scan"}, "is_reserved": 0, "fusion_lon": 0.0, "fusion_lat": 0.0, "lon": -77.02406866666666, "name": "a5a6c21c476397a7234534ef8d6439d2"}, {"bike_id": "ad6e38138ea75ca5bde3eca65997090a", "type": "electric_scooter", "is_disabled": 0, "lat": 38.90926366666667, "rental_uris": {"ios": "https://dc.lft.to/lastmile_qr_scan", "android": "https://dc.lft.to/lastmile_qr_scan"}, "is_reserved": 0, "fusion_lon": 0.0, "fusion_lat": 0.0, "lon": -77.03208316666667, "name": "ad6e38138ea75ca5bde3eca65997090a"}, {"bike_id": "43bbd7bb6d3425d90c0fa1d2558f31f4", "type": "electric_scooter", "is_disabled": 0, "lat": 38.9109115, "rental_uris": {"ios": "https://dc.lft.to/lastmile_qr_scan", "android": "https://dc.lft.to/lastmile_qr_scan"}, "is_reserved": 0, "fusion_lon": 0.0, "fusion_lat": 0.0, "lon": -77.038573, "name": "43bbd7bb6d3425d90c0fa1d2558f31f4"}, {"bike_id": "6fd1e72c2b3f23f31221584908dce015", "type": "electric_scooter", "is_disabled": 0, "lat": 38.938408833333334, "rental_uris": {"ios": "https://dc.lft.to/lastmile_qr_scan", "android": "https://dc.lft.to/lastmile_qr_scan"}, "is_reserved": 0, "fusion_lon": 0.0, "fusion_lat": 0.0, "lon": -77.03397433333333, "name": "6fd1e72c2b3f23f31221584908dce015"}, {"bike_id": "87afe4b75f70d5cb35b412a6137227cc", "type": "electric_scooter", "is_disabled": 0, "lat": 38.91707733333333, "rental_uris": {"ios": "https://dc.lft.to/lastmile_qr_scan", "android": "https://dc.lft.to/lastmile_qr_scan"}, "is_reserved": 0, "fusion_lon": 0.0, "fusion_lat": 0.0, "lon": -77.02894733333333, "name": "87afe4b75f70d5cb35b412a6137227cc"}, {"bike_id": "d008775dc1777150889518b3f27ef787", "type": "electric_scooter", "is_disabled": 0, "lat": 38.91759866666666, "rental_uris": {"ios": "https://dc.lft.to/lastmile_qr_scan", "android": "https://dc.lft.to/lastmile_qr_scan"}, "is_reserved": 0, "fusion_lon": 0.0, "fusion_lat": 0.0, "lon": -77.04761633333334, "name": "d008775dc1777150889518b3f27ef787"}, {"bike_id": "bcd84475da5ad52a3af25431edfa4d30", "type": "electric_scooter", "is_disabled": 0, "lat": 38.918107, "rental_uris": {"ios": "https://dc.lft.to/lastmile_qr_scan", "android": "https://dc.lft.to/lastmile_qr_scan"}, "is_reserved": 0, "fusion_lon": 0.0, "fusion_lat": 0.0, "lon": -77.03248983333333, "name": "bcd84475da5ad52a3af25431edfa4d30"}, {"bike_id": "780a1c352d0f944052198012fb7f8074", "type": "electric_scooter", "is_disabled": 0, "lat": 38.858136333333334, "rental_uris": {"ios": "https://dc.lft.to/lastmile_qr_scan", "android": "https://dc.lft.to/lastmile_qr_scan"}, "is_reserved": 0, "fusion_lon": 0.0, "fusion_lat": 0.0, "lon": -76.98702416666667, "name": "780a1c352d0f944052198012fb7f8074"}, {"bike_id": "2537fd7372908b3459aed7f756e1150f", "type": "electric_scooter", "is_disabled": 0, "lat": 38.884593333333335, "rental_uris": {"ios": "https://dc.lft.to/lastmile_qr_scan", "android": "https://dc.lft.to/lastmile_qr_scan"}, "is_reserved": 0, "fusion_lon": 0.0, "fusion_lat": 0.0, "lon": -76.98552483333333, "name": "2537fd7372908b3459aed7f756e1150f"}, {"bike_id": "e8826223d3134f45794aa4a1d32f4f05", "type": "electric_scooter", "is_disabled": 0, "lat": 38.919019166666665, "rental_uris": {"ios": "https://dc.lft.to/lastmile_qr_scan", "android": "https://dc.lft.to/lastmile_qr_scan"}, "is_reserved": 0, "fusion_lon": 0.0, "fusion_lat": 0.0, "lon": -77.02407066666666, "name": "e8826223d3134f45794aa4a1d32f4f05"}, {"bike_id": "eca373d8d84502f4b1ca2452ba2ebac8", "type": "electric_scooter", "is_disabled": 0, "lat": 38.9063845, "rental_uris": {"ios": "https://dc.lft.to/lastmile_qr_scan", "android": "https://dc.lft.to/lastmile_qr_scan"}, "is_reserved": 0, "fusion_lon": 0.0, "fusion_lat": 0.0, "lon": -77.01791733333333, "name": "eca373d8d84502f4b1ca2452ba2ebac8"}, {"bike_id": "85dc18c2399d51fda94a10c78b227839", "type": "electric_scooter", "is_disabled": 0, "lat": 38.9235345, "rental_uris": {"ios": "https://dc.lft.to/lastmile_qr_scan", "android": "https://dc.lft.to/lastmile_qr_scan"}, "is_reserved": 0, "fusion_lon": 0.0, "fusion_lat": 0.0, "lon": -77.04151466666667, "name": "85dc18c2399d51fda94a10c78b227839"}, {"bike_id": "0c5d63695ca2df5cc69f4542e635e4b7", "type": "electric_scooter", "is_disabled": 0, "lat": 38.915517333333334, "rental_uris": {"ios": "https://dc.lft.to/lastmile_qr_scan", "android": "https://dc.lft.to/lastmile_qr_scan"}, "is_reserved": 0, "fusion_lon": 0.0, "fusion_lat": 0.0, "lon": -77.024152, "name": "0c5d63695ca2df5cc69f4542e635e4b7"}, {"bike_id": "61fa876882789f50072af68371db472d", "type": "electric_scooter", "is_disabled": 0, "lat": 38.951146333333334, "rental_uris": {"ios": "https://dc.lft.to/lastmile_qr_scan", "android": "https://dc.lft.to/lastmile_qr_scan"}, "is_reserved": 0, "fusion_lon": 0.0, "fusion_lat": 0.0, "lon": -77.01433416666667, "name": "61fa876882789f50072af68371db472d"}, {"bike_id": "683243d666992b6d3ef8365e9cb0a93a", "type": "electric_bike", "is_disabled": 0, "lat": 38.848372833333336, "rental_uris": {"ios": "https://dc.lft.to/lastmile_qr_scan", "android": "https://dc.lft.to/lastmile_qr_scan"}, "is_reserved": 0, "fusion_lon": 0.0, "fusion_lat": 0.0, "lon": -77.07913216666667, "name": "683243d666992b6d3ef8365e9cb0a93a"}, {"bike_id": "92e15485c5504c74e80b4d0550b5d35b", "type": "electric_scooter", "is_disabled": 0, "lat": 38.9170655, "rental_uris": {"ios": "https://dc.lft.to/lastmile_qr_scan", "android": "https://dc.lft.to/lastmile_qr_scan"}, "is_reserved": 0, "fusion_lon": 0.0, "fusion_lat": 0.0, "lon": -77.02411233333333, "name": "92e15485c5504c74e80b4d0550b5d35b"}, {"bike_id": "55c33a10ed6e3b8f6e4aaf403c2dc6c1", "type": "electric_scooter", "is_disabled": 0, "lat": 38.86668, "rental_uris": {"ios": "https://dc.lft.to/lastmile_qr_scan", "android": "https://dc.lft.to/lastmile_qr_scan"}, "is_reserved": 0, "fusion_lon": 0.0, "fusion_lat": 0.0, "lon": -76.98533316666666, "name": "55c33a10ed6e3b8f6e4aaf403c2dc6c1"}, {"bike_id": "1fde2a74dfb4dbdbf21a7c987e57fe3d", "type": "electric_scooter", "is_disabled": 0, "lat": 38.89883183333333, "rental_uris": {"ios": "https://dc.lft.to/lastmile_qr_scan", "android": "https://dc.lft.to/lastmile_qr_scan"}, "is_reserved": 0, "fusion_lon": 0.0, "fusion_lat": 0.0, "lon": -76.93174116666667, "name": "1fde2a74dfb4dbdbf21a7c987e57fe3d"}, {"bike_id": "ae47a9d6575dcd85308e1a8c92246ff0", "type": "electric_scooter", "is_disabled": 0, "lat": 38.92891266666667, "rental_uris": {"ios": "https://dc.lft.to/lastmile_qr_scan", "android": "https://dc.lft.to/lastmile_qr_scan"}, "is_reserved": 0, "fusion_lon": 0.0, "fusion_lat": 0.0, "lon": -77.013704, "name": "ae47a9d6575dcd85308e1a8c92246ff0"}, {"bike_id": "052d810c547fbc0504825c64ba6a73de", "type": "electric_scooter", "is_disabled": 0, "lat": 38.896226, "rental_uris": {"ios": "https://dc.lft.to/lastmile_qr_scan", "android": "https://dc.lft.to/lastmile_qr_scan"}, "is_reserved": 0, "fusion_lon": 0.0, "fusion_lat": 0.0, "lon": -77.031236, "name": "052d810c547fbc0504825c64ba6a73de"}, {"bike_id": "700515709b93eb706d0053931c502a47", "type": "electric_bike", "is_disabled": 0, "lat": 38.942570833333335, "rental_uris": {"ios": "https://dc.lft.to/lastmile_qr_scan", "android": "https://dc.lft.to/lastmile_qr_scan"}, "is_reserved": 0, "fusion_lon": 0.0, "fusion_lat": 0.0, "lon": -76.99070833333333, "name": "700515709b93eb706d0053931c502a47"}, {"bike_id": "266946927635b73a18b68c8d7bd5ee0d", "type": "electric_scooter", "is_disabled": 0, "lat": 38.881875, "rental_uris": {"ios": "https://dc.lft.to/lastmile_qr_scan", "android": "https://dc.lft.to/lastmile_qr_scan"}, "is_reserved": 0, "fusion_lon": 0.0, "fusion_lat": 0.0, "lon": -77.02080016666666, "name": "266946927635b73a18b68c8d7bd5ee0d"}, {"bike_id": "87a19a4b203a1aef87fe624b50326ca2", "type": "electric_scooter", "is_disabled": 0, "lat": 38.89956816666667, "rental_uris": {"ios": "https://dc.lft.to/lastmile_qr_scan", "android": "https://dc.lft.to/lastmile_qr_scan"}, "is_reserved": 0, "fusion_lon": 0.0, "fusion_lat": 0.0, "lon": -77.01633283333334, "name": "87a19a4b203a1aef87fe624b50326ca2"}, {"bike_id": "c495bc1ceab25218253bad9ce3d361d6", "type": "electric_scooter", "is_disabled": 0, "lat": 38.9103345, "rental_uris": {"ios": "https://dc.lft.to/lastmile_qr_scan", "android": "https://dc.lft.to/lastmile_qr_scan"}, "is_reserved": 0, "fusion_lon": 0.0, "fusion_lat": 0.0, "lon": -77.037989, "name": "c495bc1ceab25218253bad9ce3d361d6"}, {"bike_id": "21a9567fe0c038efe746d9c7a168813c", "type": "electric_scooter", "is_disabled": 0, "lat": 38.91919516666667, "rental_uris": {"ios": "https://dc.lft.to/lastmile_qr_scan", "android": "https://dc.lft.to/lastmile_qr_scan"}, "is_reserved": 0, "fusion_lon": 0.0, "fusion_lat": 0.0, "lon": -77.03111733333333, "name": "21a9567fe0c038efe746d9c7a168813c"}, {"bike_id": "f217fd0218fc06fd4abf40f1dbeee987", "type": "electric_scooter", "is_disabled": 0, "lat": 38.957877833333335, "rental_uris": {"ios": "https://dc.lft.to/lastmile_qr_scan", "android": "https://dc.lft.to/lastmile_qr_scan"}, "is_reserved": 0, "fusion_lon": 0.0, "fusion_lat": 0.0, "lon": -77.03217966666666, "name": "f217fd0218fc06fd4abf40f1dbeee987"}, {"bike_id": "5d018423e5256d30a881527970b422ed", "type": "electric_scooter", "is_disabled": 0, "lat": 38.92342566666667, "rental_uris": {"ios": "https://dc.lft.to/lastmile_qr_scan", "android": "https://dc.lft.to/lastmile_qr_scan"}, "is_reserved": 0, "fusion_lon": 0.0, "fusion_lat": 0.0, "lon": -77.05119516666667, "name": "5d018423e5256d30a881527970b422ed"}, {"bike_id": "b6e3846959b6f415a5760e3d71b64103", "type": "electric_scooter", "is_disabled": 0, "lat": 38.916902666666665, "rental_uris": {"ios": "https://dc.lft.to/lastmile_qr_scan", "android": "https://dc.lft.to/lastmile_qr_scan"}, "is_reserved": 0, "fusion_lon": 0.0, "fusion_lat": 0.0, "lon": -77.02597666666666, "name": "b6e3846959b6f415a5760e3d71b64103"}, {"bike_id": "41ef767df063f96a3dff06179916b27e", "type": "electric_scooter", "is_disabled": 0, "lat": 38.923854666666664, "rental_uris": {"ios": "https://dc.lft.to/lastmile_qr_scan", "android": "https://dc.lft.to/lastmile_qr_scan"}, "is_reserved": 0, "fusion_lon": 0.0, "fusion_lat": 0.0, "lon": -77.0297435, "name": "41ef767df063f96a3dff06179916b27e"}, {"bike_id": "7b17073866feacf6a5c8d06e70bc8baa", "type": "electric_scooter", "is_disabled": 0, "lat": 38.923288, "rental_uris": {"ios": "https://dc.lft.to/lastmile_qr_scan", "android": "https://dc.lft.to/lastmile_qr_scan"}, "is_reserved": 0, "fusion_lon": 0.0, "fusion_lat": 0.0, "lon": -77.037833, "name": "7b17073866feacf6a5c8d06e70bc8baa"}, {"bike_id": "5b870100e529374ad0d9518b10f189bf", "type": "electric_bike", "is_disabled": 0, "lat": 38.973948, "rental_uris": {"ios": "https://dc.lft.to/lastmile_qr_scan", "android": "https://dc.lft.to/lastmile_qr_scan"}, "is_reserved": 0, "fusion_lon": 0.0, "fusion_lat": 0.0, "lon": -77.0645335, "name": "5b870100e529374ad0d9518b10f189bf"}, {"bike_id": "24895ca7edf2e818079e3154e37f2b14", "type": "electric_scooter", "is_disabled": 0, "lat": 38.90118983333333, "rental_uris": {"ios": "https://dc.lft.to/lastmile_qr_scan", "android": "https://dc.lft.to/lastmile_qr_scan"}, "is_reserved": 0, "fusion_lon": 0.0, "fusion_lat": 0.0, "lon": -76.9295185, "name": "24895ca7edf2e818079e3154e37f2b14"}, {"bike_id": "407b30b8ced7de802237c043ec8b94af", "type": "electric_scooter", "is_disabled": 0, "lat": 38.88535516666666, "rental_uris": {"ios": "https://dc.lft.to/lastmile_qr_scan", "android": "https://dc.lft.to/lastmile_qr_scan"}, "is_reserved": 0, "fusion_lon": 0.0, "fusion_lat": 0.0, "lon": -76.998223, "name": "407b30b8ced7de802237c043ec8b94af"}, {"bike_id": "1f57bb73a7eb0d72b1c25e57ac45b5a4", "type": "electric_scooter", "is_disabled": 0, "lat": 38.92334266666667, "rental_uris": {"ios": "https://dc.lft.to/lastmile_qr_scan", "android": "https://dc.lft.to/lastmile_qr_scan"}, "is_reserved": 0, "fusion_lon": 0.0, "fusion_lat": 0.0, "lon": -77.053773, "name": "1f57bb73a7eb0d72b1c25e57ac45b5a4"}, {"bike_id": "84848ec4f3031a68a8e37c9f88905fb2", "type": "electric_scooter", "is_disabled": 0, "lat": 38.872454166666664, "rental_uris": {"ios": "https://dc.lft.to/lastmile_qr_scan", "android": "https://dc.lft.to/lastmile_qr_scan"}, "is_reserved": 0, "fusion_lon": 0.0, "fusion_lat": 0.0, "lon": -76.97726716666666, "name": "84848ec4f3031a68a8e37c9f88905fb2"}, {"bike_id": "f222d50037eacee757db1a88e797eb73", "type": "electric_scooter", "is_disabled": 0, "lat": 38.91287366666667, "rental_uris": {"ios": "https://dc.lft.to/lastmile_qr_scan", "android": "https://dc.lft.to/lastmile_qr_scan"}, "is_reserved": 0, "fusion_lon": 0.0, "fusion_lat": 0.0, "lon": -77.02383716666667, "name": "f222d50037eacee757db1a88e797eb73"}, {"bike_id": "4d054adcfa9f1e7ea5dc38f504dd4aa4", "type": "electric_bike", "is_disabled": 0, "lat": 38.8452645, "rental_uris": {"ios": "https://dc.lft.to/lastmile_qr_scan", "android": "https://dc.lft.to/lastmile_qr_scan"}, "is_reserved": 0, "fusion_lon": 0.0, "fusion_lat": 0.0, "lon": -76.9739545, "name": "4d054adcfa9f1e7ea5dc38f504dd4aa4"},