{"data": {"bikes": [{"lat": 38.87625666666667, "is_disabled": 0, "type": "electric_scooter", "lon": -76.96528716666667, "bike_id": "6c49bd56fe5d6b2b1ea4c8de5b7acad2", "fusion_lat": 0.0, "name": "6c49bd56fe5d6b2b1ea4c8de5b7acad2", "is_reserved": 0, "rental_uris": {"android": "https://dc.lft.to/lastmile_qr_scan", "ios": "https://dc.lft.to/lastmile_qr_scan"}, "fusion_lon": 0.0}, {"lat": 38.91699116666667, "is_disabled": 0, "type": "electric_scooter", "lon": -77.03316766666667, "bike_id": "a41dcbbde72e7547149e20750547c5b9", "fusion_lat": 0.0, "name": "a41dcbbde72e7547149e20750547c5b9", "is_reserved": 0, "rental_uris": {"android": "https://dc.lft.to/lastmile_qr_scan", "ios": "https://dc.lft.to/lastmile_qr_scan"}, "fusion_lon": 0.0}, {"lat": 38.914165, "is_disabled": 0, "type": "electric_scooter", "lon": -77.03179533333333, "bike_id": "9608fd55c30f402461d30369d3d10bec", "fusion_lat": 0.0, "name": "9608fd55c30f402461d30369d3d10bec", "is_reserved": 0, "rental_uris": {"android": "https://dc.lft.to/lastmile_qr_scan", "ios": "https://dc.lft.to/lastmile_qr_scan"}, "fusion_lon": 0.0}, {"lat": 38.907656333333335, "is_disabled": 0, "type": "electric_scooter", "lon": -77.0039475, "bike_id": "fdf3c4817fbf53d7ba1d3447de238bdc", "fusion_lat": 0.0, "name": "fdf3c4817fbf53d7ba1d3447de238bdc", "is_reserved": 0, "rental_uris": {"android": "https://dc.lft.to/lastmile_qr_scan", "ios": "https://dc.lft.to/lastmile_qr_scan"}, "fusion_lon": 0.0}, {"lat": 38.898888166666666, "is_disabled": 0, "type": "electric_scooter", "lon": -77.03320683333334, "bike_id": "29b8f52198f77d2c1c6861650b458b25", "fusion_lat": 0.0, "name": "29b8f52198f77d2c1c6861650b458b25", "is_reserved": 0, "rental_uris": {"android": "https://dc.lft.to/lastmile_qr_scan", "ios": "https://dc.lft.to/lastmile_qr_scan"}, "fusion_lon": 0.0}, {"lat": 38.93853883333333, "is_disabled": 0, "type": "electric_scooter", "lon": -77.02657433333333, "bike_id": "8e571e0f110aaca9ef22f4620365f31c", "fusion_lat": 0.0, "name": "8e571e0f110aaca9ef22f4620365f31c", "is_reserved": 0, "rental_uris": {"android": "https://dc.lft.to/lastmile_qr_scan", "ios": "https://dc.lft.to/lastmile_qr_scan"}, "fusion_lon": 0.0}, {"lat": 38.89318683333333, "is_disabled": 0, "type": "electric_scooter", "lon": -76.93005816666667, "bike_id": "a2806afc2510525ab88f8fcc940d9286", "fusion_lat": 0.0, "name": "a2806afc2510525ab88f8fcc940d9286", "is_reserved": 0, "rental_uris": {"android": "https://dc.lft.to/lastmile_qr_scan", "ios": "https://dc.lft.to/lastmile_qr_scan"}, "fusion_lon": 0.0}, {"lat": 38.917064, "is_disabled": 0, "type": "electric_scooter", "lon": -77.03503666666667, "bike_id": "751e6b05294ff06bb38086e39a655086", "fusion_lat": 0.0, "name": "751e6b05294ff06bb38086e39a655086", "is_reserved": 0, "rental_uris": {"android": "https://dc.lft.to/lastmile_qr_scan", "ios": "https://dc.lft.to/lastmile_qr_scan"}, "fusion_lon": 0.0}, {"lat": 38.8983835, "is_disabled": 0, "type": "electric_scooter", "lon": -77.04359133333334, "bike_id": "3d7a710077b5b254d035a562938661cd", "fusion_lat": 0.0, "name": "3d7a710077b5b254d035a562938661cd", "is_reserved": 0, "rental_uris": {"android": "https://dc.lft.to/lastmile_qr_scan", "ios": "https://dc.lft.to/lastmile_qr_scan"}, "fusion_lon": 0.0}, {"lat": 38.8961705, "is_disabled": 0, "type": "electric_scooter", "lon": -76.99843233333333, "bike_id": "7f5b0ba28b6eb2b64a1fc1f29fa61699", "fusion_lat": 0.0, "name": "7f5b0ba28b6eb2b64a1fc1f29fa61699", "is_reserved": 0, "rental_uris": {"android": "https://dc.lft.to/lastmile_qr_scan", "ios": "https://dc.lft.to/lastmile_qr_scan"}, "fusion_lon": 0.0}, {"lat": 39.03404033333333, "is_disabled": 0, "type": "electric_bike", "lon": -77.04214, "bike_id": "d13fecc9c348edfe48215e3be6e86aed", "fusion_lat": 0.0, "name": "d13fecc9c348edfe48215e3be6e86aed", "is_reserved": 0, "rental_uris": {"android": "https://dc.lft.to/lastmile_qr_scan", "ios": "https://dc.lft.to/lastmile_qr_scan"}, "fusion_lon": 0.0}, {"lat": 38.922541333333335, "is_disabled": 0, "type": "electric_scooter", "lon": -77.0703755, "bike_id": "2e41a11ffea39482fabb421d75a289ef", "fusion_lat": 0.0, "name": "2e41a11ffea39482fabb421d75a289ef", "is_reserved": 0, "rental_uris": {"android": "https://dc.lft.to/lastmile_qr_scan", "ios": "https://dc.lft.to/lastmile_qr_scan"}, "fusion_lon": 0.0}, {"lat": 38.867079, "is_disabled": 0, "type": "electric_scooter", "lon": -76.987294, "bike_id": "98442542be28d0ebf105480332607453", "fusion_lat": 0.0, "name": "98442542be28d0ebf105480332607453", "is_reserved": 0, "rental_uris": {"android": "https://dc.lft.to/lastmile_qr_scan", "ios": "https://dc.lft.to/lastmile_qr_scan"}, "fusion_lon": 0.0}, {"lat": 38.906451833333335, "is_disabled": 0, "type": "electric_scooter", "lon": -77.041936, "bike_id": "4edba7a2979b505a4028e857aa379cdc", "fusion_lat": 0.0, "name": "4edba7a2979b505a4028e857aa379cdc", "is_reserved": 0, "rental_uris": {"android": "https://dc.lft.to/lastmile_qr_scan", "ios": "https://dc.lft.to/lastmile_qr_scan"}, "fusion_lon": 0.0}, {"lat": 38.902597166666666, "is_disabled": 0, "type": "electric_scooter", "lon": -77.03936133333333, "bike_id": "d13cd38ddba600742192235515cf7a4a", "fusion_lat": 0.0, "name": "d13cd38ddba600742192235515cf7a4a", "is_reserved": 0, "rental_uris": {"android": "https://dc.lft.to/lastmile_qr_scan", "ios": "https://dc.lft.to/lastmile_qr_scan"}, "fusion_lon": 0.0}, {"lat": 38.905845, "is_disabled": 0, "type": "electric_scooter", "lon": -76.9862165, "bike_id": "63f12533aafd50e52b3a3241cf5a61bd", "fusion_lat": 0.0, "name": "63f12533aafd50e52b3a3241cf5a61bd", "is_reserved": 0, "rental_uris": {"android": "https://dc.lft.to/lastmile_qr_scan", "ios": "https://dc.lft.to/lastmile_qr_scan"}, "fusion_lon": 0.0}, {"lat": 38.921225, "is_disabled": 0, "type": "electric_scooter", "lon": -77.04573033333334, "bike_id": "3193ed749bd905b3a2c63845c1317cc7", "fusion_lat": 0.0, "name": "3193ed749bd905b3a2c63845c1317cc7", "is_reserved": 0, "rental_uris": {"android": "https://dc.lft.to/lastmile_qr_scan", "ios": "https://dc.lft.to/lastmile_qr_scan"}, "fusion_lon": 0.0}, {"lat": 38.91740583333333, "is_disabled": 0, "type": "electric_scooter", "lon": -77.03193416666667, "bike_id": "24bd4b04339396990e73ab754b0e4ad2", "fusion_lat": 0.0, "name": "24bd4b04339396990e73ab754b0e4ad2", "is_reserved": 0, "rental_uris": {"android": "https://dc.lft.to/lastmile_qr_scan", "ios": "https://dc.lft.to/lastmile_qr_scan"}, "fusion_lon": 0.0}, {"lat": 38.9391475, "is_disabled": 0, "type": "electric_scooter", "lon": -77.0668365, "bike_id": "8f444cac7c639c658ee735a3f3d5a77b", "fusion_lat": 0.0, "name": "8f444cac7c639c658ee735a3f3d5a77b", "is_reserved": 0, "rental_uris": {"android": "https://dc.lft.to/lastmile_qr_scan", "ios": "https://dc.lft.to/lastmile_qr_scan"}, "fusion_lon": 0.0}, {"lat": 38.9086115, "is_disabled": 0, "type": "electric_bike", "lon": -76.9401845, "bike_id": "0d654cee278dea7b578c3e61b392881e", "fusion_lat": 0.0, "name": "0d654cee278dea7b578c3e61b392881e", "is_reserved": 0, "rental_uris": {"android": "https://dc.lft.to/lastmile_qr_scan", "ios": "https://dc.lft.to/lastmile_qr_scan"}, "fusion_lon": 0.0}, {"lat": 38.92148016666667, "is_disabled": 0, "type": "electric_scooter", "lon": -77.0336295, "bike_id": "fed2d9ea1415833f51dc1a09f420b79b", "fusion_lat": 0.0, "name": "fed2d9ea1415833f51dc1a09f420b79b", "is_reserved": 0, "rental_uris": {"android": "https://dc.lft.to/lastmile_qr_scan", "ios": "https://dc.lft.to/lastmile_qr_scan"}, "fusion_lon": 0.0}, {"lat": 38.905990833333334, "is_disabled": 0, "type": "electric_scooter", "lon": -77.06313716666666, "bike_id": "3fec24f35d04054506491044cc110e01", "fusion_lat": 0.0, "name": "3fec24f35d04054506491044cc110e01", "is_reserved": 0, "rental_uris": {"android": "https://dc.lft.to/lastmile_qr_scan", "ios": "https://dc.lft.to/lastmile_qr_scan"}, "fusion_lon": 0.0}, {"lat": 38.91006133333333, "is_disabled": 0, "type": "electric_scooter", "lon": -77.038354, "bike_id": "7f5e2d04162eb2ac8c468f0a7cc8a601", "fusion_lat": 0.0, "name": "7f5e2d04162eb2ac8c468f0a7cc8a601", "is_reserved": 0, "rental_uris": {"android": "https://dc.lft.to/lastmile_qr_scan", "ios": "https://dc.lft.to/lastmile_qr_scan"}, "fusion_lon": 0.0}, {"lat": 38.884564, "is_disabled": 0, "type": "electric_scooter", "lon": -76.9262405, "bike_id": "9add73cd923282790aa4dc3dbf08f9d7", "fusion_lat": 0.0, "name": "9add73cd923282790aa4dc3dbf08f9d7", "is_reserved": 0, "rental_uris": {"android": "https://dc.lft.to/lastmile_qr_scan", "ios": "https://dc.lft.to/lastmile_qr_scan"}, "fusion_lon": 0.0}, {"lat": 38.88479133333333, "is_disabled": 0, "type": "electric_scooter", "lon": -77.03483016666667, "bike_id": "9e8b2ef9c9037990f0d73ae1c529cc2d", "fusion_lat": 0.0, "name": "9e8b2ef9c9037990f0d73ae1c529cc2d", "is_reserved": 0, "rental_uris": {"android": "https://dc.lft.to/lastmile_qr_scan", "ios": "https://dc.lft.to/lastmile_qr_scan"}, "fusion_lon": 0.0}, {"lat": 38.92845233333333, "is_disabled": 0, "type": "electric_bike", "lon": -77.10685833333334, "bike_id": "d4eda2723740e9e051312134670fe2cd", "fusion_lat": 0.0, "name": "d4eda2723740e9e051312134670fe2cd", "is_reserved": 0, "rental_uris": {"android": "https://dc.lft.to/lastmile_qr_scan", "ios": "https://dc.lft.to/lastmile_qr_scan"}, "fusion_lon": 0.0}, {"lat": 38.938620666666665, "is_disabled": 0, "type": "electric_scooter", "lon": -77.02450583333334, "bike_id": "cf2cad78edf16ac71bd4c2a14c69a286", "fusion_lat": 0.0, "name": "cf2cad78edf16ac71bd4c2a14c69a286", "is_reserved": 0, "rental_uris": {"android": "https://dc.lft.to/lastmile_qr_scan", "ios": "https://dc.lft.to/lastmile_qr_scan"}, "fusion_lon": 0.0}, {"lat": 38.80734616666667, "is_disabled": 0, "type": "electric_bike", "lon": -77.09430666666667, "bike_id": "907ece85837b56f6aea7d3e02779e385", "fusion_lat": 0.0, "name": "907ece85837b56f6aea7d3e02779e385", "is_reserved": 0, "rental_uris": {"android": "https://dc.lft.to/lastmile_qr_scan", "ios": "https://dc.lft.to/lastmile_qr_scan"}, "fusion_lon": 0.0}, {"lat": 38.90881783333333, "is_disabled": 0, "type": "electric_scooter", "lon": -77.064386, "bike_id": "3d267e6ded794f8bf4734aa0b705f111", "fusion_lat": 0.0, "name": "3d267e6ded794f8bf4734aa0b705f111", "is_reserved": 0, "rental_uris": {"android": "https://dc.lft.to/lastmile_qr_scan", "ios": "https://dc.lft.to/lastmile_qr_scan"}, "fusion_lon": 0.0}, {"lat": 38.9375635, "is_disabled": 0, "type": "electric_scooter", "lon": -77.03149366666666, "bike_id": "76a328f4158e8bc7bc8e1a04435028d9", "fusion_lat": 0.0, "name": "76a328f4158e8bc7bc8e1a04435028d9", "is_reserved": 0, "rental_uris": {"android": "https://dc.lft.to/lastmile_qr_scan", "ios": "https://dc.lft.to/lastmile_qr_scan"}, "fusion_lon": 0.0}, {"lat": 38.9139105, "is_disabled": 0, "type": "electric_scooter", "lon": -77.03664483333333, "bike_id": "306cf8b98a469869a4a9306f72abec72", "fusion_lat": 0.0, "name": "306cf8b98a469869a4a9306f72abec72", "is_reserved": 0, "rental_uris": {"android": "https://dc.lft.to/lastmile_qr_scan", "ios": "https://dc.lft.to/lastmile_qr_scan"}, "fusion_lon": 0.0}, {"lat": 38.9186585, "is_disabled": 0, "type": "electric_scooter", "lon": -76.971201, "bike_id": "4e0cd55c343c56a0b1b1eb09546d4b8c", "fusion_lat": 0.0, "name": "4e0cd55c343c56a0b1b1eb09546d4b8c", "is_reserved": 0, "rental_uris": {"android": "https://dc.lft.to/lastmile_qr_scan", "ios": "https://dc.lft.to/lastmile_qr_scan"}, "fusion_lon": 0.0}, {"lat": 38.93466983333333, "is_disabled": 0, "type": "electric_scooter", "lon": -77.02849583333334, "bike_id": "fe75d814723fdeb5b8b130f5d875403b", "fusion_lat": 0.0, "name": "fe75d814723fdeb5b8b130f5d875403b", "is_reserved": 0, "rental_uris": {"android": "https://dc.lft.to/lastmile_qr_scan", "ios": "https://dc.lft.to/lastmile_qr_scan"}, "fusion_lon": 0.0}, {"lat": 38.902736, "is_disabled": 0, "type": "electric_scooter", "lon": -77.0395995, "bike_id": "e5804d7f52a1eb20dc7e2c9313498400", "fusion_lat": 0.0, "name": "e5804d7f52a1eb20dc7e2c9313498400", "is_reserved": 0, "rental_uris": {"android": "https://dc.lft.to/lastmile_qr_scan", "ios": "https://dc.lft.to/lastmile_qr_scan"}, "fusion_lon": 0.0}, {"lat": 38.908507, "is_disabled": 0, "type": "electric_scooter", "lon": -76.99964666666666, "bike_id": "ed4ca656cbdb06c6f615ddbacb227387", "fusion_lat": 0.0, "name": "ed4ca656cbdb06c6f615ddbacb227387", "is_reserved": 0, "rental_uris": {"android": "https://dc.lft.to/lastmile_qr_scan", "ios": "https://dc.lft.to/lastmile_qr_scan"}, "fusion_lon": 0.0}, {"lat": 38.91110116666667, "is_disabled": 0, "type": "electric_scooter", "lon": -77.04396616666666, "bike_id": "b1295447802e1713f0c5e9b992689519", "fusion_lat": 0.0, "name": "b1295447802e1713f0c5e9b992689519", "is_reserved": 0, "rental_uris": {"android": "https://dc.lft.to/lastmile_qr_scan", "ios": "https://dc.lft.to/lastmile_qr_scan"}, "fusion_lon": 0.0}, {"lat": 38.92188483333334, "is_disabled": 0, "type": "electric_scooter", "lon": -77.0413885, "bike_id": "b2afaa7d7203b1b09222528a0753f437", "fusion_lat": 0.0, "name": "b2afaa7d7203b1b09222528a0753f437", "is_reserved": 0, "rental_uris": {"android": "https://dc.lft.to/lastmile_qr_scan", "ios": "https://dc.lft.to/lastmile_qr_scan"}, "fusion_lon": 0.0}, {"lat": 38.866588, "is_disabled": 0, "type": "electric_scooter", "lon": -76.98883216666667, "bike_id": "f2de7b02424860e6921e04b162ee7e18", "fusion_lat": 0.0, "name": "f2de7b02424860e6921e04b162ee7e18", "is_reserved": 0, "rental_uris": {"android": "https://dc.lft.to/lastmile_qr_scan", "ios": "https://dc.lft.to/lastmile_qr_scan"}, "fusion_lon": 0.0}, {"lat": 38.9228395, "is_disabled": 0, "type": "electric_scooter", "lon": -77.02971233333334, "bike_id": "643b5156a218e2993925a56f61d5ade0", "fusion_lat": 0.0, "name": "643b5156a218e2993925a56f61d5ade0", "is_reserved": 0, "rental_uris": {"android": "https://dc.lft.to/lastmile_qr_scan", "ios": "https://dc.lft.to/lastmile_qr_scan"}, "fusion_lon": 0.0}, {"lat": 38.805583666666664, "is_disabled": 0, "type": "electric_bike", "lon": -77.132494, "bike_id": "ba0ad8ea126f3b3bf8e09fe33d501df6", "fusion_lat": 0.0, "name": "ba0ad8ea126f3b3bf8e09fe33d501df6", "is_reserved": 0, "rental_uris": {"android": "https://dc.lft.to/lastmile_qr_scan", "ios": "https://dc.lft.to/lastmile_qr_scan"}, "fusion_lon": 0.0}, {"lat": 38.92800533333333, "is_disabled": 0, "type": "electric_scooter", "lon": -77.043179, "bike_id": "0f50f1b4afde7a6a73da5db8dfbd97e4", "fusion_lat": 0.0, "name": "0f50f1b4afde7a6a73da5db8dfbd97e4", "is_reserved": 0, "rental_uris": {"android": "https://dc.lft.to/lastmile_qr_scan", "ios": "https://dc.lft.to/lastmile_qr_scan"}, "fusion_lon": 0.0}, {"lat": 38.916894166666665, "is_disabled": 0, "type": "electric_scooter", "lon": -77.03739333333333, "bike_id": "4f901c6766f3b46321f83807bd58a386", "fusion_lat": 0.0, "name": "4f901c6766f3b46321f83807bd58a386", "is_reserved": 0, "rental_uris": {"android": "https://dc.lft.to/lastmile_qr_scan", "ios": "https://dc.lft.to/lastmile_qr_scan"}, "fusion_lon": 0.0}, {"lat": 38.922782166666664, "is_disabled": 0, "type": "electric_scooter", "lon": -77.02245, "bike_id": "7a87b5da3d196a1e8f8226a40b64d505", "fusion_lat": 0.0, "name": "7a87b5da3d196a1e8f8226a40b64d505", "is_reserved": 0, "rental_uris": {"android": "https://dc.lft.to/lastmile_qr_scan", "ios": "https://dc.lft.to/lastmile_qr_scan"}, "fusion_lon": 0.0}, {"lat": 38.92573266666667, "is_disabled": 0, "type": "electric_scooter", "lon": -77.05769533333333, "bike_id": "81e3191704ee566727f0d3c068eccbf2", "fusion_lat": 0.0, "name": "81e3191704ee566727f0d3c068eccbf2", "is_reserved": 0, "rental_uris": {"android": "https://dc.lft.to/lastmile_qr_scan", "ios": "https://dc.lft.to/lastmile_qr_scan"}, "fusion_lon": 0.0}, {"lat": 38.8990715, "is_disabled": 0, "type": "electric_scooter", "lon": -77.0392905, "bike_id": "91a6bfc00028fb2f93fe4ae8b0d7ffbf", "fusion_lat": 0.0, "name": "91a6bfc00028fb2f93fe4ae8b0d7ffbf", "is_reserved": 0, "rental_uris": {"android": "https://dc.lft.to/lastmile_qr_scan", "ios": "https://dc.lft.to/lastmile_qr_scan"}, "fusion_lon": 0.0}, {"lat": 38.90427666666667, "is_disabled": 0, "type": "electric_scooter", "lon": -77.05339683333334, "bike_id": "8ca97afa3881f3fbd7364c49703638c5", "fusion_lat": 0.0, "name": "8ca97afa3881f3fbd7364c49703638c5", "is_reserved": 0, "rental_uris": {"android": "https://dc.lft.to/lastmile_qr_scan", "ios": "https://dc.lft.to/lastmile_qr_scan"}, "fusion_lon": 0.0}, {"lat": 38.8975145, "is_disabled": 0, "type": "electric_scooter", "lon": -77.045452, "bike_id": "2f99c4c8cda8c839fedf9049b0858bb4", "fusion_lat": 0.0, "name": "2f99c4c8cda8c839fedf9049b0858bb4", "is_reserved": 0, "rental_uris": {"android": "https://dc.lft.to/lastmile_qr_scan", "ios": "https://dc.lft.to/lastmile_qr_scan"}, "fusion_lon": 0.0}, {"lat": 38.89902466666667, "is_disabled": 0, "type": "electric_scooter", "lon": -76.93374583333333, "bike_id": "02285bca5a7cbc6892b9c0605e8c6df1", "fusion_lat": 0.0, "name": "02285bca5a7cbc6892b9c0605e8c6df1", "is_reserved": 0, "rental_uris": {"android": "https://dc.lft.to/lastmile_qr_scan", "ios": "https://dc.lft.to/lastmile_qr_scan"}, "fusion_lon": 0.0}, {"lat": 38.91666983333333, "is_disabled": 0, "type": "electric_scooter", "lon": -77.0295825, "bike_id": "a78de55b955b9d0c75bfffdd44ca7ecc", "fusion_lat": 0.0, "name": "a78de55b955b9d0c75bfffdd44ca7ecc", "is_reserved": 0, "rental_uris": {"android": "https://dc.lft.to/lastmile_qr_scan", "ios": "https://dc.lft.to/lastmile_qr_scan"}, "fusion_lon": 0.0}, {"lat": 38.89728916666667, "is_disabled": 0, "type": "electric_scooter", "lon": -77.0232985, "bike_id": "f1aa7d0b63e3138378b34ca341d15066", "fusion_lat": 0.0, "name": "f1aa7d0b63e3138378b34ca341d15066", "is_reserved": 0, "rental_uris": {"android": "https://dc.lft.to/lastmile_qr_scan", "ios": "https://dc.lft.to/lastmile_qr_scan"}, "fusion_lon": 0.0}, {"lat": 38.89258433333333, "is_disabled": 0, "type": "electric_scooter", "lon": -76.94159316666666, "bike_id": "12dcd66afb122a6fcf356ec735d7f257", "fusion_lat": 0.0, "name": "12dcd66afb122a6fcf356ec735d7f257", "is_reserved": 0, "rental_uris": {"android": "https://dc.lft.to/lastmile_qr_scan", "ios": "https://dc.lft.to/lastmile_qr_scan"}, "fusion_lon": 0.0}, {"lat": 38.939875, "is_disabled": 0, "type": "electric_scooter", "lon": -77.07184966666667, "bike_id": "a8df998f8094f70bf873b6cac183fbf9", "fusion_lat": 0.0, "name": "a8df998f8094f70bf873b6cac183fbf9", "is_reserved": 0, "rental_uris": {"android": "https://dc.lft.to/lastmile_qr_scan", "ios": "https://dc.lft.to/lastmile_qr_scan"}, "fusion_lon": 0.0}, {"lat": 38.87994666666667, "is_disabled": 0, "type": "electric_scooter", "lon": -76.98545666666666, "bike_id": "db528960bfada48b0c31b3909d734f1b", "fusion_lat": 0.0, "name": "db528960bfada48b0c31b3909d734f1b", "is_reserved": 0, "rental_uris": {"android": "https://dc.lft.to/lastmile_qr_scan", "ios": "https://dc.lft.to/lastmile_qr_scan"}, "fusion_lon": 0.0}, {"lat": 38.806832, "is_disabled": 0, "type": "electric_bike", "lon": -77.08120666666667, "bike_id": "c0116ee1c0523eb62f4616d014b159f2", "fusion_lat": 0.0, "name": "c0116ee1c0523eb62f4616d014b159f2", "is_reserved": 0, "rental_uris": {"android": "https://dc.lft.to/lastmile_qr_scan", "ios": "https://dc.lft.to/lastmile_qr_scan"}, "fusion_lon": 0.0}, {"lat": 38.9168765, "is_disabled": 0, "type": "electric_scooter", "lon": -77.0434415, "bike_id": "4f371dc3dcfd4dc2bdcce4a269b11963", "fusion_lat": 0.0, "name": "4f371dc3dcfd4dc2bdcce4a269b11963", "is_reserved": 0, "rental_uris": {"android": "https://dc.lft.to/lastmile_qr_scan", "ios": "https://dc.lft.to/lastmile_qr_scan"}, "fusion_lon": 0.0}, {"lat": 38.903969000000004, "is_disabled": 0, "type": "electric_scooter", "lon": -77.02079716666667, "bike_id": "c88568b6ed13a5ee06753d1548650fa9", "fusion_lat": 0.0, "name": "c88568b6ed13a5ee06753d1548650fa9", "is_reserved": 0, "rental_uris": {"android": "https://dc.lft.to/lastmile_qr_scan", "ios": "https://dc.lft.to/lastmile_qr_scan"}, "fusion_lon": 0.0}, {"lat": 38.9253135, "is_disabled": 0, "type": "electric_scooter", "lon": -77.02580033333334, "bike_id": "ae22343dba31bd09178c2514d3ca2c34", "fusion_lat": 0.0, "name": "ae22343dba31bd09178c2514d3ca2c34", "is_reserved": 0, "rental_uris": {"android": "https://dc.lft.to/lastmile_qr_scan", "ios": "https://dc.lft.to/lastmile_qr_scan"}, "fusion_lon": 0.0}, {"lat": 38.89787616666667, "is_disabled": 0, "type": "electric_scooter", "lon": -77.03207466666667, "bike_id": "4ddc98e24fe1cb55ca4f133fb5669381", "fusion_lat": 0.0, "name": "4ddc98e24fe1cb55ca4f133fb5669381", "is_reserved": 0, "rental_uris": {"android": "https://dc.lft.to/lastmile_qr_scan", "ios": "https://dc.lft.to/lastmile_qr_scan"}, "fusion_lon": 0.0}, {"lat": 38.858121833333335, "is_disabled": 0, "type": "electric_scooter", "lon": -76.98992316666667, "bike_id": "36e683cc552e7176796ca28f12e74b4b", "fusion_lat": 0.0, "name": "36e683cc552e7176796ca28f12e74b4b", "is_reserved": 0, "rental_uris": {"android": "https://dc.lft.to/lastmile_qr_scan", "ios": "https://dc.lft.to/lastmile_qr_scan"}, "fusion_lon": 0.0}, {"lat": 38.92002866666667, "is_disabled": 0, "type": "electric_scooter", "lon": -76.99306116666666, "bike_id": "b94fe65bb527fcc3e0a30aafebc1ca5c", "fusion_lat": 0.0, "name": "b94fe65bb527fcc3e0a30aafebc1ca5c", "is_reserved": 0, "rental_uris": {"android": "https://dc.lft.to/lastmile_qr_scan", "ios": "https://dc.lft.to/lastmile_qr_scan"}, "fusion_lon": 0.0}, {"lat": 38.900399666666665, "is_disabled": 0, "type": "electric_scooter", "lon": -77.028945, "bike_id": "3fc873727a65f29cc85f0fb2d6a2283a", "fusion_lat": 0.0, "name": "3fc873727a65f29cc85f0fb2d6a2283a", "is_reserved": 0, "rental_uris": {"android": "https://dc.lft.to/lastmile_qr_scan", "ios": "https://dc.lft.to/lastmile_qr_scan"}, "fusion_lon": 0.0}, {"lat": 38.91290983333333, "is_disabled": 0, "type": "electric_scooter", "lon": -77.04514883333333, "bike_id": "4ef692d5060e4cc7b6cf6af0e2990f93", "fusion_lat": 0.0, "name": "4ef692d5060e4cc7b6cf6af0e2990f93", "is_reserved": 0, "rental_uris": {"android": "https://dc.lft.to/lastmile_qr_scan", "ios": "https://dc.lft.to/lastmile_qr_scan"}, "fusion_lon": 0.0}, {"lat": 38.9549755, "is_disabled": 0, "type": "electric_scooter", "lon": -77.06564816666666, "bike_id": "a2c1c18505d1104892318569334d0174", "fusion_lat": 0.0, "name": "a2c1c18505d1104892318569334d0174", "is_reserved": 0, "rental_uris": {"android": "https://dc.lft.to/lastmile_qr_scan", "ios": "https://dc.lft.to/lastmile_qr_scan"}, "fusion_lon": 0.0}, {"lat": 38.91103733333333, "is_disabled": 0, "type": "electric_scooter", "lon": -77.0217655, "bike_id": "d3a7e53c5e932623db90005d78abf590", "fusion_lat": 0.0, "name": "d3a7e53c5e932623db90005d78abf590", "is_reserved": 0, "rental_uris": {"android": "https://dc.lft.to/lastmile_qr_scan", "ios": "https://dc.lft.to/lastmile_qr_scan"}, "fusion_lon": 0.0}, {"lat": 38.897336, "is_disabled": 0, "type": "electric_scooter", "lon": -77.05476466666667, "bike_id": "f9efe4ce7e4127fedaa1d68494a5696e", "fusion_lat": 0.0, "name": "f9efe4ce7e4127fedaa1d68494a5696e", "is_reserved": 0, "rental_uris": {"android": "https://dc.lft.to/lastmile_qr_scan", "ios": "https://dc.lft.to/lastmile_qr_scan"}, "fusion_lon": 0.0}, {"lat": 38.92289316666667, "is_disabled": 0, "type": "electric_scooter", "lon": -77.0225285, "bike_id": "d77adfdc1d59602a538e29eb2441c0f9", "fusion_lat": 0.0, "name": "d77adfdc1d59602a538e29eb2441c0f9", "is_reserved": 0, "rental_uris": {"android": "https://dc.lft.to/lastmile_qr_scan", "ios": "https://dc.lft.to/lastmile_qr_scan"}, "fusion_lon": 0.0}, {"lat": 38.92679716666667, "is_disabled": 0, "type": "electric_scooter", "lon": -77.03741966666666, "bike_id": "14d9864bb8d6545e04df7ba8fd0958db", "fusion_lat": 0.0, "name": "14d9864bb8d6545e04df7ba8fd0958db", "is_reserved": 0, "rental_uris": {"android": "https://dc.lft.to/lastmile_qr_scan", "ios": "https://dc.lft.to/lastmile_qr_scan"}, "fusion_lon": 0.0}, {"lat": 38.8050415, "is_disabled": 0, "type": "electric_bike", "lon": -77.04132083333333, "bike_id": "86218ea08eb3ad1a65be2567db1f352b", "fusion_lat": 0.0, "name": "86218ea08eb3ad1a65be2567db1f352b", "is_reserved": 0, "rental_uris": {"android": "https://dc.lft.to/lastmile_qr_scan", "ios": "https://dc.lft.to/lastmile_qr_scan"}, "fusion_lon": 0.0}, {"lat": 38.91414133333333, "is_disabled": 0, "type": "electric_scooter", "lon": -77.03164966666667, "bike_id": "3aa642fdb344fa969ce08ef90a14c44f", "fusion_lat": 0.0, "name": "3aa642fdb344fa969ce08ef90a14c44f", "is_reserved": 0, "rental_uris": {"android": "https://dc.lft.to/lastmile_qr_scan", "ios": "https://dc.lft.to/lastmile_qr_scan"}, "fusion_lon": 0.0}, {"lat": 38.844224, "is_disabled": 0, "type": "electric_scooter", "lon": -76.997881, "bike_id": "587e43773bc4cacd64ccf04fb65b675d", "fusion_lat": 0.0, "name": "587e43773bc4cacd64ccf04fb65b675d", "is_reserved": 0, "rental_uris": {"android": "https://dc.lft.to/lastmile_qr_scan", "ios": "https://dc.lft.to/lastmile_qr_scan"}, "fusion_lon": 0.0}, {"lat": 38.91701333333334, "is_disabled": 0, "type": "electric_scooter", "lon": -77.0111005, "bike_id": "07bd4e475531741c665fbde92e34d97e", "fusion_lat": 0.0, "name": "07bd4e475531741c665fbde92e34d97e", "is_reserved": 0, "rental_uris": {"android": "https://dc.lft.to/lastmile_qr_scan", "ios": "https://dc.lft.to/lastmile_qr_scan"}, "fusion_lon": 0.0}, {"lat": 38.8661815, "is_disabled": 0, "type": "electric_scooter", "lon": -76.9864535, "bike_id": "aced7f3a4227b48f2edde0ef9cef2c76", "fusion_lat": 0.0, "name": "aced7f3a4227b48f2edde0ef9cef2c76", "is_reserved": 0, "rental_uris": {"android": "https://dc.lft.to/lastmile_qr_scan", "ios": "https://dc.lft.to/lastmile_qr_scan"}, "fusion_lon": 0.0}, {"lat": 38.8520905, "is_disabled": 0, "type": "electric_bike", "lon": -76.99575783333333, "bike_id": "536eece23bb324a6baaa27e522aab303", "fusion_lat": 0.0, "name": "536eece23bb324a6baaa27e522aab303", "is_reserved": 0, "rental_uris": {"android": "https://dc.lft.to/lastmile_qr_scan", "ios": "https://dc.lft.to/lastmile_qr_scan"}, "fusion_lon": 0.0}, {"lat": 38.9532965, "is_disabled": 0, "type": "electric_bike", "lon": -76.98823816666666, "bike_id": "eb24e7fec6f4c5fb8d03c103f27579ca", "fusion_lat": 0.0, "name": "eb24e7fec6f4c5fb8d03c103f27579ca", "is_reserved": 0, "rental_uris": {"android": "https://dc.lft.to/lastmile_qr_scan", "ios": "https://dc.lft.to/lastmile_qr_scan"}, "fusion_lon": 0.0}, {"lat": 38.91549916666666, "is_disabled": 0, "type": "electric_scooter", "lon": -77.03246316666667, "bike_id": "09c3f2cdb7fe3c7ec3c5e496a9e688c1", "fusion_lat": 0.0, "name": "09c3f2cdb7fe3c7ec3c5e496a9e688c1", "is_reserved": 0, "rental_uris": {"android": "https://dc.lft.to/lastmile_qr_scan", "ios": "https://dc.lft.to/lastmile_qr_scan"}, "fusion_lon": 0.0}, {"lat": 38.914161666666665, "is_disabled": 0, "type": "electric_scooter", "lon": -77.0319355, "bike_id": "1feae22c16585a4a1285d0f25e043d1f", "fusion_lat": 0.0, "name": "1feae22c16585a4a1285d0f25e043d1f", "is_reserved": 0, "rental_uris": {"android": "https://dc.lft.to/lastmile_qr_scan", "ios": "https://dc.lft.to/lastmile_qr_scan"}, "fusion_lon": 0.0}, {"lat": 38.90792033333334, "is_disabled": 0, "type": "electric_scooter", "lon": -77.00383283333333, "bike_id": "dd68b3dd742457a33bec9e63c402440a", "fusion_lat": 0.0, "name": "dd68b3dd742457a33bec9e63c402440a", "is_reserved": 0, "rental_uris": {"android": "https://dc.lft.to/lastmile_qr_scan", "ios": "https://dc.lft.to/lastmile_qr_scan"}, "fusion_lon": 0.0}, {"lat": 38.921798, "is_disabled": 0, "type": "electric_scooter", "lon": -77.024188, "bike_id": "27af9a6c9e350c6a259a50c025900de9", "fusion_lat": 0.0, "name": "27af9a6c9e350c6a259a50c025900de9", "is_reserved": 0, "rental_uris": {"android": "https://dc.lft.to/lastmile_qr_scan", "ios": "https://dc.lft.to/lastmile_qr_scan"}, "fusion_lon": 0.0}, {"lat": 38.860914666666666, "is_disabled": 0, "type": "electric_scooter", "lon": -76.98379466666667, "bike_id": "a4e2146ba3edaac45f3f0ae95c84d654", "fusion_lat": 0.0, "name": "a4e2146ba3edaac45f3f0ae95c84d654", "is_reserved": 0, "rental_uris": {"android": "https://dc.lft.to/lastmile_qr_scan", "ios": "https://dc.lft.to/lastmile_qr_scan"}, "fusion_lon": 0.0}, {"lat": 38.863742, "is_disabled": 0, "type": "electric_scooter", "lon": -76.9924175, "bike_id": "074ca96efe49c0e28e99bbcb8b26913b", "fusion_lat": 0.0, "name": "074ca96efe49c0e28e99bbcb8b26913b", "is_reserved": 0, "rental_uris": {"android": "https://dc.lft.to/lastmile_qr_scan", "ios": "https://dc.lft.to/lastmile_qr_scan"}, "fusion_lon": 0.0}, {"lat": 38.97829316666667, "is_disabled": 0, "type": "electric_bike", "lon": -77.02637933333334, "bike_id": "51138de5a1805091b561fb23fa635724", "fusion_lat": 0.0, "name": "51138de5a1805091b561fb23fa635724", "is_reserved": 0, "rental_uris": {"android": "https://dc.lft.to/lastmile_qr_scan", "ios": "https://dc.lft.to/lastmile_qr_scan"}, "fusion_lon": 0.0}, {"lat": 38.904087833333335, "is_disabled": 0, "type": "electric_scooter", "lon": -77.02949866666667, "bike_id": "80b40b9e47b94eb604371a2f539a67fa", "fusion_lat": 0.0, "name": "80b40b9e47b94eb604371a2f539a67fa", "is_reserved": 0, "rental_uris": {"android": "https://dc.lft.to/lastmile_qr_scan", "ios": "https://dc.lft.to/lastmile_qr_scan"}, "fusion_lon": 0.0}, {"lat": 38.91689616666667, "is_disabled": 0, "type": "electric_scooter", "lon": -77.037131, "bike_id": "d3e4d25565848aa4c0ec4f5e71956ba6", "fusion_lat": 0.0, "name": "d3e4d25565848aa4c0ec4f5e71956ba6", "is_reserved": 0, "rental_uris": {"android": "https://dc.lft.to/lastmile_qr_scan", "ios": "https://dc.lft.to/lastmile_qr_scan"}, "fusion_lon": 0.0}, {"lat": 38.9244345, "is_disabled": 0, "type": "electric_scooter", "lon": -77.0204495, "bike_id": "c1293693a5b01bd3039442e25062b9f3", "fusion_lat": 0.0, "name": "c1293693a5b01bd3039442e25062b9f3", "is_reserved": 0, "rental_uris": {"android": "https://dc.lft.to/lastmile_qr_scan", "ios": "https://dc.lft.to/lastmile_qr_scan"}, "fusion_lon": 0.0}, {"lat": 38.94308816666667, "is_disabled": 0, "type": "electric_scooter", "lon": -77.05927716666666, "bike_id": "527c34914ae5e6b845a82358ead3a4a1", "fusion_lat": 0.0, "name": "527c34914ae5e6b845a82358ead3a4a1", "is_reserved": 0, "rental_uris": {"android": "https://dc.lft.to/lastmile_qr_scan", "ios": "https://dc.lft.to/lastmile_qr_scan"}, "fusion_lon": 0.0}, {"lat": 38.865090333333335, "is_disabled": 0, "type": "electric_bike", "lon": -76.97346433333334, "bike_id": "aabfab2cf68de9d64bb14213a921c135", "fusion_lat": 0.0, "name": "aabfab2cf68de9d64bb14213a921c135", "is_reserved": 0, "rental_uris": {"android": "https://dc.lft.to/lastmile_qr_scan", "ios": "https://dc.lft.to/lastmile_qr_scan"}, "fusion_lon": 0.0}, {"lat": 38.85508433333333, "is_disabled": 0, "type": "electric_bike", "lon": -77.12050266666667, "bike_id": "ebb178e112f4e663a4db24fdeddf143a", "fusion_lat": 0.0, "name": "ebb178e112f4e663a4db24fdeddf143a", "is_reserved": 0, "rental_uris": {"android": "https://dc.lft.to/lastmile_qr_scan", "ios": "https://dc.lft.to/lastmile_qr_scan"}, "fusion_lon": 0.0}, {"lat": 38.92363533333334, "is_disabled": 0, "type": "electric_scooter", "lon": -77.0403775, "bike_id": "70a3832c52baf4f20bea250bd59b5d44", "fusion_lat": 0.0, "name": "70a3832c52baf4f20bea250bd59b5d44", "is_reserved": 0, "rental_uris": {"android": "https://dc.lft.to/lastmile_qr_scan", "ios": "https://dc.lft.to/lastmile_qr_scan"}, "fusion_lon": 0.0}, {"lat": 38.91641666666666, "is_disabled": 0, "type": "electric_scooter", "lon": -77.02280916666666, "bike_id": "bc6c1d73af07b54f0e9d783438a9324a", "fusion_lat": 0.0, "name": "bc6c1d73af07b54f0e9d783438a9324a", "is_reserved": 0, "rental_uris": {"android": "https://dc.lft.to/lastmile_qr_scan", "ios": "https://dc.lft.to/lastmile_qr_scan"}, "fusion_lon": 0.0}, {"lat": 38.9037445, "is_disabled": 0, "type": "electric_scooter", "lon": -77.02465066666667, "bike_id": "a856b72ccdc8667c6bb15d82eff28a2f", "fusion_lat": 0.0, "name": "a856b72ccdc8667c6bb15d82eff28a2f", "is_reserved": 0, "rental_uris": {"android": "https://dc.lft.to/lastmile_qr_scan", "ios": "https://dc.lft.to/lastmile_qr_scan"}, "fusion_lon": 0.0}, {"lat": 38.90832833333333, "is_disabled": 0, "type": "electric_scooter", "lon": -76.9970435, "bike_id": "313a61387b5703456f86d3e039646a24", "fusion_lat": 0.0, "name": "313a61387b5703456f86d3e039646a24", "is_reserved": 0, "rental_uris": {"android": "https://dc.lft.to/lastmile_qr_scan", "ios": "https://dc.lft.to/lastmile_qr_scan"}, "fusion_lon": 0.0}, {"lat": 38.91338666666667, "is_disabled": 0, "type": "electric_scooter", "lon": -77.0022515, "bike_id": "732fdbd85a2772fd5687ed6fdf980acd", "fusion_lat": 0.0, "name": "732fdbd85a2772fd5687ed6fdf980acd", "is_reserved": 0, "rental_uris": {"android": "https://dc.lft.to/lastmile_qr_scan", "ios": "https://dc.lft.to/lastmile_qr_scan"}, "fusion_lon": 0.0}, {"lat": 38.910106166666665, "is_disabled": 0, "type": "electric_scooter", "lon": -76.9939935, "bike_id": "d79e051d8a39d98025b600872f6befa8", "fusion_lat": 0.0, "name": "d79e051d8a39d98025b600872f6befa8", "is_reserved": 0, "rental_uris": {"android": "https://dc.lft.to/lastmile_qr_scan", "ios": "https://dc.lft.to/lastmile_qr_scan"}, "fusion_lon": 0.0}, {"lat": 38.923877833333336, "is_disabled": 0, "type": "electric_scooter", "lon": -77.0007125, "bike_id": "ab0aab34c8ea1b9f59481c47c1e5a482", "fusion_lat": 0.0, "name": "ab0aab34c8ea1b9f59481c47c1e5a482", "is_reserved": 0, "rental_uris": {"android": "https://dc.lft.to/lastmile_qr_scan", "ios": "https://dc.lft.to/lastmile_qr_scan"}, "fusion_lon": 0.0}, {"lat": 38.918176333333335, "is_disabled": 0, "type": "electric_scooter", "lon": -77.0345115, "bike_id": "479a075ce5f45f8f5b022afa32f8230a", "fusion_lat": 0.0, "name": "479a075ce5f45f8f5b022afa32f8230a", "is_reserved": 0, "rental_uris": {"android": "https://dc.lft.to/lastmile_qr_scan", "ios": "https://dc.lft.to/lastmile_qr_scan"}, "fusion_lon": 0.0}, {"lat": 38.8929015, "is_disabled": 0, "type": "electric_scooter", "lon": -77.03198716666667, "bike_id": "d20dea6c00172097bf1e6fe33cd002a4", "fusion_lat": 0.0, "name": "d20dea6c00172097bf1e6fe33cd002a4", "is_reserved": 0, "rental_uris": {"android": "https://dc.lft.to/lastmile_qr_scan", "ios": "https://dc.lft.to/lastmile_qr_scan"}, "fusion_lon": 0.0}, {"lat": 38.9036525, "is_disabled": 0, "type": "electric_scooter", "lon": -77.01870266666667, "bike_id": "e74c4912d42dad88116d461d6c93c99f", "fusion_lat": 0.0, "name": "e74c4912d42dad88116d461d6c93c99f", "is_reserved": 0, "rental_uris": {"android": "https://dc.lft.to/lastmile_qr_scan", "ios": "https://dc.lft.to/lastmile_qr_scan"}, "fusion_lon": 0.0}, {"lat": 38.923356, "is_disabled": 0, "type": "electric_scooter", "lon": -77.01908833333333, "bike_id": "c0e07538ed619744a8bc2847901166f5", "fusion_lat": 0.0, "name": "c0e07538ed619744a8bc2847901166f5", "is_reserved": 0, "rental_uris": {"android": "https://dc.lft.to/lastmile_qr_scan", "ios": "https://dc.lft.to/lastmile_qr_scan"}, "fusion_lon": 0.0}, {"lat": 38.86100366666667, "is_disabled": 0, "type": "electric_scooter", "lon": -76.98369366666667, "bike_id": "10e23e142ec54ec230fd9ed40cfcc868", "fusion_lat": 0.0, "name": "10e23e142ec54ec230fd9ed40cfcc868", "is_reserved": 0, "rental_uris": {"android": "https://dc.lft.to/lastmile_qr_scan", "ios": "https://dc.lft.to/lastmile_qr_scan"}, "fusion_lon": 0.0}, {"lat": 38.8834085, "is_disabled": 0, "type": "electric_scooter", "lon": -77.031485, "bike_id": "62058f236cc176e1bab736b1f13b2b9e", "fusion_lat": 0.0, "name": "62058f236cc176e1bab736b1f13b2b9e", "is_reserved": 0, "rental_uris": {"android": "https://dc.lft.to/lastmile_qr_scan", "ios": "https://dc.lft.to/lastmile_qr_scan"}, "fusion_lon": 0.0}, {"lat": 38.89771016666667, "is_disabled": 0, "type": "electric_scooter", "lon": -77.031666, "bike_id": "7d32361b21b9a433ac7f1a1168bf5b1e", "fusion_lat": 0.0, "name": "7d32361b21b9a433ac7f1a1168bf5b1e", "is_reserved": 0, "rental_uris": {"android": "https://dc.lft.to/lastmile_qr_scan", "ios": "https://dc.lft.to/lastmile_qr_scan"}, "fusion_lon": 0.0}, {"lat": 38.920812, "is_disabled": 0, "type": "electric_scooter", "lon": -77.02575683333333, "bike_id": "df4f23601d512bfc5c08b7aa2cee1224", "fusion_lat": 0.0, "name": "df4f23601d512bfc5c08b7aa2cee1224", "is_reserved": 0, "rental_uris": {"android": "https://dc.lft.to/lastmile_qr_scan", "ios": "https://dc.lft.to/lastmile_qr_scan"}, "fusion_lon": 0.0}, {"lat": 38.92244066666667, "is_disabled": 0, "type": "electric_scooter", "lon": -77.042525, "bike_id": "e22b65ea6b7e24d979ddccc4cea17cdc", "fusion_lat": 0.0, "name": "e22b65ea6b7e24d979ddccc4cea17cdc", "is_reserved": 0, "rental_uris": {"android": "https://dc.lft.to/lastmile_qr_scan", "ios": "https://dc.lft.to/lastmile_qr_scan"}, "fusion_lon": 0.0}, {"lat": 38.91307783333333, "is_disabled": 0, "type": "electric_scooter", "lon": -77.03220116666667, "bike_id": "1e60ed47bc2f948588c3be7bea8d0a93", "fusion_lat": 0.0, "name": "1e60ed47bc2f948588c3be7bea8d0a93", "is_reserved": 0, "rental_uris": {"android": "https://dc.lft.to/lastmile_qr_scan", "ios": "https://dc.lft.to/lastmile_qr_scan"}, "fusion_lon": 0.0}, {"lat": 38.907446166666666, "is_disabled": 0, "type": "electric_scooter", "lon": -77.023888, "bike_id": "d8b6b8bd5616b6671e259c6278177dd3", "fusion_lat": 0.0, "name": "d8b6b8bd5616b6671e259c6278177dd3", "is_reserved": 0, "rental_uris": {"android": "https://dc.lft.to/lastmile_qr_scan", "ios": "https://dc.lft.to/lastmile_qr_scan"}, "fusion_lon": 0.0}, {"lat": 38.8873585, "is_disabled": 0, "type": "electric_scooter", "lon": -77.020759, "bike_id": "57f221fac062b2fa8ee48f3881a3b12e", "fusion_lat": 0.0, "name": "57f221fac062b2fa8ee48f3881a3b12e", "is_reserved": 0, "rental_uris": {"android": "https://dc.lft.to/lastmile_qr_scan", "ios": "https://dc.lft.to/lastmile_qr_scan"}, "fusion_lon": 0.0}, {"lat": 38.867088833333334, "is_disabled": 0, "type": "electric_scooter", "lon": -76.98729616666667, "bike_id": "8c076e02d264680c80eda925051c64be", "fusion_lat": 0.0, "name": "8c076e02d264680c80eda925051c64be", "is_reserved": 0, "rental_uris": {"android": "https://dc.lft.to/lastmile_qr_scan", "ios": "https://dc.lft.to/lastmile_qr_scan"}, "fusion_lon": 0.0}, {"lat": 38.88466316666667, "is_disabled": 0, "type": "electric_scooter", "lon": -77.02428233333333, "bike_id": "d07688514f889d881c695bf157ab3b00", "fusion_lat": 0.0, "name": "d07688514f889d881c695bf157ab3b00", "is_reserved": 0, "rental_uris": {"android": "https://dc.lft.to/lastmile_qr_scan", "ios": "https://dc.lft.to/lastmile_qr_scan"}, "fusion_lon": 0.0}, {"lat": 38.925093333333336, "is_disabled": 0, "type": "electric_scooter", "lon": -76.98572466666667, "bike_id": "8d299ee626bcc21e31b84721735268de", "fusion_lat": 0.0, "name": "8d299ee626bcc21e31b84721735268de", "is_reserved": 0, "rental_uris": {"android": "https://dc.lft.to/lastmile_qr_scan", "ios": "https://dc.lft.to/lastmile_qr_scan"}, "fusion_lon": 0.0}, {"lat": 38.9119325, "is_disabled": 0, "type": "electric_scooter", "lon": -77.04335483333334, "bike_id": "aae950c02ef647f4d7c8b3df441dc66d", "fusion_lat": 0.0, "name": "aae950c02ef647f4d7c8b3df441dc66d", "is_reserved": 0, "rental_uris": {"android": "https://dc.lft.to/lastmile_qr_scan", "ios": "https://dc.lft.to/lastmile_qr_scan"}, "fusion_lon": 0.0}, {"lat": 38.86560216666667, "is_disabled": 0, "type": "electric_scooter", "lon": -76.98952966666667, "bike_id": "01215c6461812fc4d755ba05f68a078a", "fusion_lat": 0.0, "name": "01215c6461812fc4d755ba05f68a078a", "is_reserved": 0, "rental_uris": {"android": "https://dc.lft.to/lastmile_qr_scan", "ios": "https://dc.lft.to/lastmile_qr_scan"}, "fusion_lon": 0.0}, {"lat": 38.887757666666666, "is_disabled": 0, "type": "electric_scooter", "lon": -77.0032815, "bike_id": "3c99c16624d405fb379bf41af78aa899", "fusion_lat": 0.0, "name": "3c99c16624d405fb379bf41af78aa899", "is_reserved": 0, "rental_uris": {"android": "https://dc.lft.to/lastmile_qr_scan", "ios": "https://dc.lft.to/lastmile_qr_scan"}, "fusion_lon": 0.0}, {"lat": 38.95558466666667, "is_disabled": 0, "type": "electric_scooter", "lon": -77.02245616666667, "bike_id": "71748d455650957ade494e1315783d39", "fusion_lat": 0.0, "name": "71748d455650957ade494e1315783d39", "is_reserved": 0, "rental_uris": {"android": "https://dc.lft.to/lastmile_qr_scan", "ios": "https://dc.lft.to/lastmile_qr_scan"}, "fusion_lon": 0.0}, {"lat": 38.9387375, "is_disabled": 0, "type": "electric_scooter", "lon": -77.02455233333333, "bike_id": "a4484fa4de4ed620e8fdec105bbd9de0", "fusion_lat": 0.0, "name": "a4484fa4de4ed620e8fdec105bbd9de0", "is_reserved": 0, "rental_uris": {"android": "https://dc.lft.to/lastmile_qr_scan", "ios": "https://dc.lft.to/lastmile_qr_scan"}, "fusion_lon": 0.0}, {"lat": 38.909131333333335, "is_disabled": 0, "type": "electric_scooter", "lon": -77.03653816666667, "bike_id": "3d1ea29a0367ddce6c3c19bbe9680bef", "fusion_lat": 0.0, "name": "3d1ea29a0367ddce6c3c19bbe9680bef", "is_reserved": 0, "rental_uris": {"android": "https://dc.lft.to/lastmile_qr_scan", "ios": "https://dc.lft.to/lastmile_qr_scan"}, "fusion_lon": 0.0}, {"lat": 38.903657333333335, "is_disabled": 0, "type": "electric_scooter", "lon": -77.05796433333333, "bike_id": "8708eef9b8b0afeb020d1e1a2f7bbe02", "fusion_lat": 0.0, "name": "8708eef9b8b0afeb020d1e1a2f7bbe02", "is_reserved": 0, "rental_uris": {"android": "https://dc.lft.to/lastmile_qr_scan", "ios": "https://dc.lft.to/lastmile_qr_scan"}, "fusion_lon": 0.0}, {"lat": 38.898963, "is_disabled": 0, "type": "electric_scooter", "lon": -76.98422283333333, "bike_id": "56b3252552f24e3c537c44c62b85459f", "fusion_lat": 0.0, "name": "56b3252552f24e3c537c44c62b85459f", "is_reserved": 0, "rental_uris": {"android": "https://dc.lft.to/lastmile_qr_scan", "ios": "https://dc.lft.to/lastmile_qr_scan"}, "fusion_lon": 0.0}, {"lat": 38.95868883333333, "is_disabled": 0, "type": "electric_bike", "lon": -77.00139533333333, "bike_id": "c4f7424fbe41229ad116fcc220832ad7", "fusion_lat": 0.0, "name": "c4f7424fbe41229ad116fcc220832ad7", "is_reserved": 0, "rental_uris": {"android": "https://dc.lft.to/lastmile_qr_scan", "ios": "https://dc.lft.to/lastmile_qr_scan"}, "fusion_lon": 0.0}, {"lat": 38.8695905, "is_disabled": 0, "type": "electric_bike", "lon": -77.0107825, "bike_id": "f143fe3c41a57872fa261738b8212752", "fusion_lat": 0.0, "name": "f143fe3c41a57872fa261738b8212752", "is_reserved": 0, "rental_uris": {"android": "https://dc.lft.to/lastmile_qr_scan", "ios": "https://dc.lft.to/lastmile_qr_scan"}, "fusion_lon": 0.0}, {"lat": 38.897333333333336, "is_disabled": 0, "type": "electric_scooter", "lon": -76.9472995, "bike_id": "4d506f75efaa048ab1c14a43c2382653", "fusion_lat": 0.0, "name": "4d506f75efaa048ab1c14a43c2382653", "is_reserved": 0, "rental_uris": {"android": "https://dc.lft.to/lastmile_qr_scan", "ios": "https://dc.lft.to/lastmile_qr_scan"}, "fusion_lon": 0.0}, {"lat": 38.91413566666667, "is_disabled": 0, "type": "electric_scooter", "lon": -77.03537133333333, "bike_id": "40e1ec84c4b56b8ed6453d825a2e8598", "fusion_lat": 0.0, "name": "40e1ec84c4b56b8ed6453d825a2e8598", "is_reserved": 0, "rental_uris": {"android": "https://dc.lft.to/lastmile_qr_scan", "ios": "https://dc.lft.to/lastmile_qr_scan"}, "fusion_lon": 0.0}, {"lat": 38.88211033333333, "is_disabled": 0, "type": "electric_scooter", "lon": -76.99043283333333, "bike_id": "9ede44d68e1885521e03a9c5f1400ab4", "fusion_lat": 0.0, "name": "9ede44d68e1885521e03a9c5f1400ab4", "is_reserved": 0, "rental_uris": {"android": "https://dc.lft.to/lastmile_qr_scan", "ios": "https://dc.lft.to/lastmile_qr_scan"}, "fusion_lon": 0.0}, {"lat": 38.922431333333336, "is_disabled": 0, "type": "electric_scooter", "lon": -77.02888583333333, "bike_id": "8ec0a2719dcbc112d103ddb18ab85ae5", "fusion_lat": 0.0, "name": "8ec0a2719dcbc112d103ddb18ab85ae5", "is_reserved": 0, "rental_uris": {"android": "https://dc.lft.to/lastmile_qr_scan", "ios": "https://dc.lft.to/lastmile_qr_scan"}, "fusion_lon": 0.0}, {"lat": 38.91958566666667, "is_disabled": 0, "type": "electric_scooter", "lon": -77.02512533333334, "bike_id": "4b7dde153eec7bd20c0faa58027c3585", "fusion_lat": 0.0, "name": "4b7dde153eec7bd20c0faa58027c3585", "is_reserved": 0, "rental_uris": {"android": "https://dc.lft.to/lastmile_qr_scan", "ios": "https://dc.lft.to/lastmile_qr_scan"}, "fusion_lon": 0.0}, {"lat": 38.909378333333336, "is_disabled": 0, "type": "electric_scooter", "lon": -77.04294783333333, "bike_id": "44e1bd978fc1f196e32dee9e3a4db1c9", "fusion_lat": 0.0, "name": "44e1bd978fc1f196e32dee9e3a4db1c9", "is_reserved": 0, "rental_uris": {"android": "https://dc.lft.to/lastmile_qr_scan", "ios": "https://dc.lft.to/lastmile_qr_scan"}, "fusion_lon": 0.0}, {"lat": 38.92308766666667, "is_disabled": 0, "type": "electric_scooter", "lon": -77.02263966666666, "bike_id": "d078ccc15bbf6b4ff48c3f70cbfdc3a8", "fusion_lat": 0.0, "name": "d078ccc15bbf6b4ff48c3f70cbfdc3a8", "is_reserved": 0, "rental_uris": {"android": "https://dc.lft.to/lastmile_qr_scan", "ios": "https://dc.lft.to/lastmile_qr_scan"}, "fusion_lon": 0.0}, {"lat": 38.89674433333333, "is_disabled": 0, "type": "electric_scooter", "lon": -77.00518383333333, "bike_id": "7f9483d7dae9542ea4d5d7fc7e2cab9b", "fusion_lat": 0.0, "name": "7f9483d7dae9542ea4d5d7fc7e2cab9b", "is_reserved": 0, "rental_uris": {"android": "https://dc.lft.to/lastmile_qr_scan", "ios": "https://dc.lft.to/lastmile_qr_scan"}, "fusion_lon": 0.0}, {"lat": 38.90401933333333, "is_disabled": 0, "type": "electric_scooter", "lon": -76.993052, "bike_id": "3c30ba03868f9645d5c2cc33fd2d60e6", "fusion_lat": 0.0, "name": "3c30ba03868f9645d5c2cc33fd2d60e6", "is_reserved": 0, "rental_uris": {"android": "https://dc.lft.to/lastmile_qr_scan", "ios": "https://dc.lft.to/lastmile_qr_scan"}, "fusion_lon": 0.0}, {"lat": 38.92060266666667, "is_disabled": 0, "type": "electric_scooter", "lon": -77.0339315, "bike_id": "9315570c434e8bf2f25f8290621fa51a", "fusion_lat": 0.0, "name": "9315570c434e8bf2f25f8290621fa51a", "is_reserved": 0, "rental_uris": {"android": "https://dc.lft.to/lastmile_qr_scan", "ios": "https://dc.lft.to/lastmile_qr_scan"}, "fusion_lon": 0.0}, {"lat": 38.91011566666667, "is_disabled": 0, "type": "electric_scooter", "lon": -77.08899766666667, "bike_id": "aefd246c89f567b2a7c783b73e528c47", "fusion_lat": 0.0, "name": "aefd246c89f567b2a7c783b73e528c47", "is_reserved": 0, "rental_uris": {"android": "https://dc.lft.to/lastmile_qr_scan", "ios": "https://dc.lft.to/lastmile_qr_scan"}, "fusion_lon": 0.0}, {"lat": 38.950911, "is_disabled": 0, "type": "electric_scooter", "lon": -77.02342583333333, "bike_id": "446a6abe6ae77940c3d1ae6995a8611d", "fusion_lat": 0.0, "name": "446a6abe6ae77940c3d1ae6995a8611d", "is_reserved": 0, "rental_uris": {"android": "https://dc.lft.to/lastmile_qr_scan", "ios": "https://dc.lft.to/lastmile_qr_scan"}, "fusion_lon": 0.0}, {"lat": 38.92151966666667, "is_disabled": 0, "type": "electric_scooter", "lon": -77.03392816666667, "bike_id": "52ff42cb9cffc01c469b515bf309423a", "fusion_lat": 0.0, "name": "52ff42cb9cffc01c469b515bf309423a", "is_reserved": 0, "rental_uris": {"android": "https://dc.lft.to/lastmile_qr_scan", "ios": "https://dc.lft.to/lastmile_qr_scan"}, "fusion_lon": 0.0}, {"lat": 38.8959805, "is_disabled": 0, "type": "electric_scooter", "lon": -77.026908, "bike_id": "01ac108c9cd53422cfd05bfe45d6a37f", "fusion_lat": 0.0, "name": "01ac108c9cd53422cfd05bfe45d6a37f", "is_reserved": 0, "rental_uris": {"android": "https://dc.lft.to/lastmile_qr_scan", "ios": "https://dc.lft.to/lastmile_qr_scan"}, "fusion_lon": 0.0}, {"lat": 38.900820833333334, "is_disabled": 0, "type": "electric_scooter", "lon": -77.00350016666667, "bike_id": "db87cf9fe5385eae4e246915e58d8c93", "fusion_lat": 0.0, "name": "db87cf9fe5385eae4e246915e58d8c93", "is_reserved": 0, "rental_uris": {"android": "https://dc.lft.to/lastmile_qr_scan", "ios": "https://dc.lft.to/lastmile_qr_scan"}, "fusion_lon": 0.0}, {"lat": 38.9178695, "is_disabled": 0, "type": "electric_bike", "lon": -76.97187833333334, "bike_id": "9562e5860577b0344fe4806c0a1dfa1a", "fusion_lat": 0.0, "name": "9562e5860577b0344fe4806c0a1dfa1a", "is_reserved": 0, "rental_uris": {"android": "https://dc.lft.to/lastmile_qr_scan", "ios": "https://dc.lft.to/lastmile_qr_scan"}, "fusion_lon": 0.0}, {"lat": 38.872353833333335, "is_disabled": 0, "type": "electric_bike", "lon": -77.01181366666667, "bike_id": "344a38a9691900df3836b106be6751b0", "fusion_lat": 0.0, "name": "344a38a9691900df3836b106be6751b0", "is_reserved": 0, "rental_uris": {"android": "https://dc.lft.to/lastmile_qr_scan", "ios": "https://dc.lft.to/lastmile_qr_scan"}, "fusion_lon": 0.0}, {"lat": 38.86168683333333, "is_disabled": 0, "type": "electric_bike", "lon": -77.13148333333334, "bike_id": "bca687d3bbefe3e3b07e8585e1777201", "fusion_lat": 0.0, "name": "bca687d3bbefe3e3b07e8585e1777201", "is_reserved": 0, "rental_uris": {"android": "https://dc.lft.to/lastmile_qr_scan", "ios": "https://dc.lft.to/lastmile_qr_scan"}, "fusion_lon": 0.0}, {"lat": 38.90722066666667, "is_disabled": 0, "type": "electric_scooter", "lon": -76.99819683333334, "bike_id": "7cf9bd6c1681a92b53aa6e6a1ebaa665", "fusion_lat": 0.0, "name": "7cf9bd6c1681a92b53aa6e6a1ebaa665", "is_reserved": 0, "rental_uris": {"android": "https://dc.lft.to/lastmile_qr_scan", "ios": "https://dc.lft.to/lastmile_qr_scan"}, "fusion_lon": 0.0}, {"lat": 38.936969500000004, "is_disabled": 0, "type": "electric_bike", "lon": -77.029884, "bike_id": "c09d1acf03e45350720d12d3586f3070", "fusion_lat": 0.0, "name": "c09d1acf03e45350720d12d3586f3070", "is_reserved": 0, "rental_uris": {"android": "https://dc.lft.to/lastmile_qr_scan", "ios": "https://dc.lft.to/lastmile_qr_scan"}, "fusion_lon": 0.0}, {"lat": 38.923039, "is_disabled": 0, "type": "electric_bike", "lon": -77.02352916666666, "bike_id": "fab330b1be3d48d58d170a4f96b8f5ff", "fusion_lat": 0.0, "name": "fab330b1be3d48d58d170a4f96b8f5ff", "is_reserved": 0, "rental_uris": {"android": "https://dc.lft.to/lastmile_qr_scan", "ios": "https://dc.lft.to/lastmile_qr_scan"}, "fusion_lon": 0.0}, {"lat": 38.9285005, "is_disabled": 0, "type": "electric_bike", "lon": -77.2219835, "bike_id": "430266e9bf197b693cdf0073e0d8cb70", "fusion_lat": 0.0, "name": "430266e9bf197b693cdf0073e0d8cb70", "is_reserved": 0, "rental_uris": {"android": "https://dc.lft.to/lastmile_qr_scan", "ios": "https://dc.lft.to/lastmile_qr_scan"}, "fusion_lon": 0.0}, {"lat": 39.08851216666667, "is_disabled": 0, "type": "electric_bike", "lon": -77.17845616666666, "bike_id": "62f2012a5ef134752a1b6fa456189578", "fusion_lat": 0.0, "name": "62f2012a5ef134752a1b6fa456189578", "is_reserved": 0, "rental_uris": {"android": "https://dc.lft.to/lastmile_qr_scan", "ios": "https://dc.lft.to/lastmile_qr_scan"}, "fusion_lon": 0.0}, {"lat": 38.916250166666664, "is_disabled": 0, "type": "electric_scooter", "lon": -77.0463585, "bike_id": "b5af9dd94122ddc68d31f0ac476ecf6a", "fusion_lat": 0.0, "name": "b5af9dd94122ddc68d31f0ac476ecf6a", "is_reserved": 0, "rental_uris": {"android": "https://dc.lft.to/lastmile_qr_scan", "ios": "https://dc.lft.to/lastmile_qr_scan"}, "fusion_lon": 0.0}, {"lat": 38.90313616666667, "is_disabled": 0, "type": "electric_scooter", "lon": -77.0289175, "bike_id": "c11a9a3df701589779be030d5c3b3d14", "fusion_lat": 0.0, "name": "c11a9a3df701589779be030d5c3b3d14", "is_reserved": 0, "rental_uris": {"android": "https://dc.lft.to/lastmile_qr_scan", "ios": "https://dc.lft.to/lastmile_qr_scan"}, "fusion_lon": 0.0}, {"lat": 38.87635733333333, "is_disabled": 0, "type": "electric_scooter", "lon": -76.9932305, "bike_id": "bfb12ae1428aa610edb8ce0865622845", "fusion_lat": 0.0, "name": "bfb12ae1428aa610edb8ce0865622845", "is_reserved": 0, "rental_uris": {"android": "https://dc.lft.to/lastmile_qr_scan", "ios": "https://dc.lft.to/lastmile_qr_scan"}, "fusion_lon": 0.0}, {"lat": 38.91779583333334, "is_disabled": 0, "type": "electric_scooter", "lon": -77.02897216666666, "bike_id": "cb6503f1db2824a6a4fef126a7b2d8d8", "fusion_lat": 0.0, "name": "cb6503f1db2824a6a4fef126a7b2d8d8", "is_reserved": 0, "rental_uris": {"android": "https://dc.lft.to/lastmile_qr_scan", "ios": "https://dc.lft.to/lastmile_qr_scan"}, "fusion_lon": 0.0}, {"lat": 38.92597933333333, "is_disabled": 0, "type": "electric_scooter", "lon": -77.02441316666666, "bike_id": "122fbda0c25751b9a5aca5343e884f97", "fusion_lat": 0.0, "name": "122fbda0c25751b9a5aca5343e884f97", "is_reserved": 0, "rental_uris": {"android": "https://dc.lft.to/lastmile_qr_scan", "ios": "https://dc.lft.to/lastmile_qr_scan"}, "fusion_lon": 0.0}, {"lat": 38.90869766666667, "is_disabled": 0, "type": "electric_scooter", "lon": -77.02415733333333, "bike_id": "b8cf58ce75557af3c165b050c78e398f", "fusion_lat": 0.0, "name": "b8cf58ce75557af3c165b050c78e398f", "is_reserved": 0, "rental_uris": {"android": "https://dc.lft.to/lastmile_qr_scan", "ios": "https://dc.lft.to/lastmile_qr_scan"}, "fusion_lon": 0.0}, {"lat": 38.902311833333336, "is_disabled": 0, "type": "electric_scooter", "lon": -77.04338283333334, "bike_id": "24b00185b743c0ae0579c895fdc4b6fd", "fusion_lat": 0.0, "name": "24b00185b743c0ae0579c895fdc4b6fd", "is_reserved": 0, "rental_uris": {"android": "https://dc.lft.to/lastmile_qr_scan", "ios": "https://dc.lft.to/lastmile_qr_scan"}, "fusion_lon": 0.0}, {"lat": 38.91391616666667, "is_disabled": 0, "type": "electric_scooter", "lon": -77.032211, "bike_id": "dd334f5e66b4b42ba0f21a4008e9a94f", "fusion_lat": 0.0, "name": "dd334f5e66b4b42ba0f21a4008e9a94f", "is_reserved": 0, "rental_uris": {"android": "https://dc.lft.to/lastmile_qr_scan", "ios": "https://dc.lft.to/lastmile_qr_scan"}, "fusion_lon": 0.0}, {"lat": 38.89249366666667, "is_disabled": 0, "type": "electric_scooter", "lon": -77.022082, "bike_id": "cc8fd7336a469225b06e9de76a003eca", "fusion_lat": 0.0, "name": "cc8fd7336a469225b06e9de76a003eca", "is_reserved": 0, "rental_uris": {"android": "https://dc.lft.to/lastmile_qr_scan", "ios": "https://dc.lft.to/lastmile_qr_scan"}, "fusion_lon": 0.0}, {"lat": 38.939860333333336, "is_disabled": 0, "type": "electric_scooter", "lon": -77.02959916666667, "bike_id": "8b28e4047f8857845551455dbefdaa64", "fusion_lat": 0.0, "name": "8b28e4047f8857845551455dbefdaa64", "is_reserved": 0, "rental_uris": {"android": "https://dc.lft.to/lastmile_qr_scan", "ios": "https://dc.lft.to/lastmile_qr_scan"}, "fusion_lon": 0.0}, {"lat": 38.814296666666664, "is_disabled": 0, "type": "electric_bike", "lon": -77.11898266666667, "bike_id": "817e4344332fb410e2fb77edbf2b7faf", "fusion_lat": 0.0, "name": "817e4344332fb410e2fb77edbf2b7faf", "is_reserved": 0, "rental_uris": {"android": "https://dc.lft.to/lastmile_qr_scan", "ios": "https://dc.lft.to/lastmile_qr_scan"}, "fusion_lon": 0.0}, {"lat": 38.885115, "is_disabled": 0, "type": "electric_scooter", "lon": -77.0107295, "bike_id": "cf66002c4e13735649c183b8c335bcb2", "fusion_lat": 0.0, "name": "cf66002c4e13735649c183b8c335bcb2", "is_reserved": 0, "rental_uris": {"android": "https://dc.lft.to/lastmile_qr_scan", "ios": "https://dc.lft.to/lastmile_qr_scan"}, "fusion_lon": 0.0}, {"lat": 38.866194666666665, "is_disabled": 0, "type": "electric_scooter", "lon": -76.98662866666666, "bike_id": "bc7f17072a4a04e432351a70eb61380a", "fusion_lat": 0.0, "name": "bc7f17072a4a04e432351a70eb61380a", "is_reserved": 0, "rental_uris": {"android": "https://dc.lft.to/lastmile_qr_scan", "ios": "https://dc.lft.to/lastmile_qr_scan"}, "fusion_lon": 0.0}, {"lat": 38.884950333333336, "is_disabled": 0, "type": "electric_scooter", "lon": -77.00710783333334, "bike_id": "3bfba519caed8f1fe86dc0060ed87361", "fusion_lat": 0.0, "name": "3bfba519caed8f1fe86dc0060ed87361", "is_reserved": 0, "rental_uris": {"android": "https://dc.lft.to/lastmile_qr_scan", "ios": "https://dc.lft.to/lastmile_qr_scan"}, "fusion_lon": 0.0}, {"lat": 38.84588016666667, "is_disabled": 0, "type": "electric_bike", "lon": -77.076831, "bike_id": "28a5f288b13ddf16bc74bddd1c361663", "fusion_lat": 0.0, "name": "28a5f288b13ddf16bc74bddd1c361663", "is_reserved": 0, "rental_uris": {"android": "https://dc.lft.to/lastmile_qr_scan", "ios": "https://dc.lft.to/lastmile_qr_scan"}, "fusion_lon": 0.0}, {"lat": 38.895353166666666, "is_disabled": 0, "type": "electric_scooter", "lon": -77.05021016666667, "bike_id": "27e987c59b6a6c8ab6cd5e0f1fe7b580", "fusion_lat": 0.0, "name": "27e987c59b6a6c8ab6cd5e0f1fe7b580", "is_reserved": 0, "rental_uris": {"android": "https://dc.lft.to/lastmile_qr_scan", "ios": "https://dc.lft.to/lastmile_qr_scan"}, "fusion_lon": 0.0}, {"lat": 38.85849666666667, "is_disabled": 0, "type": "electric_bike", "lon": -77.09763116666667, "bike_id": "86f928d7214dc3ef7fd441b27a1b310d", "fusion_lat": 0.0, "name": "86f928d7214dc3ef7fd441b27a1b310d", "is_reserved": 0, "rental_uris": {"android": "https://dc.lft.to/lastmile_qr_scan", "ios": "https://dc.lft.to/lastmile_qr_scan"}, "fusion_lon": 0.0}, {"lat": 38.91737066666666, "is_disabled": 0, "type": "electric_scooter", "lon": -77.0230095, "bike_id": "72075e86ea1a94a25842d20cbb66ae44", "fusion_lat": 0.0, "name": "72075e86ea1a94a25842d20cbb66ae44", "is_reserved": 0, "rental_uris": {"android": "https://dc.lft.to/lastmile_qr_scan", "ios": "https://dc.lft.to/lastmile_qr_scan"}, "fusion_lon": 0.0}, {"lat": 38.91415633333333, "is_disabled": 0, "type": "electric_scooter", "lon": -77.03176283333333, "bike_id": "76f32f2528f752382b147b8319523676", "fusion_lat": 0.0, "name": "76f32f2528f752382b147b8319523676", "is_reserved": 0, "rental_uris": {"android": "https://dc.lft.to/lastmile_qr_scan", "ios": "https://dc.lft.to/lastmile_qr_scan"}, "fusion_lon": 0.0}, {"lat": 38.958772333333336, "is_disabled": 0, "type": "electric_bike", "lon": -76.92491266666667, "bike_id": "63657d40fdcab383ba1e67cf5764bc47", "fusion_lat": 0.0, "name": "63657d40fdcab383ba1e67cf5764bc47", "is_reserved": 0, "rental_uris": {"android": "https://dc.lft.to/lastmile_qr_scan", "ios": "https://dc.lft.to/lastmile_qr_scan"}, "fusion_lon": 0.0}, {"lat": 38.902826166666664, "is_disabled": 0, "type": "electric_scooter", "lon": -77.0365025, "bike_id": "c05447c0510fc47040c0d8d5608f45e7", "fusion_lat": 0.0, "name": "c05447c0510fc47040c0d8d5608f45e7", "is_reserved": 0, "rental_uris": {"android": "https://dc.lft.to/lastmile_qr_scan", "ios": "https://dc.lft.to/lastmile_qr_scan"}, "fusion_lon": 0.0}, {"lat": 38.929058166666664, "is_disabled": 0, "type": "electric_scooter", "lon": -77.03192183333333, "bike_id": "09631cf12485f361a44947992aa97fae", "fusion_lat": 0.0, "name": "09631cf12485f361a44947992aa97fae", "is_reserved": 0, "rental_uris": {"android": "https://dc.lft.to/lastmile_qr_scan", "ios": "https://dc.lft.to/lastmile_qr_scan"}, "fusion_lon": 0.0}, {"lat": 38.9083385, "is_disabled": 0, "type": "electric_scooter", "lon": -77.06358916666667, "bike_id": "87f618db7be38f38a7617b38623a663a", "fusion_lat": 0.0, "name": "87f618db7be38f38a7617b38623a663a", "is_reserved": 0, "rental_uris": {"android": "https://dc.lft.to/lastmile_qr_scan", "ios": "https://dc.lft.to/lastmile_qr_scan"}, "fusion_lon": 0.0}, {"lat": 38.89043383333333, "is_disabled": 0, "type": "electric_scooter", "lon": -76.940794, "bike_id": "9931960e05067beb8a3b6c55f1be9b1a", "fusion_lat": 0.0, "name": "9931960e05067beb8a3b6c55f1be9b1a", "is_reserved": 0, "rental_uris": {"android": "https://dc.lft.to/lastmile_qr_scan", "ios": "https://dc.lft.to/lastmile_qr_scan"}, "fusion_lon": 0.0}, {"lat": 38.92066483333333, "is_disabled": 0, "type": "electric_scooter", "lon": -77.0249835, "bike_id": "e162db97200ae58b3c1964d2783a2006", "fusion_lat": 0.0, "name": "e162db97200ae58b3c1964d2783a2006", "is_reserved": 0, "rental_uris": {"android": "https://dc.lft.to/lastmile_qr_scan", "ios": "https://dc.lft.to/lastmile_qr_scan"}, "fusion_lon": 0.0}, {"lat": 38.9211405, "is_disabled": 0, "type": "electric_bike", "lon": -76.9857835, "bike_id": "8369cd3351f6eb2388148e648ce0e169", "fusion_lat": 0.0, "name": "8369cd3351f6eb2388148e648ce0e169", "is_reserved": 0, "rental_uris": {"android": "https://dc.lft.to/lastmile_qr_scan", "ios": "https://dc.lft.to/lastmile_qr_scan"}, "fusion_lon": 0.0}, {"lat": 38.9171785, "is_disabled": 0, "type": "electric_scooter", "lon": -77.02722466666667, "bike_id": "d3897ea0046a3d12820e20d99cf69d86", "fusion_lat": 0.0, "name": "d3897ea0046a3d12820e20d99cf69d86", "is_reserved": 0, "rental_uris": {"android": "https://dc.lft.to/lastmile_qr_scan", "ios": "https://dc.lft.to/lastmile_qr_scan"}, "fusion_lon": 0.0}, {"lat": 39.056347333333335, "is_disabled": 0, "type": "electric_bike", "lon": -77.1253105, "bike_id": "abd0c5c97ac27274cf459b9c34125f92", "fusion_lat": 0.0, "name": "abd0c5c97ac27274cf459b9c34125f92", "is_reserved": 0, "rental_uris": {"android": "https://dc.lft.to/lastmile_qr_scan", "ios": "https://dc.lft.to/lastmile_qr_scan"}, "fusion_lon": 0.0}, {"lat": 38.92484133333333, "is_disabled": 0, "type": "electric_scooter", "lon": -77.028409, "bike_id": "0009f00147e4448efdf282b50cc055de", "fusion_lat": 0.0, "name": "0009f00147e4448efdf282b50cc055de", "is_reserved": 0, "rental_uris": {"android": "https://dc.lft.to/lastmile_qr_scan", "ios": "https://dc.lft.to/lastmile_qr_scan"}, "fusion_lon": 0.0}, {"lat": 38.898111666666665, "is_disabled": 0, "type": "electric_scooter", "lon": -76.99695683333333, "bike_id": "ecf24376d079b0629e7008668a648fa5", "fusion_lat": 0.0, "name": "ecf24376d079b0629e7008668a648fa5", "is_reserved": 0, "rental_uris": {"android": "https://dc.lft.to/lastmile_qr_scan", "ios": "https://dc.lft.to/lastmile_qr_scan"}, "fusion_lon": 0.0}, {"lat": 38.88576716666667, "is_disabled": 0, "type": "electric_scooter", "lon": -76.91914066666666, "bike_id": "1da8a2ea4bbf197bed1a1e4f50af0014", "fusion_lat": 0.0, "name": "1da8a2ea4bbf197bed1a1e4f50af0014", "is_reserved": 0, "rental_uris": {"android": "https://dc.lft.to/lastmile_qr_scan", "ios": "https://dc.lft.to/lastmile_qr_scan"}, "fusion_lon": 0.0}, {"lat": 38.9173525, "is_disabled": 0, "type": "electric_scooter", "lon": -77.03193083333333, "bike_id": "630a23b552ee6962da321d131a63188c", "fusion_lat": 0.0, "name": "630a23b552ee6962da321d131a63188c", "is_reserved": 0, "rental_uris": {"android": "https://dc.lft.to/lastmile_qr_scan", "ios": "https://dc.lft.to/lastmile_qr_scan"}, "fusion_lon": 0.0}, {"lat": 38.91474633333333, "is_disabled": 0, "type": "electric_scooter", "lon": -77.00953083333333, "bike_id": "84854cdf7de9e3b868b3104ed736712b", "fusion_lat": 0.0, "name": "84854cdf7de9e3b868b3104ed736712b", "is_reserved": 0, "rental_uris": {"android": "https://dc.lft.to/lastmile_qr_scan", "ios": "https://dc.lft.to/lastmile_qr_scan"}, "fusion_lon": 0.0}, {"lat": 38.862308, "is_disabled": 0, "type": "electric_scooter", "lon": -76.99550216666667, "bike_id": "70be9571c8f98fcc7213576df8eb16dc", "fusion_lat": 0.0, "name": "70be9571c8f98fcc7213576df8eb16dc", "is_reserved": 0, "rental_uris": {"android": "https://dc.lft.to/lastmile_qr_scan", "ios": "https://dc.lft.to/lastmile_qr_scan"}, "fusion_lon": 0.0}, {"lat": 38.9236315, "is_disabled": 0, "type": "electric_scooter", "lon": -77.041265, "bike_id": "7aa66bf717024235688b047a72d398c5", "fusion_lat": 0.0, "name": "7aa66bf717024235688b047a72d398c5", "is_reserved": 0, "rental_uris": {"android": "https://dc.lft.to/lastmile_qr_scan", "ios": "https://dc.lft.to/lastmile_qr_scan"}, "fusion_lon": 0.0}, {"lat": 38.927608666666664, "is_disabled": 0, "type": "electric_scooter", "lon": -77.03224083333333, "bike_id": "ae217982f3c8706556365f592a055ccd", "fusion_lat": 0.0, "name": "ae217982f3c8706556365f592a055ccd", "is_reserved": 0, "rental_uris": {"android": "https://dc.lft.to/lastmile_qr_scan", "ios": "https://dc.lft.to/lastmile_qr_scan"}, "fusion_lon": 0.0}, {"lat": 38.88637966666667, "is_disabled": 0, "type": "electric_bike", "lon": -76.9547105, "bike_id": "4be18a2d85da023a9d1f698e32528661", "fusion_lat": 0.0, "name": "4be18a2d85da023a9d1f698e32528661", "is_reserved": 0, "rental_uris": {"android": "https://dc.lft.to/lastmile_qr_scan", "ios": "https://dc.lft.to/lastmile_qr_scan"}, "fusion_lon": 0.0}, {"lat": 38.961436, "is_disabled": 0, "type": "electric_scooter", "lon": -77.02806016666666, "bike_id": "08e8c203b19f2794a1a311073640a5b0", "fusion_lat": 0.0, "name": "08e8c203b19f2794a1a311073640a5b0", "is_reserved": 0, "rental_uris": {"android": "https://dc.lft.to/lastmile_qr_scan", "ios": "https://dc.lft.to/lastmile_qr_scan"}, "fusion_lon": 0.0}, {"lat": 38.887062, "is_disabled": 0, "type": "electric_bike", "lon": -76.990945, "bike_id": "64f9f682ed6c2b67dea441807def32c5", "fusion_lat": 0.0, "name": "64f9f682ed6c2b67dea441807def32c5", "is_reserved": 0, "rental_uris": {"android": "https://dc.lft.to/lastmile_qr_scan", "ios": "https://dc.lft.to/lastmile_qr_scan"}, "fusion_lon": 0.0}, {"lat": 38.93355416666667, "is_disabled": 0, "type": "electric_scooter", "lon": -77.07376233333333, "bike_id": "ea45a03501b3705af30b6ece10bc20eb", "fusion_lat": 0.0, "name": "ea45a03501b3705af30b6ece10bc20eb", "is_reserved": 0, "rental_uris": {"android": "https://dc.lft.to/lastmile_qr_scan", "ios": "https://dc.lft.to/lastmile_qr_scan"}, "fusion_lon": 0.0}, {"lat": 38.917046666666664, "is_disabled": 0, "type": "electric_scooter", "lon": -77.03480616666667, "bike_id": "75f5881510ee8d08c576065da218c02f", "fusion_lat": 0.0, "name": "75f5881510ee8d08c576065da218c02f", "is_reserved": 0, "rental_uris": {"android": "https://dc.lft.to/lastmile_qr_scan", "ios": "https://dc.lft.to/lastmile_qr_scan"}, "fusion_lon": 0.0}, {"lat": 38.96604966666666, "is_disabled": 0, "type": "electric_bike", "lon": -76.98333233333334, "bike_id": "ef0b143050152f5319a6ce7191599f0c", "fusion_lat": 0.0, "name": "ef0b143050152f5319a6ce7191599f0c", "is_reserved": 0, "rental_uris": {"android": "https://dc.lft.to/lastmile_qr_scan", "ios": "https://dc.lft.to/lastmile_qr_scan"}, "fusion_lon": 0.0}, {"lat": 38.892447, "is_disabled": 0, "type": "electric_scooter", "lon": -77.04896133333334, "bike_id": "fb5fb7cf8b3b791e49209d2812463cab", "fusion_lat": 0.0, "name": "fb5fb7cf8b3b791e49209d2812463cab", "is_reserved": 0, "rental_uris": {"android": "https://dc.lft.to/lastmile_qr_scan", "ios": "https://dc.lft.to/lastmile_qr_scan"}, "fusion_lon": 0.0}, {"lat": 38.923207, "is_disabled": 0, "type": "electric_scooter", "lon": -77.029769, "bike_id": "f547cfb2577dcede02b86d4ef76169e1", "fusion_lat": 0.0, "name": "f547cfb2577dcede02b86d4ef76169e1", "is_reserved": 0, "rental_uris": {"android": "https://dc.lft.to/lastmile_qr_scan", "ios": "https://dc.lft.to/lastmile_qr_scan"}, "fusion_lon": 0.0}, {"lat": 38.9206885, "is_disabled": 0, "type": "electric_scooter", "lon": -77.02498266666667, "bike_id": "50dba90220ad33fe4d2f778fe32f94c5", "fusion_lat": 0.0, "name": "50dba90220ad33fe4d2f778fe32f94c5", "is_reserved": 0, "rental_uris": {"android": "https://dc.lft.to/lastmile_qr_scan", "ios": "https://dc.lft.to/lastmile_qr_scan"}, "fusion_lon": 0.0}, {"lat": 38.938268666666666, "is_disabled": 0, "type": "electric_scooter", "lon": -77.060404, "bike_id": "72a700f1bd60ee90bd1cdd1b393dc139", "fusion_lat": 0.0, "name": "72a700f1bd60ee90bd1cdd1b393dc139", "is_reserved": 0, "rental_uris": {"android": "https://dc.lft.to/lastmile_qr_scan", "ios": "https://dc.lft.to/lastmile_qr_scan"}, "fusion_lon": 0.0}, {"lat": 38.89836116666667, "is_disabled": 0, "type": "electric_scooter", "lon": -76.931053, "bike_id": "80f56160d80517c3de88436dde6e3f8f", "fusion_lat": 0.0, "name": "80f56160d80517c3de88436dde6e3f8f", "is_reserved": 0, "rental_uris": {"android": "https://dc.lft.to/lastmile_qr_scan", "ios": "https://dc.lft.to/lastmile_qr_scan"}, "fusion_lon": 0.0}, {"lat": 38.905629833333336, "is_disabled": 0, "type": "electric_scooter", "lon": -77.0329575, "bike_id": "bc5f18509b5d70d3cccfec47cbb8e1c7", "fusion_lat": 0.0, "name": "bc5f18509b5d70d3cccfec47cbb8e1c7", "is_reserved": 0, "rental_uris": {"android": "https://dc.lft.to/lastmile_qr_scan", "ios": "https://dc.lft.to/lastmile_qr_scan"}, "fusion_lon": 0.0}, {"lat": 38.91707816666667, "is_disabled": 0, "type": "electric_scooter", "lon": -77.03871066666666, "bike_id": "2b59211422c811612a009a3c9a938db5", "fusion_lat": 0.0, "name": "2b59211422c811612a009a3c9a938db5", "is_reserved": 0, "rental_uris": {"android": "https://dc.lft.to/lastmile_qr_scan", "ios": "https://dc.lft.to/lastmile_qr_scan"}, "fusion_lon": 0.0}, {"lat": 38.86158866666667, "is_disabled": 0, "type": "electric_bike", "lon": -77.13095266666667, "bike_id": "e11580ca0f6c697131895c7fdbff0f82", "fusion_lat": 0.0, "name": "e11580ca0f6c697131895c7fdbff0f82", "is_reserved": 0, "rental_uris": {"android": "https://dc.lft.to/lastmile_qr_scan", "ios": "https://dc.lft.to/lastmile_qr_scan"}, "fusion_lon": 0.0}, {"lat": 38.92047066666667, "is_disabled": 0, "type": "electric_scooter", "lon": -77.03297366666666, "bike_id": "97f788d4ff7818a67cae9551821efabc", "fusion_lat": 0.0, "name": "97f788d4ff7818a67cae9551821efabc", "is_reserved": 0, "rental_uris": {"android": "https://dc.lft.to/lastmile_qr_scan", "ios": "https://dc.lft.to/lastmile_qr_scan"}, "fusion_lon": 0.0}, {"lat": 38.91803216666667, "is_disabled": 0, "type": "electric_scooter", "lon": -77.03636416666667, "bike_id": "6a6e23fe0e7d46ab850aa56277b1c49c", "fusion_lat": 0.0, "name": "6a6e23fe0e7d46ab850aa56277b1c49c", "is_reserved": 0, "rental_uris": {"android": "https://dc.lft.to/lastmile_qr_scan", "ios": "https://dc.lft.to/lastmile_qr_scan"}, "fusion_lon": 0.0}, {"lat": 38.889242833333334, "is_disabled": 0, "type": "electric_scooter", "lon": -76.97384783333334, "bike_id": "6e15907c0073c4a147a248b7f822a819", "fusion_lat": 0.0, "name": "6e15907c0073c4a147a248b7f822a819", "is_reserved": 0, "rental_uris": {"android": "https://dc.lft.to/lastmile_qr_scan", "ios": "https://dc.lft.to/lastmile_qr_scan"}, "fusion_lon": 0.0}, {"lat": 38.90634083333333, "is_disabled": 0, "type": "electric_scooter", "lon": -77.06281016666667, "bike_id": "b4eb2e41b5f978a6fe08a280ee75ea66", "fusion_lat": 0.0, "name": "b4eb2e41b5f978a6fe08a280ee75ea66", "is_reserved": 0, "rental_uris": {"android": "https://dc.lft.to/lastmile_qr_scan", "ios": "https://dc.lft.to/lastmile_qr_scan"}, "fusion_lon": 0.0}, {"lat": 38.88739966666667, "is_disabled": 0, "type": "electric_scooter", "lon": -77.01539166666667, "bike_id": "6d7646b4b69e337aa3e4cd7727e7e7b5", "fusion_lat": 0.0, "name": "6d7646b4b69e337aa3e4cd7727e7e7b5", "is_reserved": 0, "rental_uris": {"android": "https://dc.lft.to/lastmile_qr_scan", "ios": "https://dc.lft.to/lastmile_qr_scan"}, "fusion_lon": 0.0}, {"lat": 38.90577233333333, "is_disabled": 0, "type": "electric_scooter", "lon": -77.04350266666667, "bike_id": "3e75fa30080d14ea7557305819ae5deb", "fusion_lat": 0.0, "name": "3e75fa30080d14ea7557305819ae5deb", "is_reserved": 0, "rental_uris": {"android": "https://dc.lft.to/lastmile_qr_scan", "ios": "https://dc.lft.to/lastmile_qr_scan"}, "fusion_lon": 0.0}, {"lat": 38.921633166666666, "is_disabled": 0, "type": "electric_scooter", "lon": -77.04230283333334, "bike_id": "c9de82cd4cde4d703a4553e2e873d6f5", "fusion_lat": 0.0, "name": "c9de82cd4cde4d703a4553e2e873d6f5", "is_reserved": 0, "rental_uris": {"android": "https://dc.lft.to/lastmile_qr_scan", "ios": "https://dc.lft.to/lastmile_qr_scan"}, "fusion_lon": 0.0}, {"lat": 38.9178635, "is_disabled": 0, "type": "electric_scooter", "lon": -77.02261, "bike_id": "4557e7ed0c18de10d5149783e92e0874", "fusion_lat": 0.0, "name": "4557e7ed0c18de10d5149783e92e0874", "is_reserved": 0, "rental_uris": {"android": "https://dc.lft.to/lastmile_qr_scan", "ios": "https://dc.lft.to/lastmile_qr_scan"}, "fusion_lon": 0.0}, {"lat": 38.908693, "is_disabled": 0, "type": "electric_scooter", "lon": -77.04354266666667, "bike_id": "4fb93721ee0ab844827e3e345d120c6b", "fusion_lat": 0.0, "name": "4fb93721ee0ab844827e3e345d120c6b", "is_reserved": 0, "rental_uris": {"android": "https://dc.lft.to/lastmile_qr_scan", "ios": "https://dc.lft.to/lastmile_qr_scan"}, "fusion_lon": 0.0}, {"lat": 38.957764166666664, "is_disabled": 0, "type": "electric_scooter", "lon": -77.0275445, "bike_id": "45841d8d1bd44ab6eb47c3bee14ff1af", "fusion_lat": 0.0, "name": "45841d8d1bd44ab6eb47c3bee14ff1af", "is_reserved": 0, "rental_uris": {"android": "https://dc.lft.to/lastmile_qr_scan", "ios": "https://dc.lft.to/lastmile_qr_scan"}, "fusion_lon": 0.0}, {"lat": 38.90872133333333, "is_disabled": 0, "type": "electric_scooter", "lon": -77.03656083333334, "bike_id": "f3ed78a99be248b3dacaa26583cca096", "fusion_lat": 0.0, "name": "f3ed78a99be248b3dacaa26583cca096", "is_reserved": 0, "rental_uris": {"android": "https://dc.lft.to/lastmile_qr_scan", "ios": "https://dc.lft.to/lastmile_qr_scan"}, "fusion_lon": 0.0}, {"lat": 38.93975666666667, "is_disabled": 0, "type": "electric_scooter", "lon": -77.03594583333333, "bike_id": "fb3350f49a1b02cc3cb7c0ec8891c1df", "fusion_lat": 0.0, "name": "fb3350f49a1b02cc3cb7c0ec8891c1df", "is_reserved": 0, "rental_uris": {"android": "https://dc.lft.to/lastmile_qr_scan", "ios": "https://dc.lft.to/lastmile_qr_scan"}, "fusion_lon": 0.0}, {"lat": 38.920435, "is_disabled": 0, "type": "electric_scooter", "lon": -77.0328705, "bike_id": "cf38a5350611457e90a33a9103b1bf76", "fusion_lat": 0.0, "name": "cf38a5350611457e90a33a9103b1bf76", "is_reserved": 0, "rental_uris": {"android": "https://dc.lft.to/lastmile_qr_scan", "ios": "https://dc.lft.to/lastmile_qr_scan"}, "fusion_lon": 0.0}, {"lat": 38.86251266666667, "is_disabled": 0, "type": "electric_scooter", "lon": -76.99268033333334, "bike_id": "6c76f412aa1ee43ea98776ce91848519", "fusion_lat": 0.0, "name": "6c76f412aa1ee43ea98776ce91848519", "is_reserved": 0, "rental_uris": {"android": "https://dc.lft.to/lastmile_qr_scan", "ios": "https://dc.lft.to/lastmile_qr_scan"}, "fusion_lon": 0.0}, {"lat": 38.9258985, "is_disabled": 0, "type": "electric_scooter", "lon": -77.0227535, "bike_id": "600519a91a96cca3c516e819046825fb", "fusion_lat": 0.0, "name": "600519a91a96cca3c516e819046825fb", "is_reserved": 0, "rental_uris": {"android": "https://dc.lft.to/lastmile_qr_scan", "ios": "https://dc.lft.to/lastmile_qr_scan"}, "fusion_lon": 0.0}, {"lat": 38.91708233333333, "is_disabled": 0, "type": "electric_scooter", "lon": -77.034731, "bike_id": "bb7bce2e561039b7f32e1438a2021bed", "fusion_lat": 0.0, "name": "bb7bce2e561039b7f32e1438a2021bed", "is_reserved": 0, "rental_uris": {"android": "https://dc.lft.to/lastmile_qr_scan", "ios": "https://dc.lft.to/lastmile_qr_scan"}, "fusion_lon": 0.0}, {"lat": 38.91915816666667, "is_disabled": 0, "type": "electric_scooter", "lon": -77.00098583333333, "bike_id": "a80a4f5f0f497a17cbc52dbceae28369", "fusion_lat": 0.0, "name": "a80a4f5f0f497a17cbc52dbceae28369", "is_reserved": 0, "rental_uris": {"android": "https://dc.lft.to/lastmile_qr_scan", "ios": "https://dc.lft.to/lastmile_qr_scan"}, "fusion_lon": 0.0}, {"lat": 38.887137833333334, "is_disabled": 0, "type": "electric_scooter", "lon": -77.01381683333334, "bike_id": "10c4196587f60f8909e972f7390e11d9", "fusion_lat": 0.0, "name": "10c4196587f60f8909e972f7390e11d9", "is_reserved": 0, "rental_uris": {"android": "https://dc.lft.to/lastmile_qr_scan", "ios": "https://dc.lft.to/lastmile_qr_scan"}, "fusion_lon": 0.0}, {"lat": 38.930078, "is_disabled": 0, "type": "electric_bike", "lon": -77.2165805, "bike_id": "54a048ded31672ef97cac4b3962d299c", "fusion_lat": 0.0, "name": "54a048ded31672ef97cac4b3962d299c", "is_reserved": 0, "rental_uris": {"android": "https://dc.lft.to/lastmile_qr_scan", "ios": "https://dc.lft.to/lastmile_qr_scan"}, "fusion_lon": 0.0}, {"lat": 38.8970785, "is_disabled": 0, "type": "electric_bike", "lon": -77.00749233333333, "bike_id": "a6592c852d4e2b318973e33ebbe217b9", "fusion_lat": 0.0, "name": "a6592c852d4e2b318973e33ebbe217b9", "is_reserved": 0, "rental_uris": {"android": "https://dc.lft.to/lastmile_qr_scan", "ios": "https://dc.lft.to/lastmile_qr_scan"}, "fusion_lon": 0.0}, {"lat": 38.897713833333334, "is_disabled": 0, "type": "electric_scooter", "lon": -77.04353, "bike_id": "6d305be0e0b11ce3deb007ee825967dd", "fusion_lat": 0.0, "name": "6d305be0e0b11ce3deb007ee825967dd", "is_reserved": 0, "rental_uris": {"android": "https://dc.lft.to/lastmile_qr_scan", "ios": "https://dc.lft.to/lastmile_qr_scan"}, "fusion_lon": 0.0}, {"lat": 38.9021375, "is_disabled": 0, "type": "electric_scooter", "lon": -76.9459395, "bike_id": "4d1e7f21d5f99e0ce97dad9466a13a3a", "fusion_lat": 0.0, "name": "4d1e7f21d5f99e0ce97dad9466a13a3a", "is_reserved": 0, "rental_uris": {"android": "https://dc.lft.to/lastmile_qr_scan", "ios": "https://dc.lft.to/lastmile_qr_scan"}, "fusion_lon": 0.0}, {"lat": 38.96275683333333, "is_disabled": 0, "type": "electric_bike", "lon": -77.03252316666666, "bike_id": "5f26bb4b0c1151dcde683348b4fe1f59", "fusion_lat": 0.0, "name": "5f26bb4b0c1151dcde683348b4fe1f59", "is_reserved": 0, "rental_uris": {"android": "https://dc.lft.to/lastmile_qr_scan", "ios": "https://dc.lft.to/lastmile_qr_scan"}, "fusion_lon": 0.0}, {"lat": 38.915754666666665, "is_disabled": 0, "type": "electric_scooter", "lon": -77.04650366666667, "bike_id": "c250c9ecda2e737ebc71a19179ebe1ba", "fusion_lat": 0.0, "name": "c250c9ecda2e737ebc71a19179ebe1ba", "is_reserved": 0, "rental_uris": {"android": "https://dc.lft.to/lastmile_qr_scan", "ios": "https://dc.lft.to/lastmile_qr_scan"}, "fusion_lon": 0.0}, {"lat": 38.88710066666667, "is_disabled": 0, "type": "electric_scooter", "lon": -77.03183183333333, "bike_id": "3133caa65dfa68d1057fef9bdd4dd594", "fusion_lat": 0.0, "name": "3133caa65dfa68d1057fef9bdd4dd594", "is_reserved": 0, "rental_uris": {"android": "https://dc.lft.to/lastmile_qr_scan", "ios": "https://dc.lft.to/lastmile_qr_scan"}, "fusion_lon": 0.0}, {"lat": 38.95612916666666, "is_disabled": 0, "type": "electric_scooter", "lon": -77.02781833333333, "bike_id": "172048cd7bd679cd5acb32842962b304", "fusion_lat": 0.0, "name": "172048cd7bd679cd5acb32842962b304", "is_reserved": 0, "rental_uris": {"android": "https://dc.lft.to/lastmile_qr_scan", "ios": "https://dc.lft.to/lastmile_qr_scan"}, "fusion_lon": 0.0}, {"lat": 38.9046155, "is_disabled": 0, "type": "electric_scooter", "lon": -77.03238466666667, "bike_id": "f0e0f46c1eb62f01fce454a9bba35698", "fusion_lat": 0.0, "name": "f0e0f46c1eb62f01fce454a9bba35698", "is_reserved": 0, "rental_uris": {"android": "https://dc.lft.to/lastmile_qr_scan", "ios": "https://dc.lft.to/lastmile_qr_scan"}, "fusion_lon": 0.0}, {"lat": 38.91918066666667, "is_disabled": 0, "type": "electric_scooter", "lon": -77.03124966666667, "bike_id": "ae438a2933395f57edba6d37cd6ccf6b", "fusion_lat": 0.0, "name": "ae438a2933395f57edba6d37cd6ccf6b", "is_reserved": 0, "rental_uris": {"android": "https://dc.lft.to/lastmile_qr_scan", "ios": "https://dc.lft.to/lastmile_qr_scan"}, "fusion_lon": 0.0}, {"lat": 38.904940833333335, "is_disabled": 0, "type": "electric_scooter", "lon": -77.05800666666667, "bike_id": "30c9d2c403ee79cfd7d2c568300f5beb", "fusion_lat": 0.0, "name": "30c9d2c403ee79cfd7d2c568300f5beb", "is_reserved": 0, "rental_uris": {"android": "https://dc.lft.to/lastmile_qr_scan", "ios": "https://dc.lft.to/lastmile_qr_scan"}, "fusion_lon": 0.0}, {"lat": 38.86512866666666, "is_disabled": 0, "type": "electric_scooter", "lon": -76.99045633333333, "bike_id": "773d0652f2318c9bfbaeb068abde7b05", "fusion_lat": 0.0, "name": "773d0652f2318c9bfbaeb068abde7b05", "is_reserved": 0, "rental_uris": {"android": "https://dc.lft.to/lastmile_qr_scan", "ios": "https://dc.lft.to/lastmile_qr_scan"}, "fusion_lon": 0.0}, {"lat": 38.900957, "is_disabled": 0, "type": "electric_scooter", "lon": -77.02043083333334, "bike_id": "0e24601e6a6e1c5c99df972f4ea14b1e", "fusion_lat": 0.0, "name": "0e24601e6a6e1c5c99df972f4ea14b1e", "is_reserved": 0, "rental_uris": {"android": "https://dc.lft.to/lastmile_qr_scan", "ios": "https://dc.lft.to/lastmile_qr_scan"}, "fusion_lon": 0.0}, {"lat": 38.933527833333336, "is_disabled": 0, "type": "electric_bike", "lon": -77.099667, "bike_id": "f9d9ba3a184b96fb34597f2a8d02dd23", "fusion_lat": 0.0, "name": "f9d9ba3a184b96fb34597f2a8d02dd23", "is_reserved": 0, "rental_uris": {"android": "https://dc.lft.to/lastmile_qr_scan", "ios": "https://dc.lft.to/lastmile_qr_scan"}, "fusion_lon": 0.0}, {"lat": 38.87373983333333, "is_disabled": 0, "type": "electric_bike", "lon": -77.00938516666666, "bike_id": "a5061b66eaf7e37c733924ca2cba54bf", "fusion_lat": 0.0, "name": "a5061b66eaf7e37c733924ca2cba54bf", "is_reserved": 0, "rental_uris": {"android": "https://dc.lft.to/lastmile_qr_scan", "ios": "https://dc.lft.to/lastmile_qr_scan"}, "fusion_lon": 0.0}, {"lat": 38.9190285, "is_disabled": 0, "type": "electric_scooter", "lon": -77.046304, "bike_id": "d9b05b3862542211f099e1faebc29d99", "fusion_lat": 0.0, "name": "d9b05b3862542211f099e1faebc29d99", "is_reserved": 0, "rental_uris": {"android": "https://dc.lft.to/lastmile_qr_scan", "ios": "https://dc.lft.to/lastmile_qr_scan"}, "fusion_lon": 0.0}, {"lat": 38.909561833333335, "is_disabled": 0, "type": "electric_scooter", "lon": -77.0372525, "bike_id": "d3c98c72dedc267a33b63cee07d4d144", "fusion_lat": 0.0, "name": "d3c98c72dedc267a33b63cee07d4d144", "is_reserved": 0, "rental_uris": {"android": "https://dc.lft.to/lastmile_qr_scan", "ios": "https://dc.lft.to/lastmile_qr_scan"}, "fusion_lon": 0.0}, {"lat": 38.822471666666665, "is_disabled": 0, "type": "electric_scooter", "lon": -76.9998965, "bike_id": "802b98dea7dd29b99643d9cefa282dad", "fusion_lat": 0.0, "name": "802b98dea7dd29b99643d9cefa282dad", "is_reserved": 0, "rental_uris": {"android": "https://dc.lft.to/lastmile_qr_scan", "ios": "https://dc.lft.to/lastmile_qr_scan"}, "fusion_lon": 0.0}, {"lat": 38.866138666666664, "is_disabled": 0, "type": "electric_bike", "lon": -76.94579766666666, "bike_id": "fc0f793ed4392abf9dc7ac285e184e53", "fusion_lat": 0.0, "name": "fc0f793ed4392abf9dc7ac285e184e53", "is_reserved": 0, "rental_uris": {"android": "https://dc.lft.to/lastmile_qr_scan", "ios": "https://dc.lft.to/lastmile_qr_scan"}, "fusion_lon": 0.0}, {"lat": 38.884331, "is_disabled": 0, "type": "electric_scooter", "lon": -76.95759366666667, "bike_id": "b3c8719a5a7a346e1a0b2ad93f8fc145", "fusion_lat": 0.0, "name": "b3c8719a5a7a346e1a0b2ad93f8fc145", "is_reserved": 0, "rental_uris": {"android": "https://dc.lft.to/lastmile_qr_scan", "ios": "https://dc.lft.to/lastmile_qr_scan"}, "fusion_lon": 0.0}, {"lat": 38.865626166666665, "is_disabled": 0, "type": "electric_scooter", "lon": -76.98951583333333, "bike_id": "e0367eeb29c53ac775fbb761ecd03d06", "fusion_lat": 0.0, "name": "e0367eeb29c53ac775fbb761ecd03d06", "is_reserved": 0, "rental_uris": {"android": "https://dc.lft.to/lastmile_qr_scan", "ios": "https://dc.lft.to/lastmile_qr_scan"}, "fusion_lon": 0.0}, {"lat": 38.87652116666667, "is_disabled": 0, "type": "electric_scooter", "lon": -77.0058665, "bike_id": "58bc020b47250a955ecb73f71aca0ce1", "fusion_lat": 0.0, "name": "58bc020b47250a955ecb73f71aca0ce1", "is_reserved": 0, "rental_uris": {"android": "https://dc.lft.to/lastmile_qr_scan", "ios": "https://dc.lft.to/lastmile_qr_scan"}, "fusion_lon": 0.0}, {"lat": 38.89219516666667, "is_disabled": 0, "type": "electric_scooter", "lon": -76.9329945, "bike_id": "e1db7fd22bd1c06de32ceb01727903d1", "fusion_lat": 0.0, "name": "e1db7fd22bd1c06de32ceb01727903d1", "is_reserved": 0, "rental_uris": {"android": "https://dc.lft.to/lastmile_qr_scan", "ios": "https://dc.lft.to/lastmile_qr_scan"}, "fusion_lon": 0.0}, {"lat": 38.93018383333333, "is_disabled": 0, "type": "electric_scooter", "lon": -77.03304516666667, "bike_id": "a07e7bdc40e0e84f7a52af38c2b7b0fd", "fusion_lat": 0.0, "name": "a07e7bdc40e0e84f7a52af38c2b7b0fd", "is_reserved": 0, "rental_uris": {"android": "https://dc.lft.to/lastmile_qr_scan", "ios": "https://dc.lft.to/lastmile_qr_scan"}, "fusion_lon": 0.0}, {"lat": 38.93220766666666, "is_disabled": 0, "type": "electric_scooter", "lon": -77.02733933333333, "bike_id": "f280223bb97f103997794de6f04a7ff0", "fusion_lat": 0.0, "name": "f280223bb97f103997794de6f04a7ff0", "is_reserved": 0, "rental_uris": {"android": "https://dc.lft.to/lastmile_qr_scan", "ios": "https://dc.lft.to/lastmile_qr_scan"}, "fusion_lon": 0.0}, {"lat": 38.88969316666667, "is_disabled": 0, "type": "electric_scooter", "lon": -76.93746916666667, "bike_id": "49fbe6ec2f06c645c8d2bc1802d177bb", "fusion_lat": 0.0, "name": "49fbe6ec2f06c645c8d2bc1802d177bb", "is_reserved": 0, "rental_uris": {"android": "https://dc.lft.to/lastmile_qr_scan", "ios": "https://dc.lft.to/lastmile_qr_scan"}, "fusion_lon": 0.0}, {"lat": 38.910582166666664, "is_disabled": 0, "type": "electric_scooter", "lon": -77.0209535, "bike_id": "bb79d05b48013c6e929c0d629cdf06ce", "fusion_lat": 0.0, "name": "bb79d05b48013c6e929c0d629cdf06ce", "is_reserved": 0, "rental_uris": {"android": "https://dc.lft.to/lastmile_qr_scan", "ios": "https://dc.lft.to/lastmile_qr_scan"}, "fusion_lon": 0.0}, {"lat": 38.94505266666667, "is_disabled": 0, "type": "electric_scooter", "lon": -77.0218, "bike_id": "0df9794dc93d6b886e77c46e2f021eca", "fusion_lat": 0.0, "name": "0df9794dc93d6b886e77c46e2f021eca", "is_reserved": 0, "rental_uris": {"android": "https://dc.lft.to/lastmile_qr_scan", "ios": "https://dc.lft.to/lastmile_qr_scan"}, "fusion_lon": 0.0}, {"lat": 38.912675666666665, "is_disabled": 0, "type": "electric_scooter", "lon": -77.022826, "bike_id": "f91f41fd131255aef0f2df062887f757", "fusion_lat": 0.0, "name": "f91f41fd131255aef0f2df062887f757", "is_reserved": 0, "rental_uris": {"android": "https://dc.lft.to/lastmile_qr_scan", "ios": "https://dc.lft.to/lastmile_qr_scan"}, "fusion_lon": 0.0}, {"lat": 38.904597, "is_disabled": 0, "type": "electric_scooter", "lon": -77.03232316666667, "bike_id": "43aa24464471b47eb2f164245e2ef600", "fusion_lat": 0.0, "name": "43aa24464471b47eb2f164245e2ef600", "is_reserved": 0, "rental_uris": {"android": "https://dc.lft.to/lastmile_qr_scan", "ios": "https://dc.lft.to/lastmile_qr_scan"}, "fusion_lon": 0.0}, {"lat": 38.90722, "is_disabled": 0, "type": "electric_scooter", "lon": -77.02544683333333, "bike_id": "e51285c34d9a7c4ff2cbc53fc86dd2fc", "fusion_lat": 0.0, "name": "e51285c34d9a7c4ff2cbc53fc86dd2fc", "is_reserved": 0, "rental_uris": {"android": "https://dc.lft.to/lastmile_qr_scan", "ios": "https://dc.lft.to/lastmile_qr_scan"}, "fusion_lon": 0.0}, {"lat": 38.917734833333334, "is_disabled": 0, "type": "electric_scooter", "lon": -77.02313866666667, "bike_id": "b8d4192e1d2188531ca3340d0f8e7f92", "fusion_lat": 0.0, "name": "b8d4192e1d2188531ca3340d0f8e7f92", "is_reserved": 0, "rental_uris": {"android": "https://dc.lft.to/lastmile_qr_scan", "ios": "https://dc.lft.to/lastmile_qr_scan"}, "fusion_lon": 0.0}, {"lat": 38.906346166666665, "is_disabled": 0, "type": "electric_scooter", "lon": -77.04660166666666, "bike_id": "ca6245551145f067da81bbbad977ea1a", "fusion_lat": 0.0, "name": "ca6245551145f067da81bbbad977ea1a", "is_reserved": 0, "rental_uris": {"android": "https://dc.lft.to/lastmile_qr_scan", "ios": "https://dc.lft.to/lastmile_qr_scan"}, "fusion_lon": 0.0}, {"lat": 38.916658166666664, "is_disabled": 0, "type": "electric_scooter", "lon": -77.00666483333333, "bike_id": "b3050af845c9dd022da25db3bcc11456", "fusion_lat": 0.0, "name": "b3050af845c9dd022da25db3bcc11456", "is_reserved": 0, "rental_uris": {"android": "https://dc.lft.to/lastmile_qr_scan", "ios": "https://dc.lft.to/lastmile_qr_scan"}, "fusion_lon": 0.0}, {"lat": 38.9252675, "is_disabled": 0, "type": "electric_scooter", "lon": -77.007651, "bike_id": "5cbc17bbf12f0921d1dd16b2baca8a8e", "fusion_lat": 0.0, "name": "5cbc17bbf12f0921d1dd16b2baca8a8e", "is_reserved": 0, "rental_uris": {"android": "https://dc.lft.to/lastmile_qr_scan", "ios": "https://dc.lft.to/lastmile_qr_scan"}, "fusion_lon": 0.0}, {"lat": 38.921534333333334, "is_disabled": 0, "type": "electric_scooter", "lon": -77.03503766666667, "bike_id": "3a9a5105e91ac40a7c446d0e3e744eb9", "fusion_lat": 0.0, "name": "3a9a5105e91ac40a7c446d0e3e744eb9", "is_reserved": 0, "rental_uris": {"android": "https://dc.lft.to/lastmile_qr_scan", "ios": "https://dc.lft.to/lastmile_qr_scan"}, "fusion_lon": 0.0}, {"lat": 38.842922333333334, "is_disabled": 0, "type": "electric_scooter", "lon": -76.99953633333334, "bike_id": "b8eb532474510248a43f329d13751eda", "fusion_lat": 0.0, "name": "b8eb532474510248a43f329d13751eda", "is_reserved": 0, "rental_uris": {"android": "https://dc.lft.to/lastmile_qr_scan", "ios": "https://dc.lft.to/lastmile_qr_scan"}, "fusion_lon": 0.0}, {"lat": 38.919900166666665, "is_disabled": 0, "type": "electric_scooter", "lon": -77.01794416666667, "bike_id": "dfd24bc787b02ed7e81bfd2b4427c541", "fusion_lat": 0.0, "name": "dfd24bc787b02ed7e81bfd2b4427c541", "is_reserved": 0, "rental_uris": {"android": "https://dc.lft.to/lastmile_qr_scan", "ios": "https://dc.lft.to/lastmile_qr_scan"}, "fusion_lon": 0.0}, {"lat": 38.90159966666667, "is_disabled": 0, "type": "electric_scooter", "lon": -76.980383, "bike_id": "1887f66751efc7ae3a6b2157733f9314", "fusion_lat": 0.0, "name": "1887f66751efc7ae3a6b2157733f9314", "is_reserved": 0, "rental_uris": {"android": "https://dc.lft.to/lastmile_qr_scan", "ios": "https://dc.lft.to/lastmile_qr_scan"}, "fusion_lon": 0.0}, {"lat": 38.93809866666667, "is_disabled": 0, "type": "electric_scooter", "lon": -76.99235233333333, "bike_id": "9cc293c96fef332a0f46099c8e5abc4a", "fusion_lat": 0.0, "name": "9cc293c96fef332a0f46099c8e5abc4a", "is_reserved": 0, "rental_uris": {"android": "https://dc.lft.to/lastmile_qr_scan", "ios": "https://dc.lft.to/lastmile_qr_scan"}, "fusion_lon": 0.0}, {"lat": 38.884905833333335, "is_disabled": 0, "type": "electric_scooter", "lon": -77.00712066666667, "bike_id": "0c46f502d2ae318d2394370c4304f85e", "fusion_lat": 0.0, "name": "0c46f502d2ae318d2394370c4304f85e", "is_reserved": 0, "rental_uris": {"android": "https://dc.lft.to/lastmile_qr_scan", "ios": "https://dc.lft.to/lastmile_qr_scan"}, "fusion_lon": 0.0}, {"lat": 38.8928595, "is_disabled": 0, "type": "electric_scooter", "lon": -77.00221783333333, "bike_id": "87f4d0819ae64f0ea58f45f20205585c", "fusion_lat": 0.0, "name": "87f4d0819ae64f0ea58f45f20205585c", "is_reserved": 0, "rental_uris": {"android": "https://dc.lft.to/lastmile_qr_scan", "ios": "https://dc.lft.to/lastmile_qr_scan"}, "fusion_lon": 0.0}, {"lat": 38.90012183333333, "is_disabled": 0, "type": "electric_scooter", "lon": -77.021495, "bike_id": "4a6f9d976569378db787f06dbf411609", "fusion_lat": 0.0, "name": "4a6f9d976569378db787f06dbf411609", "is_reserved": 0, "rental_uris": {"android": "https://dc.lft.to/lastmile_qr_scan", "ios": "https://dc.lft.to/lastmile_qr_scan"}, "fusion_lon": 0.0}, {"lat": 38.802233333333334, "is_disabled": 0, "type": "electric_bike", "lon": -77.079183, "bike_id": "1897c5112415eed83c575543165657d7", "fusion_lat": 0.0, "name": "1897c5112415eed83c575543165657d7", "is_reserved": 0, "rental_uris": {"android": "https://dc.lft.to/lastmile_qr_scan", "ios": "https://dc.lft.to/lastmile_qr_scan"}, "fusion_lon": 0.0}, {"lat": 38.8578625, "is_disabled": 0, "type": "electric_bike", "lon": -76.98743716666667, "bike_id": "27286ae8cba070c6a8f82b6d64c6c83b", "fusion_lat": 0.0, "name": "27286ae8cba070c6a8f82b6d64c6c83b", "is_reserved": 0, "rental_uris": {"android": "https://dc.lft.to/lastmile_qr_scan", "ios": "https://dc.lft.to/lastmile_qr_scan"}, "fusion_lon": 0.0}, {"lat": 38.9038635, "is_disabled": 0, "type": "electric_scooter", "lon": -77.028075, "bike_id": "4a588daeb7037087d69a5dbb125999ea", "fusion_lat": 0.0, "name": "4a588daeb7037087d69a5dbb125999ea", "is_reserved": 0, "rental_uris": {"android": "https://dc.lft.to/lastmile_qr_scan", "ios": "https://dc.lft.to/lastmile_qr_scan"}, "fusion_lon": 0.0}, {"lat": 38.9332475, "is_disabled": 0, "type": "electric_scooter", "lon": -77.04408916666667, "bike_id": "0e96aae6f3ad8355e562de5fa00510f6", "fusion_lat": 0.0, "name": "0e96aae6f3ad8355e562de5fa00510f6", "is_reserved": 0, "rental_uris": {"android": "https://dc.lft.to/lastmile_qr_scan", "ios": "https://dc.lft.to/lastmile_qr_scan"}, "fusion_lon": 0.0}, {"lat": 38.917548833333335, "is_disabled": 0, "type": "electric_scooter", "lon": -77.039921, "bike_id": "cb2a3dd1d6edb8b94dd039babed3f2c2", "fusion_lat": 0.0, "name": "cb2a3dd1d6edb8b94dd039babed3f2c2", "is_reserved": 0, "rental_uris": {"android": "https://dc.lft.to/lastmile_qr_scan", "ios": "https://dc.lft.to/lastmile_qr_scan"}, "fusion_lon": 0.0}, {"lat": 38.927866, "is_disabled": 0, "type": "electric_scooter", "lon": -77.04302033333333, "bike_id": "b022cf293d225a2ac76398955945937f", "fusion_lat": 0.0, "name": "b022cf293d225a2ac76398955945937f", "is_reserved": 0, "rental_uris": {"android": "https://dc.lft.to/lastmile_qr_scan", "ios": "https://dc.lft.to/lastmile_qr_scan"}, "fusion_lon": 0.0}, {"lat": 38.899554333333334, "is_disabled": 0, "type": "electric_scooter", "lon": -77.052074, "bike_id": "545bfd8d4a11a8e50126027098c53fd9", "fusion_lat": 0.0, "name": "545bfd8d4a11a8e50126027098c53fd9", "is_reserved": 0, "rental_uris": {"android": "https://dc.lft.to/lastmile_qr_scan", "ios": "https://dc.lft.to/lastmile_qr_scan"}, "fusion_lon": 0.0}, {"lat": 38.90628016666667, "is_disabled": 0, "type": "electric_bike", "lon": -77.07030783333333, "bike_id": "145875719db290ca0f4cb9ab8ade9077", "fusion_lat": 0.0, "name": "145875719db290ca0f4cb9ab8ade9077", "is_reserved": 0, "rental_uris": {"android": "https://dc.lft.to/lastmile_qr_scan", "ios": "https://dc.lft.to/lastmile_qr_scan"}, "fusion_lon": 0.0}, {"lat": 38.925345666666665, "is_disabled": 0, "type": "electric_scooter", "lon": -77.05247533333333, "bike_id": "dd4abda16c6d011bf2a72c50d3cd1f07", "fusion_lat": 0.0, "name": "dd4abda16c6d011bf2a72c50d3cd1f07", "is_reserved": 0, "rental_uris": {"android": "https://dc.lft.to/lastmile_qr_scan", "ios": "https://dc.lft.to/lastmile_qr_scan"}, "fusion_lon": 0.0}, {"lat": 38.939567833333335, "is_disabled": 0, "type": "electric_scooter", "lon": -77.02751816666667, "bike_id": "1cef4bfb6e942857ef035c49864a9d1a", "fusion_lat": 0.0, "name": "1cef4bfb6e942857ef035c49864a9d1a", "is_reserved": 0, "rental_uris": {"android": "https://dc.lft.to/lastmile_qr_scan", "ios": "https://dc.lft.to/lastmile_qr_scan"}, "fusion_lon": 0.0}, {"lat": 38.916859, "is_disabled": 0, "type": "electric_scooter", "lon": -77.03632666666667, "bike_id": "12dc7705c94624c166787c4b42225370", "fusion_lat": 0.0, "name": "12dc7705c94624c166787c4b42225370", "is_reserved": 0, "rental_uris": {"android": "https://dc.lft.to/lastmile_qr_scan", "ios": "https://dc.lft.to/lastmile_qr_scan"}, "fusion_lon": 0.0}, {"lat": 38.93490666666667, "is_disabled": 0, "type": "electric_scooter", "lon": -77.03414383333333, "bike_id": "fdadb5619062b4f139c9648117aed80a", "fusion_lat": 0.0, "name": "fdadb5619062b4f139c9648117aed80a", "is_reserved": 0, "rental_uris": {"android": "https://dc.lft.to/lastmile_qr_scan", "ios": "https://dc.lft.to/lastmile_qr_scan"}, "fusion_lon": 0.0}, {"lat": 38.91657466666667, "is_disabled": 0, "type": "electric_scooter", "lon": -77.0437715, "bike_id": "9498ab04e4be0a9e1f26969dfc2c3491", "fusion_lat": 0.0, "name": "9498ab04e4be0a9e1f26969dfc2c3491", "is_reserved": 0, "rental_uris": {"android": "https://dc.lft.to/lastmile_qr_scan", "ios": "https://dc.lft.to/lastmile_qr_scan"}, "fusion_lon": 0.0}, {"lat": 38.87369966666667, "is_disabled": 0, "type": "electric_scooter", "lon": -77.00207666666667, "bike_id": "9345e19491073ebf54f5138c728a22a1", "fusion_lat": 0.0, "name": "9345e19491073ebf54f5138c728a22a1", "is_reserved": 0, "rental_uris": {"android": "https://dc.lft.to/lastmile_qr_scan", "ios": "https://dc.lft.to/lastmile_qr_scan"}, "fusion_lon": 0.0}, {"lat": 38.898532833333334, "is_disabled": 0, "type": "electric_scooter", "lon": -77.02911466666667, "bike_id": "750d367b3532232afbb9cc49c8fd5d23", "fusion_lat": 0.0, "name": "750d367b3532232afbb9cc49c8fd5d23", "is_reserved": 0, "rental_uris": {"android": "https://dc.lft.to/lastmile_qr_scan", "ios": "https://dc.lft.to/lastmile_qr_scan"}, "fusion_lon": 0.0}, {"lat": 38.89985216666667, "is_disabled": 0, "type": "electric_bike", "lon": -76.98123166666667, "bike_id": "0d2cb0be24e08e6b7bd9f6e5f779b8ec", "fusion_lat": 0.0, "name": "0d2cb0be24e08e6b7bd9f6e5f779b8ec", "is_reserved": 0, "rental_uris": {"android": "https://dc.lft.to/lastmile_qr_scan", "ios": "https://dc.lft.to/lastmile_qr_scan"}, "fusion_lon": 0.0}, {"lat": 38.92754716666666, "is_disabled": 0, "type": "electric_scooter", "lon": -77.00601066666667, "bike_id": "317542be65f9316642fbe18c6efb38c2", "fusion_lat": 0.0, "name": "317542be65f9316642fbe18c6efb38c2", "is_reserved": 0, "rental_uris": {"android": "https://dc.lft.to/lastmile_qr_scan", "ios": "https://dc.lft.to/lastmile_qr_scan"}, "fusion_lon": 0.0}, {"lat": 38.911034, "is_disabled": 0, "type": "electric_scooter", "lon": -77.03841033333333, "bike_id": "b358daa525d1223c5fae962274c35671", "fusion_lat": 0.0, "name": "b358daa525d1223c5fae962274c35671", "is_reserved": 0, "rental_uris": {"android": "https://dc.lft.to/lastmile_qr_scan", "ios": "https://dc.lft.to/lastmile_qr_scan"}, "fusion_lon": 0.0}, {"lat": 38.9126475, "is_disabled": 0, "type": "electric_scooter", "lon": -77.03142283333334, "bike_id": "c28bb4d12c8874fc072c9c91a0d1f3e2", "fusion_lat": 0.0, "name": "c28bb4d12c8874fc072c9c91a0d1f3e2", "is_reserved": 0, "rental_uris": {"android": "https://dc.lft.to/lastmile_qr_scan", "ios": "https://dc.lft.to/lastmile_qr_scan"}, "fusion_lon": 0.0}, {"lat": 38.900057, "is_disabled": 0, "type": "electric_scooter", "lon": -76.9222905, "bike_id": "c84cae8522b036f3dd8a981e17bdabd3", "fusion_lat": 0.0, "name": "c84cae8522b036f3dd8a981e17bdabd3", "is_reserved": 0, "rental_uris": {"android": "https://dc.lft.to/lastmile_qr_scan", "ios": "https://dc.lft.to/lastmile_qr_scan"}, "fusion_lon": 0.0}, {"lat": 38.90685966666667, "is_disabled": 0, "type": "electric_scooter", "lon": -77.03534566666667, "bike_id": "72d973d9991955f81f2222eb2913956f", "fusion_lat": 0.0, "name": "72d973d9991955f81f2222eb2913956f", "is_reserved": 0, "rental_uris": {"android": "https://dc.lft.to/lastmile_qr_scan", "ios": "https://dc.lft.to/lastmile_qr_scan"}, "fusion_lon": 0.0}, {"lat": 38.897141500000004, "is_disabled": 0, "type": "electric_scooter", "lon": -77.00796116666666, "bike_id": "b9773c9729243f4ea9223e9ae1e19220", "fusion_lat": 0.0, "name": "b9773c9729243f4ea9223e9ae1e19220", "is_reserved": 0, "rental_uris": {"android": "https://dc.lft.to/lastmile_qr_scan", "ios": "https://dc.lft.to/lastmile_qr_scan"}, "fusion_lon": 0.0}, {"lat": 38.92674183333333, "is_disabled": 0, "type": "electric_scooter", "lon": -77.00747116666666, "bike_id": "2d3eba4e0ca2ea236f4e9a5c3e18e329", "fusion_lat": 0.0, "name": "2d3eba4e0ca2ea236f4e9a5c3e18e329", "is_reserved": 0, "rental_uris": {"android": "https://dc.lft.to/lastmile_qr_scan", "ios": "https://dc.lft.to/lastmile_qr_scan"}, "fusion_lon": 0.0}, {"lat": 38.894926166666664, "is_disabled": 0, "type": "electric_scooter", "lon": -77.00214583333333, "bike_id": "386e1cb44f96cc714dafd332750630e4", "fusion_lat": 0.0, "name": "386e1cb44f96cc714dafd332750630e4", "is_reserved": 0, "rental_uris": {"android": "https://dc.lft.to/lastmile_qr_scan", "ios": "https://dc.lft.to/lastmile_qr_scan"}, "fusion_lon": 0.0}, {"lat": 38.90036766666667, "is_disabled": 0, "type": "electric_scooter", "lon": -77.00542033333333, "bike_id": "46233ad3366844d06541bee7be017139", "fusion_lat": 0.0, "name": "46233ad3366844d06541bee7be017139", "is_reserved": 0, "rental_uris": {"android": "https://dc.lft.to/lastmile_qr_scan", "ios": "https://dc.lft.to/lastmile_qr_scan"}, "fusion_lon": 0.0}, {"lat": 38.884637, "is_disabled": 0, "type": "electric_scooter", "lon": -77.0152785, "bike_id": "e7aca5769a160c500cdf272529d2a4e7", "fusion_lat": 0.0, "name": "e7aca5769a160c500cdf272529d2a4e7", "is_reserved": 0, "rental_uris": {"android": "https://dc.lft.to/lastmile_qr_scan", "ios": "https://dc.lft.to/lastmile_qr_scan"}, "fusion_lon": 0.0}, {"lat": 38.9573515, "is_disabled": 0, "type": "electric_bike", "lon": -77.02328916666667, "bike_id": "a546725227b26a89cf7c6223fd4730df", "fusion_lat": 0.0, "name": "a546725227b26a89cf7c6223fd4730df", "is_reserved": 0, "rental_uris": {"android": "https://dc.lft.to/lastmile_qr_scan", "ios": "https://dc.lft.to/lastmile_qr_scan"}, "fusion_lon": 0.0}, {"lat": 38.908757666666666, "is_disabled": 0, "type": "electric_scooter", "lon": -77.00290766666667, "bike_id": "8291cdd32b7dae7519c4082aa29de993", "fusion_lat": 0.0, "name": "8291cdd32b7dae7519c4082aa29de993", "is_reserved": 0, "rental_uris": {"android": "https://dc.lft.to/lastmile_qr_scan", "ios": "https://dc.lft.to/lastmile_qr_scan"}, "fusion_lon": 0.0}, {"lat": 38.917268166666666, "is_disabled": 0, "type": "electric_scooter", "lon": -77.03666383333334, "bike_id": "6a0a75bdb3063dfeaf771da0d1fdb8c5", "fusion_lat": 0.0, "name": "6a0a75bdb3063dfeaf771da0d1fdb8c5", "is_reserved": 0, "rental_uris": {"android": "https://dc.lft.to/lastmile_qr_scan", "ios": "https://dc.lft.to/lastmile_qr_scan"}, "fusion_lon": 0.0},