{"data": {"bikes": [{"is_reserved": 0, "type": "electric_scooter", "bike_id": "bd06ac9f1cbce28cbcc15586a21c81e6", "lat": 38.933526, "lon": -77.02411483333333, "rental_uris": {"android": "https://dc.lft.to/lastmile_qr_scan", "ios": "https://dc.lft.to/lastmile_qr_scan"}, "is_disabled": 0, "fusion_lat": 0.0, "name": "bd06ac9f1cbce28cbcc15586a21c81e6", "fusion_lon": 0.0}, {"is_reserved": 0, "type": "electric_scooter", "bike_id": "fba20cf836bb5856c6462caaf58b9bcc", "lat": 38.905023166666666, "lon": -77.0417105, "rental_uris": {"android": "https://dc.lft.to/lastmile_qr_scan", "ios": "https://dc.lft.to/lastmile_qr_scan"}, "is_disabled": 0, "fusion_lat": 0.0, "name": "fba20cf836bb5856c6462caaf58b9bcc", "fusion_lon": 0.0}, {"is_reserved": 0, "type": "electric_scooter", "bike_id": "e654135da8fbf335c502f2943d6007d7", "lat": 38.927173, "lon": -77.02076266666667, "rental_uris": {"android": "https://dc.lft.to/lastmile_qr_scan", "ios": "https://dc.lft.to/lastmile_qr_scan"}, "is_disabled": 0, "fusion_lat": 0.0, "name": "e654135da8fbf335c502f2943d6007d7", "fusion_lon": 0.0}, {"is_reserved": 0, "type": "electric_bike", "bike_id": "bf876fff9a3995d1caf37324625b95ae", "lat": 38.944961, "lon": -77.00684083333333, "rental_uris": {"android": "https://dc.lft.to/lastmile_qr_scan", "ios": "https://dc.lft.to/lastmile_qr_scan"}, "is_disabled": 0, "fusion_lat": 0.0, "name": "bf876fff9a3995d1caf37324625b95ae", "fusion_lon": 0.0}, {"is_reserved": 0, "type": "electric_bike", "bike_id": "43491f38eca09c244cb87e888cc38945", "lat": 38.82338683333333, "lon": -77.05823016666666, "rental_uris": {"android": "https://dc.lft.to/lastmile_qr_scan", "ios": "https://dc.lft.to/lastmile_qr_scan"}, "is_disabled": 0, "fusion_lat": 0.0, "name": "43491f38eca09c244cb87e888cc38945", "fusion_lon": 0.0}, {"is_reserved": 0, "type": "electric_bike", "bike_id": "77cf8fb66e8c6e2aa50c23b0e5771f0e", "lat": 38.88392, "lon": -76.95445966666666, "rental_uris": {"android": "https://dc.lft.to/lastmile_qr_scan", "ios": "https://dc.lft.to/lastmile_qr_scan"}, "is_disabled": 0, "fusion_lat": 0.0, "name": "77cf8fb66e8c6e2aa50c23b0e5771f0e", "fusion_lon": 0.0}, {"is_reserved": 0, "type": "electric_scooter", "bike_id": "91b2909a10f9cf3a5eff64233b58c09b", "lat": 38.9112745, "lon": -77.021918, "rental_uris": {"android": "https://dc.lft.to/lastmile_qr_scan", "ios": "https://dc.lft.to/lastmile_qr_scan"}, "is_disabled": 0, "fusion_lat": 0.0, "name": "91b2909a10f9cf3a5eff64233b58c09b", "fusion_lon": 0.0}, {"is_reserved": 0, "type": "electric_scooter", "bike_id": "8bc95b3a4dac4c07bb31b971ffbf2547", "lat": 38.90521316666667, "lon": -77.02617033333334, "rental_uris": {"android": "https://dc.lft.to/lastmile_qr_scan", "ios": "https://dc.lft.to/lastmile_qr_scan"}, "is_disabled": 0, "fusion_lat": 0.0, "name": "8bc95b3a4dac4c07bb31b971ffbf2547", "fusion_lon": 0.0}, {"is_reserved": 0, "type": "electric_scooter", "bike_id": "860f9dc72cd52966fe11c79a5347fbea", "lat": 38.9184165, "lon": -77.0231445, "rental_uris": {"android": "https://dc.lft.to/lastmile_qr_scan", "ios": "https://dc.lft.to/lastmile_qr_scan"}, "is_disabled": 0, "fusion_lat": 0.0, "name": "860f9dc72cd52966fe11c79a5347fbea", "fusion_lon": 0.0}, {"is_reserved": 0, "type": "electric_bike", "bike_id": "67cd0a146ff687b2f5e26d0fe7076820", "lat": 38.832327, "lon": -76.94624783333333, "rental_uris": {"android": "https://dc.lft.to/lastmile_qr_scan", "ios": "https://dc.lft.to/lastmile_qr_scan"}, "is_disabled": 0, "fusion_lat": 0.0, "name": "67cd0a146ff687b2f5e26d0fe7076820", "fusion_lon": 0.0}, {"is_reserved": 0, "type": "electric_scooter", "bike_id": "1f02119648c7f5c16ccda31b041daa2d", "lat": 38.944935, "lon": -77.007395, "rental_uris": {"android": "https://dc.lft.to/lastmile_qr_scan", "ios": "https://dc.lft.to/lastmile_qr_scan"}, "is_disabled": 0, "fusion_lat": 0.0, "name": "1f02119648c7f5c16ccda31b041daa2d", "fusion_lon": 0.0}, {"is_reserved": 0, "type": "electric_scooter", "bike_id": "1f09ab81dec3d1bbb0d924508ade01c0", "lat": 38.925619833333336, "lon": -76.970103, "rental_uris": {"android": "https://dc.lft.to/lastmile_qr_scan", "ios": "https://dc.lft.to/lastmile_qr_scan"}, "is_disabled": 0, "fusion_lat": 0.0, "name": "1f09ab81dec3d1bbb0d924508ade01c0", "fusion_lon": 0.0}, {"is_reserved": 0, "type": "electric_scooter", "bike_id": "93e9b7ebb22a18b9cba7f9aa68284f11", "lat": 38.89847533333333, "lon": -76.92749466666666, "rental_uris": {"android": "https://dc.lft.to/lastmile_qr_scan", "ios": "https://dc.lft.to/lastmile_qr_scan"}, "is_disabled": 0, "fusion_lat": 0.0, "name": "93e9b7ebb22a18b9cba7f9aa68284f11", "fusion_lon": 0.0}, {"is_reserved": 0, "type": "electric_scooter", "bike_id": "4f0f2bdf0200a5e0281bb727637225c2", "lat": 38.9121665, "lon": -77.0271775, "rental_uris": {"android": "https://dc.lft.to/lastmile_qr_scan", "ios": "https://dc.lft.to/lastmile_qr_scan"}, "is_disabled": 0, "fusion_lat": 0.0, "name": "4f0f2bdf0200a5e0281bb727637225c2", "fusion_lon": 0.0}, {"is_reserved": 0, "type": "electric_scooter", "bike_id": "04680499a9f047d6b25b47bfca782d40", "lat": 38.9444255, "lon": -77.02916833333333, "rental_uris": {"android": "https://dc.lft.to/lastmile_qr_scan", "ios": "https://dc.lft.to/lastmile_qr_scan"}, "is_disabled": 0, "fusion_lat": 0.0, "name": "04680499a9f047d6b25b47bfca782d40", "fusion_lon": 0.0}, {"is_reserved": 0, "type": "electric_scooter", "bike_id": "bb50766bbd27172c94f1bc9f81f04e42", "lat": 38.90671016666667, "lon": -76.98026616666667, "rental_uris": {"android": "https://dc.lft.to/lastmile_qr_scan", "ios": "https://dc.lft.to/lastmile_qr_scan"}, "is_disabled": 0, "fusion_lat": 0.0, "name": "bb50766bbd27172c94f1bc9f81f04e42", "fusion_lon": 0.0}, {"is_reserved": 0, "type": "electric_scooter", "bike_id": "c98012efdda4c1c93c3040d5942ec338", "lat": 38.8715975, "lon": -77.01355683333334, "rental_uris": {"android": "https://dc.lft.to/lastmile_qr_scan", "ios": "https://dc.lft.to/lastmile_qr_scan"}, "is_disabled": 0, "fusion_lat": 0.0, "name": "c98012efdda4c1c93c3040d5942ec338", "fusion_lon": 0.0}, {"is_reserved": 0, "type": "electric_scooter", "bike_id": "33f12f1ec6569ed1c1ace073db0043ea", "lat": 38.9071985, "lon": -77.02555916666667, "rental_uris": {"android": "https://dc.lft.to/lastmile_qr_scan", "ios": "https://dc.lft.to/lastmile_qr_scan"}, "is_disabled": 0, "fusion_lat": 0.0, "name": "33f12f1ec6569ed1c1ace073db0043ea", "fusion_lon": 0.0}, {"is_reserved": 0, "type": "electric_scooter", "bike_id": "9fbba6e2af222508925a70eaef55d28a", "lat": 38.9187665, "lon": -77.04491033333333, "rental_uris": {"android": "https://dc.lft.to/lastmile_qr_scan", "ios": "https://dc.lft.to/lastmile_qr_scan"}, "is_disabled": 0, "fusion_lat": 0.0, "name": "9fbba6e2af222508925a70eaef55d28a", "fusion_lon": 0.0}, {"is_reserved": 0, "type": "electric_bike", "bike_id": "4b4b01fdb0533b00f31a9ab8f9a8c12a", "lat": 38.928883666666664, "lon": -77.03370216666667, "rental_uris": {"android": "https://dc.lft.to/lastmile_qr_scan", "ios": "https://dc.lft.to/lastmile_qr_scan"}, "is_disabled": 0, "fusion_lat": 0.0, "name": "4b4b01fdb0533b00f31a9ab8f9a8c12a", "fusion_lon": 0.0}, {"is_reserved": 0, "type": "electric_scooter", "bike_id": "9bf72946098d8bc0bb1cd4355b7c212e", "lat": 38.92078216666667, "lon": -77.0239295, "rental_uris": {"android": "https://dc.lft.to/lastmile_qr_scan", "ios": "https://dc.lft.to/lastmile_qr_scan"}, "is_disabled": 0, "fusion_lat": 0.0, "name": "9bf72946098d8bc0bb1cd4355b7c212e", "fusion_lon": 0.0}, {"is_reserved": 0, "type": "electric_scooter", "bike_id": "da5dca57ca37d997f15e13d0d4ad0b76", "lat": 38.916612666666666, "lon": -76.98063333333333, "rental_uris": {"android": "https://dc.lft.to/lastmile_qr_scan", "ios": "https://dc.lft.to/lastmile_qr_scan"}, "is_disabled": 0, "fusion_lat": 0.0, "name": "da5dca57ca37d997f15e13d0d4ad0b76", "fusion_lon": 0.0}, {"is_reserved": 0, "type": "electric_scooter", "bike_id": "0524bc0856148454ecf7e91956b5cc65", "lat": 38.936915666666664, "lon": -77.02713716666666, "rental_uris": {"android": "https://dc.lft.to/lastmile_qr_scan", "ios": "https://dc.lft.to/lastmile_qr_scan"}, "is_disabled": 0, "fusion_lat": 0.0, "name": "0524bc0856148454ecf7e91956b5cc65", "fusion_lon": 0.0}, {"is_reserved": 0, "type": "electric_scooter", "bike_id": "5cbc9249d4843f9dce2ac28881dd094d", "lat": 38.8996385, "lon": -77.01612416666667, "rental_uris": {"android": "https://dc.lft.to/lastmile_qr_scan", "ios": "https://dc.lft.to/lastmile_qr_scan"}, "is_disabled": 0, "fusion_lat": 0.0, "name": "5cbc9249d4843f9dce2ac28881dd094d", "fusion_lon": 0.0}, {"is_reserved": 0, "type": "electric_bike", "bike_id": "a8c230fb147ef4f1885f1b2fa24968aa", "lat": 38.95554533333333, "lon": -76.9690395, "rental_uris": {"android": "https://dc.lft.to/lastmile_qr_scan", "ios": "https://dc.lft.to/lastmile_qr_scan"}, "is_disabled": 0, "fusion_lat": 0.0, "name": "a8c230fb147ef4f1885f1b2fa24968aa", "fusion_lon": 0.0}, {"is_reserved": 0, "type": "electric_scooter", "bike_id": "3707b76ed7dfbe8f5f21e6196e61a7f0", "lat": 38.8643115, "lon": -76.99864733333334, "rental_uris": {"android": "https://dc.lft.to/lastmile_qr_scan", "ios": "https://dc.lft.to/lastmile_qr_scan"}, "is_disabled": 0, "fusion_lat": 0.0, "name": "3707b76ed7dfbe8f5f21e6196e61a7f0", "fusion_lon": 0.0}, {"is_reserved": 0, "type": "electric_scooter", "bike_id": "596609458eb39c9088cdcc0a69d14f4d", "lat": 38.9346115, "lon": -77.02245633333334, "rental_uris": {"android": "https://dc.lft.to/lastmile_qr_scan", "ios": "https://dc.lft.to/lastmile_qr_scan"}, "is_disabled": 0, "fusion_lat": 0.0, "name": "596609458eb39c9088cdcc0a69d14f4d", "fusion_lon": 0.0}, {"is_reserved": 0, "type": "electric_scooter", "bike_id": "653e874474b173ed0dab63e0eab5c32a", "lat": 38.92899416666667, "lon": -77.02254066666667, "rental_uris": {"android": "https://dc.lft.to/lastmile_qr_scan", "ios": "https://dc.lft.to/lastmile_qr_scan"}, "is_disabled": 0, "fusion_lat": 0.0, "name": "653e874474b173ed0dab63e0eab5c32a", "fusion_lon": 0.0}, {"is_reserved": 0, "type": "electric_scooter", "bike_id": "603620cc1a9fce8ba3103904a3defc44", "lat": 38.917712, "lon": -77.03177666666667, "rental_uris": {"android": "https://dc.lft.to/lastmile_qr_scan", "ios": "https://dc.lft.to/lastmile_qr_scan"}, "is_disabled": 0, "fusion_lat": 0.0, "name": "603620cc1a9fce8ba3103904a3defc44", "fusion_lon": 0.0}, {"is_reserved": 0, "type": "electric_scooter", "bike_id": "2194502e8301ea16d37dfbf6c9b1a6aa", "lat": 38.95095766666667, "lon": -77.02810266666667, "rental_uris": {"android": "https://dc.lft.to/lastmile_qr_scan", "ios": "https://dc.lft.to/lastmile_qr_scan"}, "is_disabled": 0, "fusion_lat": 0.0, "name": "2194502e8301ea16d37dfbf6c9b1a6aa", "fusion_lon": 0.0}, {"is_reserved": 0, "type": "electric_scooter", "bike_id": "24e8de820a06a53604db5b5c11e5ba08", "lat": 38.9005845, "lon": -76.98683766666667, "rental_uris": {"android": "https://dc.lft.to/lastmile_qr_scan", "ios": "https://dc.lft.to/lastmile_qr_scan"}, "is_disabled": 0, "fusion_lat": 0.0, "name": "24e8de820a06a53604db5b5c11e5ba08", "fusion_lon": 0.0}, {"is_reserved": 0, "type": "electric_bike", "bike_id": "5d9e4d2582f0bd11adf37c34cff7409a", "lat": 38.89565, "lon": -77.1273125, "rental_uris": {"android": "https://dc.lft.to/lastmile_qr_scan", "ios": "https://dc.lft.to/lastmile_qr_scan"}, "is_disabled": 0, "fusion_lat": 0.0, "name": "5d9e4d2582f0bd11adf37c34cff7409a", "fusion_lon": 0.0}, {"is_reserved": 0, "type": "electric_scooter", "bike_id": "e919f54762bbc62b9f86293c1da9a008", "lat": 38.93000883333333, "lon": -77.02298333333333, "rental_uris": {"android": "https://dc.lft.to/lastmile_qr_scan", "ios": "https://dc.lft.to/lastmile_qr_scan"}, "is_disabled": 0, "fusion_lat": 0.0, "name": "e919f54762bbc62b9f86293c1da9a008", "fusion_lon": 0.0}, {"is_reserved": 0, "type": "electric_scooter", "bike_id": "2b5a1a7b69d1b7863c2aa5ba5ad2b111", "lat": 38.94031, "lon": -77.02645783333334, "rental_uris": {"android": "https://dc.lft.to/lastmile_qr_scan", "ios": "https://dc.lft.to/lastmile_qr_scan"}, "is_disabled": 0, "fusion_lat": 0.0, "name": "2b5a1a7b69d1b7863c2aa5ba5ad2b111", "fusion_lon": 0.0}, {"is_reserved": 0, "type": "electric_scooter", "bike_id": "e7398c9b374cf1680edb47dec3c662aa", "lat": 38.911795166666664, "lon": -77.02830333333333, "rental_uris": {"android": "https://dc.lft.to/lastmile_qr_scan", "ios": "https://dc.lft.to/lastmile_qr_scan"}, "is_disabled": 0, "fusion_lat": 0.0, "name": "e7398c9b374cf1680edb47dec3c662aa", "fusion_lon": 0.0}, {"is_reserved": 0, "type": "electric_scooter", "bike_id": "b83fcb775b87ab0815336b419771bf07", "lat": 38.91928166666667, "lon": -77.0342665, "rental_uris": {"android": "https://dc.lft.to/lastmile_qr_scan", "ios": "https://dc.lft.to/lastmile_qr_scan"}, "is_disabled": 0, "fusion_lat": 0.0, "name": "b83fcb775b87ab0815336b419771bf07", "fusion_lon": 0.0}, {"is_reserved": 0, "type": "electric_scooter", "bike_id": "37968d1bf69d9e2c7ad74d97840f8f04", "lat": 38.914964, "lon": -77.0199705, "rental_uris": {"android": "https://dc.lft.to/lastmile_qr_scan", "ios": "https://dc.lft.to/lastmile_qr_scan"}, "is_disabled": 0, "fusion_lat": 0.0, "name": "37968d1bf69d9e2c7ad74d97840f8f04", "fusion_lon": 0.0}, {"is_reserved": 0, "type": "electric_bike", "bike_id": "641ee094d6e2852e655b9967fc835101", "lat": 38.9287035, "lon": -77.03809466666667, "rental_uris": {"android": "https://dc.lft.to/lastmile_qr_scan", "ios": "https://dc.lft.to/lastmile_qr_scan"}, "is_disabled": 0, "fusion_lat": 0.0, "name": "641ee094d6e2852e655b9967fc835101", "fusion_lon": 0.0}, {"is_reserved": 0, "type": "electric_scooter", "bike_id": "da8979ff5c9720c32a288b7269304050", "lat": 38.91685, "lon": -77.03203966666666, "rental_uris": {"android": "https://dc.lft.to/lastmile_qr_scan", "ios": "https://dc.lft.to/lastmile_qr_scan"}, "is_disabled": 0, "fusion_lat": 0.0, "name": "da8979ff5c9720c32a288b7269304050", "fusion_lon": 0.0}, {"is_reserved": 0, "type": "electric_scooter", "bike_id": "305e160d393d97076683a19b0ae698d4", "lat": 38.923777666666666, "lon": -77.0805685, "rental_uris": {"android": "https://dc.lft.to/lastmile_qr_scan", "ios": "https://dc.lft.to/lastmile_qr_scan"}, "is_disabled": 0, "fusion_lat": 0.0, "name": "305e160d393d97076683a19b0ae698d4", "fusion_lon": 0.0}, {"is_reserved": 0, "type": "electric_scooter", "bike_id": "fd77d4aa402fc1f121cdcc1f4d1e8f9e", "lat": 38.93638416666667, "lon": -77.06012633333333, "rental_uris": {"android": "https://dc.lft.to/lastmile_qr_scan", "ios": "https://dc.lft.to/lastmile_qr_scan"}, "is_disabled": 0, "fusion_lat": 0.0, "name": "fd77d4aa402fc1f121cdcc1f4d1e8f9e", "fusion_lon": 0.0}, {"is_reserved": 0, "type": "electric_scooter", "bike_id": "0cfc11604ef5244d6039137390ef237f", "lat": 38.89711533333333, "lon": -76.99122066666666, "rental_uris": {"android": "https://dc.lft.to/lastmile_qr_scan", "ios": "https://dc.lft.to/lastmile_qr_scan"}, "is_disabled": 0, "fusion_lat": 0.0, "name": "0cfc11604ef5244d6039137390ef237f", "fusion_lon": 0.0}, {"is_reserved": 0, "type": "electric_scooter", "bike_id": "4f4fea1ea060ec964ec19a1aa9cdde67", "lat": 38.924886666666666, "lon": -77.02817083333333, "rental_uris": {"android": "https://dc.lft.to/lastmile_qr_scan", "ios": "https://dc.lft.to/lastmile_qr_scan"}, "is_disabled": 0, "fusion_lat": 0.0, "name": "4f4fea1ea060ec964ec19a1aa9cdde67", "fusion_lon": 0.0}, {"is_reserved": 0, "type": "electric_scooter", "bike_id": "b73bd7893974804879e208c491fe283c", "lat": 38.917072166666664, "lon": -77.01072633333334, "rental_uris": {"android": "https://dc.lft.to/lastmile_qr_scan", "ios": "https://dc.lft.to/lastmile_qr_scan"}, "is_disabled": 0, "fusion_lat": 0.0, "name": "b73bd7893974804879e208c491fe283c", "fusion_lon": 0.0}, {"is_reserved": 0, "type": "electric_scooter", "bike_id": "70c5055ce1aca8456c77285256f42244", "lat": 38.86451066666667, "lon": -76.99122366666667, "rental_uris": {"android": "https://dc.lft.to/lastmile_qr_scan", "ios": "https://dc.lft.to/lastmile_qr_scan"}, "is_disabled": 0, "fusion_lat": 0.0, "name": "70c5055ce1aca8456c77285256f42244", "fusion_lon": 0.0}, {"is_reserved": 0, "type": "electric_scooter", "bike_id": "f5f97120bf0f786ee52cedce904f767c", "lat": 38.91714566666667, "lon": -77.038614, "rental_uris": {"android": "https://dc.lft.to/lastmile_qr_scan", "ios": "https://dc.lft.to/lastmile_qr_scan"}, "is_disabled": 0, "fusion_lat": 0.0, "name": "f5f97120bf0f786ee52cedce904f767c", "fusion_lon": 0.0}, {"is_reserved": 0, "type": "electric_scooter", "bike_id": "abb380ac7c4b0cd0cf4188a18de0c99c", "lat": 38.924721, "lon": -77.0299585, "rental_uris": {"android": "https://dc.lft.to/lastmile_qr_scan", "ios": "https://dc.lft.to/lastmile_qr_scan"}, "is_disabled": 0, "fusion_lat": 0.0, "name": "abb380ac7c4b0cd0cf4188a18de0c99c", "fusion_lon": 0.0}, {"is_reserved": 0, "type": "electric_scooter", "bike_id": "86952f58baa245ad93fd1b76a8c2b856", "lat": 38.914234666666665, "lon": -77.01805866666666, "rental_uris": {"android": "https://dc.lft.to/lastmile_qr_scan", "ios": "https://dc.lft.to/lastmile_qr_scan"}, "is_disabled": 0, "fusion_lat": 0.0, "name": "86952f58baa245ad93fd1b76a8c2b856", "fusion_lon": 0.0}, {"is_reserved": 0, "type": "electric_bike", "bike_id": "a4c00083026b505d0ac4c2ee56076661", "lat": 39.09444933333333, "lon": -77.13457333333334, "rental_uris": {"android": "https://dc.lft.to/lastmile_qr_scan", "ios": "https://dc.lft.to/lastmile_qr_scan"}, "is_disabled": 0, "fusion_lat": 0.0, "name": "a4c00083026b505d0ac4c2ee56076661", "fusion_lon": 0.0}, {"is_reserved": 0, "type": "electric_scooter", "bike_id": "2b5588cf4376aa3f833577290e08a4d7", "lat": 38.930190333333336, "lon": -77.03806133333333, "rental_uris": {"android": "https://dc.lft.to/lastmile_qr_scan", "ios": "https://dc.lft.to/lastmile_qr_scan"}, "is_disabled": 0, "fusion_lat": 0.0, "name": "2b5588cf4376aa3f833577290e08a4d7", "fusion_lon": 0.0}, {"is_reserved": 0, "type": "electric_scooter", "bike_id": "7e88ad259e6bb96ab45f73006a576836", "lat": 38.90592266666667, "lon": -76.95054283333333, "rental_uris": {"android": "https://dc.lft.to/lastmile_qr_scan", "ios": "https://dc.lft.to/lastmile_qr_scan"}, "is_disabled": 0, "fusion_lat": 0.0, "name": "7e88ad259e6bb96ab45f73006a576836", "fusion_lon": 0.0}, {"is_reserved": 0, "type": "electric_scooter", "bike_id": "dcdb3643703f9609b5fdc60db4c9eb69", "lat": 38.90641433333333, "lon": -77.01140533333333, "rental_uris": {"android": "https://dc.lft.to/lastmile_qr_scan", "ios": "https://dc.lft.to/lastmile_qr_scan"}, "is_disabled": 0, "fusion_lat": 0.0, "name": "dcdb3643703f9609b5fdc60db4c9eb69", "fusion_lon": 0.0}, {"is_reserved": 0, "type": "electric_scooter", "bike_id": "68bc14b00c4963fca251f315d3f6fcc3", "lat": 38.9443875, "lon": -77.06351033333334, "rental_uris": {"android": "https://dc.lft.to/lastmile_qr_scan", "ios": "https://dc.lft.to/lastmile_qr_scan"}, "is_disabled": 0, "fusion_lat": 0.0, "name": "68bc14b00c4963fca251f315d3f6fcc3", "fusion_lon": 0.0}, {"is_reserved": 0, "type": "electric_scooter", "bike_id": "7a7ba8a3d0abb2125fdf413fa7531ef4", "lat": 38.914176499999996, "lon": -77.02608866666667, "rental_uris": {"android": "https://dc.lft.to/lastmile_qr_scan", "ios": "https://dc.lft.to/lastmile_qr_scan"}, "is_disabled": 0, "fusion_lat": 0.0, "name": "7a7ba8a3d0abb2125fdf413fa7531ef4", "fusion_lon": 0.0}, {"is_reserved": 0, "type": "electric_bike", "bike_id": "b590a85dfcdeb1de0db47dac18754e58", "lat": 38.894577, "lon": -77.19133683333334, "rental_uris": {"android": "https://dc.lft.to/lastmile_qr_scan", "ios": "https://dc.lft.to/lastmile_qr_scan"}, "is_disabled": 0, "fusion_lat": 0.0, "name": "b590a85dfcdeb1de0db47dac18754e58", "fusion_lon": 0.0}, {"is_reserved": 0, "type": "electric_scooter", "bike_id": "0f86c97eb8591433720884090d8cc8f5", "lat": 38.932340333333336, "lon": -77.02961833333333, "rental_uris": {"android": "https://dc.lft.to/lastmile_qr_scan", "ios": "https://dc.lft.to/lastmile_qr_scan"}, "is_disabled": 0, "fusion_lat": 0.0, "name": "0f86c97eb8591433720884090d8cc8f5", "fusion_lon": 0.0}, {"is_reserved": 0, "type": "electric_scooter", "bike_id": "9f254f5a8d1daea458de3b6a17a183b7", "lat": 38.904294666666665, "lon": -77.04360083333333, "rental_uris": {"android": "https://dc.lft.to/lastmile_qr_scan", "ios": "https://dc.lft.to/lastmile_qr_scan"}, "is_disabled": 0, "fusion_lat": 0.0, "name": "9f254f5a8d1daea458de3b6a17a183b7", "fusion_lon": 0.0}, {"is_reserved": 0, "type": "electric_scooter", "bike_id": "d52c67a3cc3cf63f7a92c3bd243f4484", "lat": 38.88373383333333, "lon": -76.93038316666667, "rental_uris": {"android": "https://dc.lft.to/lastmile_qr_scan", "ios": "https://dc.lft.to/lastmile_qr_scan"}, "is_disabled": 0, "fusion_lat": 0.0, "name": "d52c67a3cc3cf63f7a92c3bd243f4484", "fusion_lon": 0.0}, {"is_reserved": 0, "type": "electric_scooter", "bike_id": "0c38f50a6edbac9274e8569100faa844", "lat": 38.92323583333334, "lon": -77.036756, "rental_uris": {"android": "https://dc.lft.to/lastmile_qr_scan", "ios": "https://dc.lft.to/lastmile_qr_scan"}, "is_disabled": 0, "fusion_lat": 0.0, "name": "0c38f50a6edbac9274e8569100faa844", "fusion_lon": 0.0}, {"is_reserved": 0, "type": "electric_scooter", "bike_id": "aa4a67917ad5fc08f52c004c9786d333", "lat": 38.90220216666667, "lon": -77.01744866666667, "rental_uris": {"android": "https://dc.lft.to/lastmile_qr_scan", "ios": "https://dc.lft.to/lastmile_qr_scan"}, "is_disabled": 0, "fusion_lat": 0.0, "name": "aa4a67917ad5fc08f52c004c9786d333", "fusion_lon": 0.0}, {"is_reserved": 0, "type": "electric_scooter", "bike_id": "1484469ecc801055a122c6c7e5d4c3f8", "lat": 38.8728905, "lon": -77.00984033333333, "rental_uris": {"android": "https://dc.lft.to/lastmile_qr_scan", "ios": "https://dc.lft.to/lastmile_qr_scan"}, "is_disabled": 0, "fusion_lat": 0.0, "name": "1484469ecc801055a122c6c7e5d4c3f8", "fusion_lon": 0.0}, {"is_reserved": 0, "type": "electric_scooter", "bike_id": "b52793925b019373bcd48802d5e3f59b", "lat": 38.904439833333335, "lon": -77.06268966666667, "rental_uris": {"android": "https://dc.lft.to/lastmile_qr_scan", "ios": "https://dc.lft.to/lastmile_qr_scan"}, "is_disabled": 0, "fusion_lat": 0.0, "name": "b52793925b019373bcd48802d5e3f59b", "fusion_lon": 0.0}, {"is_reserved": 0, "type": "electric_scooter", "bike_id": "1b2f7250968fd068b4b8fb77aff3f3ce", "lat": 38.904213166666665, "lon": -77.01834316666667, "rental_uris": {"android": "https://dc.lft.to/lastmile_qr_scan", "ios": "https://dc.lft.to/lastmile_qr_scan"}, "is_disabled": 0, "fusion_lat": 0.0, "name": "1b2f7250968fd068b4b8fb77aff3f3ce", "fusion_lon": 0.0}, {"is_reserved": 0, "type": "electric_scooter", "bike_id": "c5667e0827e15a1e4b719122ea8a60da", "lat": 38.927936333333335, "lon": -77.03086233333333, "rental_uris": {"android": "https://dc.lft.to/lastmile_qr_scan", "ios": "https://dc.lft.to/lastmile_qr_scan"}, "is_disabled": 0, "fusion_lat": 0.0, "name": "c5667e0827e15a1e4b719122ea8a60da", "fusion_lon": 0.0}, {"is_reserved": 0, "type": "electric_scooter", "bike_id": "bd71499a965e48bb288e381d5331165c", "lat": 38.892291666666665, "lon": -77.05000416666667, "rental_uris": {"android": "https://dc.lft.to/lastmile_qr_scan", "ios": "https://dc.lft.to/lastmile_qr_scan"}, "is_disabled": 0, "fusion_lat": 0.0, "name": "bd71499a965e48bb288e381d5331165c", "fusion_lon": 0.0}, {"is_reserved": 0, "type": "electric_scooter", "bike_id": "5402d32c8ae53fb8b2b4e3da021753ad", "lat": 38.920546333333334, "lon": -77.02507466666667, "rental_uris": {"android": "https://dc.lft.to/lastmile_qr_scan", "ios": "https://dc.lft.to/lastmile_qr_scan"}, "is_disabled": 0, "fusion_lat": 0.0, "name": "5402d32c8ae53fb8b2b4e3da021753ad", "fusion_lon": 0.0}, {"is_reserved": 0, "type": "electric_scooter", "bike_id": "51bf6ac028485c49f47e2308656854dd", "lat": 38.9118275, "lon": -77.00256583333334, "rental_uris": {"android": "https://dc.lft.to/lastmile_qr_scan", "ios": "https://dc.lft.to/lastmile_qr_scan"}, "is_disabled": 0, "fusion_lat": 0.0, "name": "51bf6ac028485c49f47e2308656854dd", "fusion_lon": 0.0}, {"is_reserved": 0, "type": "electric_scooter", "bike_id": "1b009a4366503533a1561b0e2f37fe96", "lat": 38.92553066666667, "lon": -76.98152133333333, "rental_uris": {"android": "https://dc.lft.to/lastmile_qr_scan", "ios": "https://dc.lft.to/lastmile_qr_scan"}, "is_disabled": 0, "fusion_lat": 0.0, "name": "1b009a4366503533a1561b0e2f37fe96", "fusion_lon": 0.0}, {"is_reserved": 0, "type": "electric_scooter", "bike_id": "e46c0b26c8604a19e2a0e2899bd30fab", "lat": 38.9432735, "lon": -77.06526, "rental_uris": {"android": "https://dc.lft.to/lastmile_qr_scan", "ios": "https://dc.lft.to/lastmile_qr_scan"}, "is_disabled": 0, "fusion_lat": 0.0, "name": "e46c0b26c8604a19e2a0e2899bd30fab", "fusion_lon": 0.0}, {"is_reserved": 0, "type": "electric_scooter", "bike_id": "c00643b377fb3e1563a870322a0183ee", "lat": 38.933763666666664, "lon": -77.02028066666666, "rental_uris": {"android": "https://dc.lft.to/lastmile_qr_scan", "ios": "https://dc.lft.to/lastmile_qr_scan"}, "is_disabled": 0, "fusion_lat": 0.0, "name": "c00643b377fb3e1563a870322a0183ee", "fusion_lon": 0.0}, {"is_reserved": 0, "type": "electric_scooter", "bike_id": "da7f3162fe383f7dbf1d1bb05aa5bd26", "lat": 38.916322666666666, "lon": -77.046246, "rental_uris": {"android": "https://dc.lft.to/lastmile_qr_scan", "ios": "https://dc.lft.to/lastmile_qr_scan"}, "is_disabled": 0, "fusion_lat": 0.0, "name": "da7f3162fe383f7dbf1d1bb05aa5bd26", "fusion_lon": 0.0}, {"is_reserved": 0, "type": "electric_scooter", "bike_id": "7ba0b17ef2f4c04849d446dd864112f6", "lat": 38.925063333333334, "lon": -77.02450716666667, "rental_uris": {"android": "https://dc.lft.to/lastmile_qr_scan", "ios": "https://dc.lft.to/lastmile_qr_scan"}, "is_disabled": 0, "fusion_lat": 0.0, "name": "7ba0b17ef2f4c04849d446dd864112f6", "fusion_lon": 0.0}, {"is_reserved": 0, "type": "electric_scooter", "bike_id": "0b3cef87066d87614b37472cdeaeeb43", "lat": 38.905719, "lon": -77.00609933333334, "rental_uris": {"android": "https://dc.lft.to/lastmile_qr_scan", "ios": "https://dc.lft.to/lastmile_qr_scan"}, "is_disabled": 0, "fusion_lat": 0.0, "name": "0b3cef87066d87614b37472cdeaeeb43", "fusion_lon": 0.0}, {"is_reserved": 0, "type": "electric_scooter", "bike_id": "eb6e8669c71ee886812e4b6a7ef0c360", "lat": 38.9090605, "lon": -77.00301666666667, "rental_uris": {"android": "https://dc.lft.to/lastmile_qr_scan", "ios": "https://dc.lft.to/lastmile_qr_scan"}, "is_disabled": 0, "fusion_lat": 0.0, "name": "eb6e8669c71ee886812e4b6a7ef0c360", "fusion_lon": 0.0}, {"is_reserved": 0, "type": "electric_scooter", "bike_id": "ecb629af99d632920eb390f32de69550", "lat": 38.900595333333335, "lon": -77.05433816666667, "rental_uris": {"android": "https://dc.lft.to/lastmile_qr_scan", "ios": "https://dc.lft.to/lastmile_qr_scan"}, "is_disabled": 0, "fusion_lat": 0.0, "name": "ecb629af99d632920eb390f32de69550", "fusion_lon": 0.0}, {"is_reserved": 0, "type": "electric_scooter", "bike_id": "dbef6a1251f879f3aafe21f8d83299c0", "lat": 38.894885, "lon": -77.00213416666666, "rental_uris": {"android": "https://dc.lft.to/lastmile_qr_scan", "ios": "https://dc.lft.to/lastmile_qr_scan"}, "is_disabled": 0, "fusion_lat": 0.0, "name": "dbef6a1251f879f3aafe21f8d83299c0", "fusion_lon": 0.0}, {"is_reserved": 0, "type": "electric_scooter", "bike_id": "4041f3360ccc15089ebe705dbf78a30d", "lat": 38.92452866666667, "lon": -77.04027033333334, "rental_uris": {"android": "https://dc.lft.to/lastmile_qr_scan", "ios": "https://dc.lft.to/lastmile_qr_scan"}, "is_disabled": 0, "fusion_lat": 0.0, "name": "4041f3360ccc15089ebe705dbf78a30d", "fusion_lon": 0.0}, {"is_reserved": 0, "type": "electric_scooter", "bike_id": "f85c0d6b935d4105d80cc1447c08ca1e", "lat": 38.92407866666667, "lon": -77.02316566666667, "rental_uris": {"android": "https://dc.lft.to/lastmile_qr_scan", "ios": "https://dc.lft.to/lastmile_qr_scan"}, "is_disabled": 0, "fusion_lat": 0.0, "name": "f85c0d6b935d4105d80cc1447c08ca1e", "fusion_lon": 0.0}, {"is_reserved": 0, "type": "electric_scooter", "bike_id": "ca69266ea71d09e036f677e65fe5bb76", "lat": 38.912702833333334, "lon": -77.02615216666666, "rental_uris": {"android": "https://dc.lft.to/lastmile_qr_scan", "ios": "https://dc.lft.to/lastmile_qr_scan"}, "is_disabled": 0, "fusion_lat": 0.0, "name": "ca69266ea71d09e036f677e65fe5bb76", "fusion_lon": 0.0}, {"is_reserved": 0, "type": "electric_scooter", "bike_id": "a393755db3856dfe14b694fc3ad297c4", "lat": 38.898294666666665, "lon": -77.00750416666666, "rental_uris": {"android": "https://dc.lft.to/lastmile_qr_scan", "ios": "https://dc.lft.to/lastmile_qr_scan"}, "is_disabled": 0, "fusion_lat": 0.0, "name": "a393755db3856dfe14b694fc3ad297c4", "fusion_lon": 0.0}, {"is_reserved": 0, "type": "electric_scooter", "bike_id": "308d04f8cd6b1f6e13a95f49651476e2", "lat": 38.913446666666665, "lon": -77.03207716666667, "rental_uris": {"android": "https://dc.lft.to/lastmile_qr_scan", "ios": "https://dc.lft.to/lastmile_qr_scan"}, "is_disabled": 0, "fusion_lat": 0.0, "name": "308d04f8cd6b1f6e13a95f49651476e2", "fusion_lon": 0.0}, {"is_reserved": 0, "type": "electric_scooter", "bike_id": "b5551c929561e3f29c4b13b421b3afa8", "lat": 38.88769833333333, "lon": -76.93268816666667, "rental_uris": {"android": "https://dc.lft.to/lastmile_qr_scan", "ios": "https://dc.lft.to/lastmile_qr_scan"}, "is_disabled": 0, "fusion_lat": 0.0, "name": "b5551c929561e3f29c4b13b421b3afa8", "fusion_lon": 0.0}, {"is_reserved": 0, "type": "electric_scooter", "bike_id": "29645492ee70e08e4e5195ee6ebe7ff4", "lat": 38.9167235, "lon": -77.023961, "rental_uris": {"android": "https://dc.lft.to/lastmile_qr_scan", "ios": "https://dc.lft.to/lastmile_qr_scan"}, "is_disabled": 0, "fusion_lat": 0.0, "name": "29645492ee70e08e4e5195ee6ebe7ff4", "fusion_lon": 0.0}, {"is_reserved": 0, "type": "electric_scooter", "bike_id": "ebedca1d4e6bc103b4c27bd090774925", "lat": 38.91105966666667, "lon": -77.04283683333334, "rental_uris": {"android": "https://dc.lft.to/lastmile_qr_scan", "ios": "https://dc.lft.to/lastmile_qr_scan"}, "is_disabled": 0, "fusion_lat": 0.0, "name": "ebedca1d4e6bc103b4c27bd090774925", "fusion_lon": 0.0}, {"is_reserved": 0, "type": "electric_scooter", "bike_id": "abdc1889ada6d17c09170bf370d9883b", "lat": 38.89227316666667, "lon": -77.04336683333334, "rental_uris": {"android": "https://dc.lft.to/lastmile_qr_scan", "ios": "https://dc.lft.to/lastmile_qr_scan"}, "is_disabled": 0, "fusion_lat": 0.0, "name": "abdc1889ada6d17c09170bf370d9883b", "fusion_lon": 0.0}, {"is_reserved": 0, "type": "electric_scooter", "bike_id": "8fbf1e2c9909c6ff246797ae0467ce5a", "lat": 38.904680666666664, "lon": -77.006346, "rental_uris": {"android": "https://dc.lft.to/lastmile_qr_scan", "ios": "https://dc.lft.to/lastmile_qr_scan"}, "is_disabled": 0, "fusion_lat": 0.0, "name": "8fbf1e2c9909c6ff246797ae0467ce5a", "fusion_lon": 0.0}, {"is_reserved": 0, "type": "electric_scooter", "bike_id": "1c9930a6fd6ecfddf80872c065a446a2", "lat": 38.926054666666666, "lon": -77.024208, "rental_uris": {"android": "https://dc.lft.to/lastmile_qr_scan", "ios": "https://dc.lft.to/lastmile_qr_scan"}, "is_disabled": 0, "fusion_lat": 0.0, "name": "1c9930a6fd6ecfddf80872c065a446a2", "fusion_lon": 0.0}, {"is_reserved": 0, "type": "electric_scooter", "bike_id": "91b367f3eec85845d51f45ee3350c9a8", "lat": 38.91681633333334, "lon": -77.023904, "rental_uris": {"android": "https://dc.lft.to/lastmile_qr_scan", "ios": "https://dc.lft.to/lastmile_qr_scan"}, "is_disabled": 0, "fusion_lat": 0.0, "name": "91b367f3eec85845d51f45ee3350c9a8", "fusion_lon": 0.0}, {"is_reserved": 0, "type": "electric_scooter", "bike_id": "50b151137fdd39b48a0083dc04e6913a", "lat": 38.907720166666664, "lon": -77.04517983333334, "rental_uris": {"android": "https://dc.lft.to/lastmile_qr_scan", "ios": "https://dc.lft.to/lastmile_qr_scan"}, "is_disabled": 0, "fusion_lat": 0.0, "name": "50b151137fdd39b48a0083dc04e6913a", "fusion_lon": 0.0}, {"is_reserved": 0, "type": "electric_scooter", "bike_id": "8c82754a47a1661d50348cd1e6c12c22", "lat": 38.89811133333333, "lon": -77.02947633333333, "rental_uris": {"android": "https://dc.lft.to/lastmile_qr_scan", "ios": "https://dc.lft.to/lastmile_qr_scan"}, "is_disabled": 0, "fusion_lat": 0.0, "name": "8c82754a47a1661d50348cd1e6c12c22", "fusion_lon": 0.0}, {"is_reserved": 0, "type": "electric_scooter", "bike_id": "013ce35af8e86765759a2e1c2e2c03f2", "lat": 38.86091616666667, "lon": -76.981144, "rental_uris": {"android": "https://dc.lft.to/lastmile_qr_scan", "ios": "https://dc.lft.to/lastmile_qr_scan"}, "is_disabled": 0, "fusion_lat": 0.0, "name": "013ce35af8e86765759a2e1c2e2c03f2", "fusion_lon": 0.0}, {"is_reserved": 0, "type": "electric_scooter", "bike_id": "df469704e2cba4308f7fe204ad5355d4", "lat": 38.87666333333333, "lon": -77.00592566666667, "rental_uris": {"android": "https://dc.lft.to/lastmile_qr_scan", "ios": "https://dc.lft.to/lastmile_qr_scan"}, "is_disabled": 0, "fusion_lat": 0.0, "name": "df469704e2cba4308f7fe204ad5355d4", "fusion_lon": 0.0}, {"is_reserved": 0, "type": "electric_scooter", "bike_id": "66c5005568a546139439998d08745f4a", "lat": 38.880244833333336, "lon": -77.02483866666667, "rental_uris": {"android": "https://dc.lft.to/lastmile_qr_scan", "ios": "https://dc.lft.to/lastmile_qr_scan"}, "is_disabled": 0, "fusion_lat": 0.0, "name": "66c5005568a546139439998d08745f4a", "fusion_lon": 0.0}, {"is_reserved": 0, "type": "electric_scooter", "bike_id": "95316acf4fc020f5495a73229ac6d5bc", "lat": 38.91414783333333, "lon": -77.01879866666667, "rental_uris": {"android": "https://dc.lft.to/lastmile_qr_scan", "ios": "https://dc.lft.to/lastmile_qr_scan"}, "is_disabled": 0, "fusion_lat": 0.0, "name": "95316acf4fc020f5495a73229ac6d5bc", "fusion_lon": 0.0}, {"is_reserved": 0, "type": "electric_scooter", "bike_id": "633282c9050be3638ac50c67559b57bd", "lat": 38.951834833333336, "lon": -77.02936033333333, "rental_uris": {"android": "https://dc.lft.to/lastmile_qr_scan", "ios": "https://dc.lft.to/lastmile_qr_scan"}, "is_disabled": 0, "fusion_lat": 0.0, "name": "633282c9050be3638ac50c67559b57bd", "fusion_lon": 0.0}, {"is_reserved": 0, "type": "electric_scooter", "bike_id": "5845d2345b7c131416aaf6451be892df", "lat": 38.930192, "lon": -77.02341633333333, "rental_uris": {"android": "https://dc.lft.to/lastmile_qr_scan", "ios": "https://dc.lft.to/lastmile_qr_scan"}, "is_disabled": 0, "fusion_lat": 0.0, "name": "5845d2345b7c131416aaf6451be892df", "fusion_lon": 0.0}, {"is_reserved": 0, "type": "electric_scooter", "bike_id": "1761265b2afd4a1b92583562abf8db14", "lat": 38.911111, "lon": -77.01906166666667, "rental_uris": {"android": "https://dc.lft.to/lastmile_qr_scan", "ios": "https://dc.lft.to/lastmile_qr_scan"}, "is_disabled": 0, "fusion_lat": 0.0, "name": "1761265b2afd4a1b92583562abf8db14", "fusion_lon": 0.0}, {"is_reserved": 0, "type": "electric_scooter", "bike_id": "87d9145d3249c15507585f7320ff65d8", "lat": 38.89556283333334, "lon": -77.039528, "rental_uris": {"android": "https://dc.lft.to/lastmile_qr_scan", "ios": "https://dc.lft.to/lastmile_qr_scan"}, "is_disabled": 0, "fusion_lat": 0.0, "name": "87d9145d3249c15507585f7320ff65d8", "fusion_lon": 0.0}, {"is_reserved": 0, "type": "electric_scooter", "bike_id": "41538d59e4ec254ba6792daa7cade9eb", "lat": 38.911871166666664, "lon": -77.0239075, "rental_uris": {"android": "https://dc.lft.to/lastmile_qr_scan", "ios": "https://dc.lft.to/lastmile_qr_scan"}, "is_disabled": 0, "fusion_lat": 0.0, "name": "41538d59e4ec254ba6792daa7cade9eb", "fusion_lon": 0.0}, {"is_reserved": 0, "type": "electric_scooter", "bike_id": "b3c0c44ffd162fd850f31e6ded26b4e5", "lat": 38.925673833333335, "lon": -77.02284966666667, "rental_uris": {"android": "https://dc.lft.to/lastmile_qr_scan", "ios": "https://dc.lft.to/lastmile_qr_scan"}, "is_disabled": 0, "fusion_lat": 0.0, "name": "b3c0c44ffd162fd850f31e6ded26b4e5", "fusion_lon": 0.0}, {"is_reserved": 0, "type": "electric_bike", "bike_id": "a17277ada12222a2cb10f88f0f0208a0", "lat": 38.935972666666665, "lon": -77.02113783333333, "rental_uris": {"android": "https://dc.lft.to/lastmile_qr_scan", "ios": "https://dc.lft.to/lastmile_qr_scan"}, "is_disabled": 0, "fusion_lat": 0.0, "name": "a17277ada12222a2cb10f88f0f0208a0", "fusion_lon": 0.0}, {"is_reserved": 0, "type": "electric_scooter", "bike_id": "5c2b73fdf98540e4061285d51919c541", "lat": 38.93704266666667, "lon": -77.02400533333333, "rental_uris": {"android": "https://dc.lft.to/lastmile_qr_scan", "ios": "https://dc.lft.to/lastmile_qr_scan"}, "is_disabled": 0, "fusion_lat": 0.0, "name": "5c2b73fdf98540e4061285d51919c541", "fusion_lon": 0.0}, {"is_reserved": 0, "type": "electric_scooter", "bike_id": "0536cdc17375c938ae5174dd42447265", "lat": 38.929469, "lon": -77.0039935, "rental_uris": {"android": "https://dc.lft.to/lastmile_qr_scan", "ios": "https://dc.lft.to/lastmile_qr_scan"}, "is_disabled": 0, "fusion_lat": 0.0, "name": "0536cdc17375c938ae5174dd42447265", "fusion_lon": 0.0}, {"is_reserved": 0, "type": "electric_scooter", "bike_id": "7ce0db4e28124c1abab7c4cd4bbd623b", "lat": 38.90951883333334, "lon": -77.06437566666666, "rental_uris": {"android": "https://dc.lft.to/lastmile_qr_scan", "ios": "https://dc.lft.to/lastmile_qr_scan"}, "is_disabled": 0, "fusion_lat": 0.0, "name": "7ce0db4e28124c1abab7c4cd4bbd623b", "fusion_lon": 0.0}, {"is_reserved": 0, "type": "electric_scooter", "bike_id": "81568fe34e39df51bed5059a0b9ef955", "lat": 38.934217833333335, "lon": -77.03288166666667, "rental_uris": {"android": "https://dc.lft.to/lastmile_qr_scan", "ios": "https://dc.lft.to/lastmile_qr_scan"}, "is_disabled": 0, "fusion_lat": 0.0, "name": "81568fe34e39df51bed5059a0b9ef955", "fusion_lon": 0.0}, {"is_reserved": 0, "type": "electric_scooter", "bike_id": "350985d62a88303072070b82ca1bae64", "lat": 38.88409766666667, "lon": -77.03050216666666, "rental_uris": {"android": "https://dc.lft.to/lastmile_qr_scan", "ios": "https://dc.lft.to/lastmile_qr_scan"}, "is_disabled": 0, "fusion_lat": 0.0, "name": "350985d62a88303072070b82ca1bae64", "fusion_lon": 0.0}, {"is_reserved": 0, "type": "electric_scooter", "bike_id": "7d9d107cc82fbf062f3ee1c33b8fd577", "lat": 38.910330333333334, "lon": -77.009662, "rental_uris": {"android": "https://dc.lft.to/lastmile_qr_scan", "ios": "https://dc.lft.to/lastmile_qr_scan"}, "is_disabled": 0, "fusion_lat": 0.0, "name": "7d9d107cc82fbf062f3ee1c33b8fd577", "fusion_lon": 0.0}, {"is_reserved": 0, "type": "electric_scooter", "bike_id": "2f4e9779fb354b69867db806d8f26224", "lat": 38.89749466666667, "lon": -77.0336235, "rental_uris": {"android": "https://dc.lft.to/lastmile_qr_scan", "ios": "https://dc.lft.to/lastmile_qr_scan"}, "is_disabled": 0, "fusion_lat": 0.0, "name": "2f4e9779fb354b69867db806d8f26224", "fusion_lon": 0.0}, {"is_reserved": 0, "type": "electric_scooter", "bike_id": "8e9957ae28d4d315a1ec97a1a536e5b9", "lat": 38.95153783333333, "lon": -77.01871533333333, "rental_uris": {"android": "https://dc.lft.to/lastmile_qr_scan", "ios": "https://dc.lft.to/lastmile_qr_scan"}, "is_disabled": 0, "fusion_lat": 0.0, "name": "8e9957ae28d4d315a1ec97a1a536e5b9", "fusion_lon": 0.0}, {"is_reserved": 0, "type": "electric_scooter", "bike_id": "2a4976c801737e12e86ce1bb6df8e760", "lat": 38.928238666666665, "lon": -77.02262483333334, "rental_uris": {"android": "https://dc.lft.to/lastmile_qr_scan", "ios": "https://dc.lft.to/lastmile_qr_scan"}, "is_disabled": 0, "fusion_lat": 0.0, "name": "2a4976c801737e12e86ce1bb6df8e760", "fusion_lon": 0.0}, {"is_reserved": 0, "type": "electric_scooter", "bike_id": "89a45ef3e58aa8f0bfb363f46f032eca", "lat": 38.924531333333334, "lon": -77.02160933333333, "rental_uris": {"android": "https://dc.lft.to/lastmile_qr_scan", "ios": "https://dc.lft.to/lastmile_qr_scan"}, "is_disabled": 0, "fusion_lat": 0.0, "name": "89a45ef3e58aa8f0bfb363f46f032eca", "fusion_lon": 0.0}, {"is_reserved": 0, "type": "electric_bike", "bike_id": "e6683ddc2e009b0946f263b4f3d816da", "lat": 38.94541, "lon": -77.34452416666667, "rental_uris": {"android": "https://dc.lft.to/lastmile_qr_scan", "ios": "https://dc.lft.to/lastmile_qr_scan"}, "is_disabled": 0, "fusion_lat": 0.0, "name": "e6683ddc2e009b0946f263b4f3d816da", "fusion_lon": 0.0}, {"is_reserved": 0, "type": "electric_scooter", "bike_id": "f8d9685aea66c317e195a9df84f83347", "lat": 38.925468333333335, "lon": -77.03369083333334, "rental_uris": {"android": "https://dc.lft.to/lastmile_qr_scan", "ios": "https://dc.lft.to/lastmile_qr_scan"}, "is_disabled": 0, "fusion_lat": 0.0, "name": "f8d9685aea66c317e195a9df84f83347", "fusion_lon": 0.0}, {"is_reserved": 0, "type": "electric_scooter", "bike_id": "42dbbd2bcbab0a16bd02219998c04b6f", "lat": 38.861171166666665, "lon": -76.98387216666667, "rental_uris": {"android": "https://dc.lft.to/lastmile_qr_scan", "ios": "https://dc.lft.to/lastmile_qr_scan"}, "is_disabled": 0, "fusion_lat": 0.0, "name": "42dbbd2bcbab0a16bd02219998c04b6f", "fusion_lon": 0.0}, {"is_reserved": 0, "type": "electric_scooter", "bike_id": "20fd3ba5e5043ccaf8eb8efa75d054bb", "lat": 38.9111675, "lon": -77.04810033333334, "rental_uris": {"android": "https://dc.lft.to/lastmile_qr_scan", "ios": "https://dc.lft.to/lastmile_qr_scan"}, "is_disabled": 0, "fusion_lat": 0.0, "name": "20fd3ba5e5043ccaf8eb8efa75d054bb", "fusion_lon": 0.0}, {"is_reserved": 0, "type": "electric_scooter", "bike_id": "a21729e93dfb5e2eb51dbdd59afbd78a", "lat": 38.9242025, "lon": -77.022264, "rental_uris": {"android": "https://dc.lft.to/lastmile_qr_scan", "ios": "https://dc.lft.to/lastmile_qr_scan"}, "is_disabled": 0, "fusion_lat": 0.0, "name": "a21729e93dfb5e2eb51dbdd59afbd78a", "fusion_lon": 0.0}, {"is_reserved": 0, "type": "electric_scooter", "bike_id": "c2cb9a4e4ddf7abeef692f1a3ac6c3e5", "lat": 38.875454833333336, "lon": -77.00542333333334, "rental_uris": {"android": "https://dc.lft.to/lastmile_qr_scan", "ios": "https://dc.lft.to/lastmile_qr_scan"}, "is_disabled": 0, "fusion_lat": 0.0, "name": "c2cb9a4e4ddf7abeef692f1a3ac6c3e5", "fusion_lon": 0.0}, {"is_reserved": 0, "type": "electric_scooter", "bike_id": "4c93f44f828392404946b51a2894a347", "lat": 38.919594000000004, "lon": -77.02525166666666, "rental_uris": {"android": "https://dc.lft.to/lastmile_qr_scan", "ios": "https://dc.lft.to/lastmile_qr_scan"}, "is_disabled": 0, "fusion_lat": 0.0, "name": "4c93f44f828392404946b51a2894a347", "fusion_lon": 0.0}, {"is_reserved": 0, "type": "electric_scooter", "bike_id": "24bf4ee37386eb5b8672225d8a01f881", "lat": 38.886597333333334, "lon": -76.936784, "rental_uris": {"android": "https://dc.lft.to/lastmile_qr_scan", "ios": "https://dc.lft.to/lastmile_qr_scan"}, "is_disabled": 0, "fusion_lat": 0.0, "name": "24bf4ee37386eb5b8672225d8a01f881", "fusion_lon": 0.0}, {"is_reserved": 0, "type": "electric_scooter", "bike_id": "669b5b8801f2db929b3715b3c62fad24", "lat": 38.90536266666667, "lon": -77.04031916666666, "rental_uris": {"android": "https://dc.lft.to/lastmile_qr_scan", "ios": "https://dc.lft.to/lastmile_qr_scan"}, "is_disabled": 0, "fusion_lat": 0.0, "name": "669b5b8801f2db929b3715b3c62fad24", "fusion_lon": 0.0}, {"is_reserved": 0, "type": "electric_scooter", "bike_id": "c43f9b47f87ce57d3c30473d6250ce3a", "lat": 38.89249566666667, "lon": -77.0396005, "rental_uris": {"android": "https://dc.lft.to/lastmile_qr_scan", "ios": "https://dc.lft.to/lastmile_qr_scan"}, "is_disabled": 0, "fusion_lat": 0.0, "name": "c43f9b47f87ce57d3c30473d6250ce3a", "fusion_lon": 0.0}, {"is_reserved": 0, "type": "electric_bike", "bike_id": "91530b5d54fa940ed3a218f4b0a8988e", "lat": 39.084311, "lon": -76.95153083333334, "rental_uris": {"android": "https://dc.lft.to/lastmile_qr_scan", "ios": "https://dc.lft.to/lastmile_qr_scan"}, "is_disabled": 0, "fusion_lat": 0.0, "name": "91530b5d54fa940ed3a218f4b0a8988e", "fusion_lon": 0.0}, {"is_reserved": 0, "type": "electric_bike", "bike_id": "434be5a0f58798bae39ff68f026d5ddd", "lat": 38.83541966666667, "lon": -77.00754533333334, "rental_uris": {"android": "https://dc.lft.to/lastmile_qr_scan", "ios": "https://dc.lft.to/lastmile_qr_scan"}, "is_disabled": 0, "fusion_lat": 0.0, "name": "434be5a0f58798bae39ff68f026d5ddd", "fusion_lon": 0.0}, {"is_reserved": 0, "type": "electric_scooter", "bike_id": "0e12bd846af460fed61ce379900263f2", "lat": 38.89993783333333, "lon": -76.99010066666666, "rental_uris": {"android": "https://dc.lft.to/lastmile_qr_scan", "ios": "https://dc.lft.to/lastmile_qr_scan"}, "is_disabled": 0, "fusion_lat": 0.0, "name": "0e12bd846af460fed61ce379900263f2", "fusion_lon": 0.0}, {"is_reserved": 0, "type": "electric_scooter", "bike_id": "e9c8939c03b16be3509f0bdb2425df51", "lat": 38.928236166666665, "lon": -77.054436, "rental_uris": {"android": "https://dc.lft.to/lastmile_qr_scan", "ios": "https://dc.lft.to/lastmile_qr_scan"}, "is_disabled": 0, "fusion_lat": 0.0, "name": "e9c8939c03b16be3509f0bdb2425df51", "fusion_lon": 0.0}, {"is_reserved": 0, "type": "electric_scooter", "bike_id": "9e74b3b74099df7db6bdc19a4de52b24", "lat": 38.928258166666666, "lon": -77.05445216666666, "rental_uris": {"android": "https://dc.lft.to/lastmile_qr_scan", "ios": "https://dc.lft.to/lastmile_qr_scan"}, "is_disabled": 0, "fusion_lat": 0.0, "name": "9e74b3b74099df7db6bdc19a4de52b24", "fusion_lon": 0.0}, {"is_reserved": 0, "type": "electric_scooter", "bike_id": "07dc00c857ccbb1e024ff169c8e72d5c", "lat": 38.918328333333335, "lon": -77.014792, "rental_uris": {"android": "https://dc.lft.to/lastmile_qr_scan", "ios": "https://dc.lft.to/lastmile_qr_scan"}, "is_disabled": 0, "fusion_lat": 0.0, "name": "07dc00c857ccbb1e024ff169c8e72d5c", "fusion_lon": 0.0}, {"is_reserved": 0, "type": "electric_scooter", "bike_id": "d8259e894a700af900e8c2d7e798ec7a", "lat": 38.8993575, "lon": -76.97700233333333, "rental_uris": {"android": "https://dc.lft.to/lastmile_qr_scan", "ios": "https://dc.lft.to/lastmile_qr_scan"}, "is_disabled": 0, "fusion_lat": 0.0, "name": "d8259e894a700af900e8c2d7e798ec7a", "fusion_lon": 0.0}, {"is_reserved": 0, "type": "electric_scooter", "bike_id": "c5dfb90c50e7dd8c3bfb31bf73456d59", "lat": 38.924616666666665, "lon": -77.052293, "rental_uris": {"android": "https://dc.lft.to/lastmile_qr_scan", "ios": "https://dc.lft.to/lastmile_qr_scan"}, "is_disabled": 0, "fusion_lat": 0.0, "name": "c5dfb90c50e7dd8c3bfb31bf73456d59", "fusion_lon": 0.0}, {"is_reserved": 0, "type": "electric_scooter", "bike_id": "c3d265c329addb271461d252b49e3ec4", "lat": 38.8637665, "lon": -76.9906885, "rental_uris": {"android": "https://dc.lft.to/lastmile_qr_scan", "ios": "https://dc.lft.to/lastmile_qr_scan"}, "is_disabled": 0, "fusion_lat": 0.0, "name": "c3d265c329addb271461d252b49e3ec4", "fusion_lon": 0.0}, {"is_reserved": 0, "type": "electric_scooter", "bike_id": "8ce5dd17b302f05b253a3b080759a3cd", "lat": 38.89223716666667, "lon": -77.0436155, "rental_uris": {"android": "https://dc.lft.to/lastmile_qr_scan", "ios": "https://dc.lft.to/lastmile_qr_scan"}, "is_disabled": 0, "fusion_lat": 0.0, "name": "8ce5dd17b302f05b253a3b080759a3cd", "fusion_lon": 0.0}, {"is_reserved": 0, "type": "electric_scooter", "bike_id": "1fc624b441dfdc2c73a585c35fb16a54", "lat": 38.9362285, "lon": -77.02481216666666, "rental_uris": {"android": "https://dc.lft.to/lastmile_qr_scan", "ios": "https://dc.lft.to/lastmile_qr_scan"}, "is_disabled": 0, "fusion_lat": 0.0, "name": "1fc624b441dfdc2c73a585c35fb16a54", "fusion_lon": 0.0}, {"is_reserved": 0, "type": "electric_scooter", "bike_id": "bb4553277cd9911590cdadbac1e18f5f", "lat": 38.95376366666667, "lon": -77.00191533333333, "rental_uris": {"android": "https://dc.lft.to/lastmile_qr_scan", "ios": "https://dc.lft.to/lastmile_qr_scan"}, "is_disabled": 0, "fusion_lat": 0.0, "name": "bb4553277cd9911590cdadbac1e18f5f", "fusion_lon": 0.0}, {"is_reserved": 0, "type": "electric_scooter", "bike_id": "9ce96c1abbd6fabe676711c90f9a506f", "lat": 38.8993275, "lon": -77.04757033333334, "rental_uris": {"android": "https://dc.lft.to/lastmile_qr_scan", "ios": "https://dc.lft.to/lastmile_qr_scan"}, "is_disabled": 0, "fusion_lat": 0.0, "name": "9ce96c1abbd6fabe676711c90f9a506f", "fusion_lon": 0.0}, {"is_reserved": 0, "type": "electric_scooter", "bike_id": "f5919f4d312c4854145f0c5c9f09210c", "lat": 38.92746866666667, "lon": -77.033093, "rental_uris": {"android": "https://dc.lft.to/lastmile_qr_scan", "ios": "https://dc.lft.to/lastmile_qr_scan"}, "is_disabled": 0, "fusion_lat": 0.0, "name": "f5919f4d312c4854145f0c5c9f09210c", "fusion_lon": 0.0}, {"is_reserved": 0, "type": "electric_scooter", "bike_id": "7fe7e325dcb66622485a6d31c491cefb", "lat": 38.89458533333333, "lon": -77.018914, "rental_uris": {"android": "https://dc.lft.to/lastmile_qr_scan", "ios": "https://dc.lft.to/lastmile_qr_scan"}, "is_disabled": 0, "fusion_lat": 0.0, "name": "7fe7e325dcb66622485a6d31c491cefb", "fusion_lon": 0.0}, {"is_reserved": 0, "type": "electric_bike", "bike_id": "4d24020791628eb0446ec48c8c246195", "lat": 39.0002915, "lon": -77.04742233333333, "rental_uris": {"android": "https://dc.lft.to/lastmile_qr_scan", "ios": "https://dc.lft.to/lastmile_qr_scan"}, "is_disabled": 0, "fusion_lat": 0.0, "name": "4d24020791628eb0446ec48c8c246195", "fusion_lon": 0.0}, {"is_reserved": 0, "type": "electric_scooter", "bike_id": "a6efc983a7e780b7c63d5cf0970db5a6", "lat": 38.905777, "lon": -77.00584283333333, "rental_uris": {"android": "https://dc.lft.to/lastmile_qr_scan", "ios": "https://dc.lft.to/lastmile_qr_scan"}, "is_disabled": 0, "fusion_lat": 0.0, "name": "a6efc983a7e780b7c63d5cf0970db5a6", "fusion_lon": 0.0}, {"is_reserved": 0, "type": "electric_scooter", "bike_id": "561b6febab1a5563213ac470acb53720", "lat": 38.892511, "lon": -77.0395935, "rental_uris": {"android": "https://dc.lft.to/lastmile_qr_scan", "ios": "https://dc.lft.to/lastmile_qr_scan"}, "is_disabled": 0, "fusion_lat": 0.0, "name": "561b6febab1a5563213ac470acb53720", "fusion_lon": 0.0}, {"is_reserved": 0, "type": "electric_bike", "bike_id": "713c5b457c26cdc9ce18c820ddcd7a87", "lat": 38.8984685, "lon": -77.1186625, "rental_uris": {"android": "https://dc.lft.to/lastmile_qr_scan", "ios": "https://dc.lft.to/lastmile_qr_scan"}, "is_disabled": 0, "fusion_lat": 0.0, "name": "713c5b457c26cdc9ce18c820ddcd7a87", "fusion_lon": 0.0}, {"is_reserved": 0, "type": "electric_scooter", "bike_id": "764e77ae6a1a170e05d6a55db800b09a", "lat": 38.91404166666667, "lon": -77.04682316666667, "rental_uris": {"android": "https://dc.lft.to/lastmile_qr_scan", "ios": "https://dc.lft.to/lastmile_qr_scan"}, "is_disabled": 0, "fusion_lat": 0.0, "name": "764e77ae6a1a170e05d6a55db800b09a", "fusion_lon": 0.0}, {"is_reserved": 0, "type": "electric_scooter", "bike_id": "bbe7e1be998f72f50d0908edb6fd26dc", "lat": 38.9347005, "lon": -77.04164066666667, "rental_uris": {"android": "https://dc.lft.to/lastmile_qr_scan", "ios": "https://dc.lft.to/lastmile_qr_scan"}, "is_disabled": 0, "fusion_lat": 0.0, "name": "bbe7e1be998f72f50d0908edb6fd26dc", "fusion_lon": 0.0}, {"is_reserved": 0, "type": "electric_scooter", "bike_id": "e441eae6d80627ed127951fde5ad9d97", "lat": 38.958254833333335, "lon": -77.07651016666667, "rental_uris": {"android": "https://dc.lft.to/lastmile_qr_scan", "ios": "https://dc.lft.to/lastmile_qr_scan"}, "is_disabled": 0, "fusion_lat": 0.0, "name": "e441eae6d80627ed127951fde5ad9d97", "fusion_lon": 0.0}, {"is_reserved": 0, "type": "electric_scooter", "bike_id": "e3208139d9ee2ff81c5490e91ba40bc6", "lat": 38.892285333333334, "lon": -77.05001433333334, "rental_uris": {"android": "https://dc.lft.to/lastmile_qr_scan", "ios": "https://dc.lft.to/lastmile_qr_scan"}, "is_disabled": 0, "fusion_lat": 0.0, "name": "e3208139d9ee2ff81c5490e91ba40bc6", "fusion_lon": 0.0}, {"is_reserved": 0, "type": "electric_scooter", "bike_id": "4680b3917874fdff135efbbd95e30a92", "lat": 38.9147825, "lon": -77.002775, "rental_uris": {"android": "https://dc.lft.to/lastmile_qr_scan", "ios": "https://dc.lft.to/lastmile_qr_scan"}, "is_disabled": 0, "fusion_lat": 0.0, "name": "4680b3917874fdff135efbbd95e30a92", "fusion_lon": 0.0}, {"is_reserved": 0, "type": "electric_scooter", "bike_id": "9a4b233768991add61dd3b4616096c6c", "lat": 38.91530316666667, "lon": -77.0199835, "rental_uris": {"android": "https://dc.lft.to/lastmile_qr_scan", "ios": "https://dc.lft.to/lastmile_qr_scan"}, "is_disabled": 0, "fusion_lat": 0.0, "name": "9a4b233768991add61dd3b4616096c6c", "fusion_lon": 0.0}, {"is_reserved": 0, "type": "electric_scooter", "bike_id": "717ec87702a21d7be01d86af59a984f1", "lat": 38.92665233333334, "lon": -77.014559, "rental_uris": {"android": "https://dc.lft.to/lastmile_qr_scan", "ios": "https://dc.lft.to/lastmile_qr_scan"}, "is_disabled": 0, "fusion_lat": 0.0, "name": "717ec87702a21d7be01d86af59a984f1", "fusion_lon": 0.0}, {"is_reserved": 0, "type": "electric_scooter", "bike_id": "3ba9e9ccd505ea22be25d666998ead93", "lat": 38.92754716666666, "lon": -77.0211475, "rental_uris": {"android": "https://dc.lft.to/lastmile_qr_scan", "ios": "https://dc.lft.to/lastmile_qr_scan"}, "is_disabled": 0, "fusion_lat": 0.0, "name": "3ba9e9ccd505ea22be25d666998ead93", "fusion_lon": 0.0}, {"is_reserved": 0, "type": "electric_bike", "bike_id": "49365d7ce4905bad132f1f684c2006d7", "lat": 38.989116333333335, "lon": -77.0254005, "rental_uris": {"android": "https://dc.lft.to/lastmile_qr_scan", "ios": "https://dc.lft.to/lastmile_qr_scan"}, "is_disabled": 0, "fusion_lat": 0.0, "name": "49365d7ce4905bad132f1f684c2006d7", "fusion_lon": 0.0}, {"is_reserved": 0, "type": "electric_scooter", "bike_id": "e009d0fa3cd21d2fe1f46ab6556839f4", "lat": 38.928968, "lon": -77.0376015, "rental_uris": {"android": "https://dc.lft.to/lastmile_qr_scan", "ios": "https://dc.lft.to/lastmile_qr_scan"}, "is_disabled": 0, "fusion_lat": 0.0, "name": "e009d0fa3cd21d2fe1f46ab6556839f4", "fusion_lon": 0.0}, {"is_reserved": 0, "type": "electric_scooter", "bike_id": "f4022cfe250c667d28f9ffd4c4e18233", "lat": 38.92642166666667, "lon": -77.02502166666666, "rental_uris": {"android": "https://dc.lft.to/lastmile_qr_scan", "ios": "https://dc.lft.to/lastmile_qr_scan"}, "is_disabled": 0, "fusion_lat": 0.0, "name": "f4022cfe250c667d28f9ffd4c4e18233", "fusion_lon": 0.0}, {"is_reserved": 0, "type": "electric_scooter", "bike_id": "42a7ad46ddc729c1dc1ce883f611deb5", "lat": 38.89775183333333, "lon": -76.99268233333333, "rental_uris": {"android": "https://dc.lft.to/lastmile_qr_scan", "ios": "https://dc.lft.to/lastmile_qr_scan"}, "is_disabled": 0, "fusion_lat": 0.0, "name": "42a7ad46ddc729c1dc1ce883f611deb5", "fusion_lon": 0.0}, {"is_reserved": 0, "type": "electric_scooter", "bike_id": "366cbac4a6c95f0e4d44e1e4f0882057", "lat": 38.91383583333333, "lon": -77.046083, "rental_uris": {"android": "https://dc.lft.to/lastmile_qr_scan", "ios": "https://dc.lft.to/lastmile_qr_scan"}, "is_disabled": 0, "fusion_lat": 0.0, "name": "366cbac4a6c95f0e4d44e1e4f0882057", "fusion_lon": 0.0}, {"is_reserved": 0, "type": "electric_scooter", "bike_id": "6d4738bcfcca780fb197b2809dd7359c", "lat": 38.86269, "lon": -76.98192466666667, "rental_uris": {"android": "https://dc.lft.to/lastmile_qr_scan", "ios": "https://dc.lft.to/lastmile_qr_scan"}, "is_disabled": 0, "fusion_lat": 0.0, "name": "6d4738bcfcca780fb197b2809dd7359c", "fusion_lon": 0.0}, {"is_reserved": 0, "type": "electric_scooter", "bike_id": "d3398675c4f959ca03b927ff3ae440f1", "lat": 38.898855833333336, "lon": -76.93176083333333, "rental_uris": {"android": "https://dc.lft.to/lastmile_qr_scan", "ios": "https://dc.lft.to/lastmile_qr_scan"}, "is_disabled": 0, "fusion_lat": 0.0, "name": "d3398675c4f959ca03b927ff3ae440f1", "fusion_lon": 0.0}, {"is_reserved": 0, "type": "electric_scooter", "bike_id": "e5c22f584b961a25c977f6f5110af499", "lat": 38.92556233333333, "lon": -77.05320266666666, "rental_uris": {"android": "https://dc.lft.to/lastmile_qr_scan", "ios": "https://dc.lft.to/lastmile_qr_scan"}, "is_disabled": 0, "fusion_lat": 0.0, "name": "e5c22f584b961a25c977f6f5110af499", "fusion_lon": 0.0}, {"is_reserved": 0, "type": "electric_scooter", "bike_id": "0c3a478615b741368ba3d679e73fd332", "lat": 38.910431833333334, "lon": -77.00460333333334, "rental_uris": {"android": "https://dc.lft.to/lastmile_qr_scan", "ios": "https://dc.lft.to/lastmile_qr_scan"}, "is_disabled": 0, "fusion_lat": 0.0, "name": "0c3a478615b741368ba3d679e73fd332", "fusion_lon": 0.0}, {"is_reserved": 0, "type": "electric_scooter", "bike_id": "089ab825d3e22cf1084e83f3bd6d4ae3", "lat": 38.98990233333333, "lon": -77.03362033333333, "rental_uris": {"android": "https://dc.lft.to/lastmile_qr_scan", "ios": "https://dc.lft.to/lastmile_qr_scan"}, "is_disabled": 0, "fusion_lat": 0.0, "name": "089ab825d3e22cf1084e83f3bd6d4ae3", "fusion_lon": 0.0}, {"is_reserved": 0, "type": "electric_scooter", "bike_id": "b92241af0d004b90f7bbd363f49f5fe2", "lat": 38.90633733333333, "lon": -77.02495233333333, "rental_uris": {"android": "https://dc.lft.to/lastmile_qr_scan", "ios": "https://dc.lft.to/lastmile_qr_scan"}, "is_disabled": 0, "fusion_lat": 0.0, "name": "b92241af0d004b90f7bbd363f49f5fe2", "fusion_lon": 0.0}, {"is_reserved": 0, "type": "electric_bike", "bike_id": "bbf8f5f7c80291d952ceb395fea4b2d7", "lat": 38.9813585, "lon": -77.0076475, "rental_uris": {"android": "https://dc.lft.to/lastmile_qr_scan", "ios": "https://dc.lft.to/lastmile_qr_scan"}, "is_disabled": 0, "fusion_lat": 0.0, "name": "bbf8f5f7c80291d952ceb395fea4b2d7", "fusion_lon": 0.0}, {"is_reserved": 0, "type": "electric_scooter", "bike_id": "328cacf00bd83163734340b15a6d3f46", "lat": 38.88610166666667, "lon": -77.00348016666666, "rental_uris": {"android": "https://dc.lft.to/lastmile_qr_scan", "ios": "https://dc.lft.to/lastmile_qr_scan"}, "is_disabled": 0, "fusion_lat": 0.0, "name": "328cacf00bd83163734340b15a6d3f46", "fusion_lon": 0.0}, {"is_reserved": 0, "type": "electric_scooter", "bike_id": "f9b0644e45f036e09f0585021acc82e3", "lat": 38.8990985, "lon": -76.93365416666667, "rental_uris": {"android": "https://dc.lft.to/lastmile_qr_scan", "ios": "https://dc.lft.to/lastmile_qr_scan"}, "is_disabled": 0, "fusion_lat": 0.0, "name": "f9b0644e45f036e09f0585021acc82e3", "fusion_lon": 0.0}, {"is_reserved": 0, "type": "electric_scooter", "bike_id": "22e60ee449200fd8a8e9960d23aeaf29", "lat": 38.89882083333333, "lon": -76.988389, "rental_uris": {"android": "https://dc.lft.to/lastmile_qr_scan", "ios": "https://dc.lft.to/lastmile_qr_scan"}, "is_disabled": 0, "fusion_lat": 0.0, "name": "22e60ee449200fd8a8e9960d23aeaf29", "fusion_lon": 0.0}, {"is_reserved": 0, "type": "electric_scooter", "bike_id": "04412c7124fe6a55b1cd517fceb4ac0d", "lat": 38.9274145, "lon": -77.02250083333334, "rental_uris": {"android": "https://dc.lft.to/lastmile_qr_scan", "ios": "https://dc.lft.to/lastmile_qr_scan"}, "is_disabled": 0, "fusion_lat": 0.0, "name": "04412c7124fe6a55b1cd517fceb4ac0d", "fusion_lon": 0.0}, {"is_reserved": 0, "type": "electric_scooter", "bike_id": "95a183de60618686f45d04e4bbe666d9", "lat": 38.934951, "lon": -77.044557, "rental_uris": {"android": "https://dc.lft.to/lastmile_qr_scan", "ios": "https://dc.lft.to/lastmile_qr_scan"}, "is_disabled": 0, "fusion_lat": 0.0, "name": "95a183de60618686f45d04e4bbe666d9", "fusion_lon": 0.0}, {"is_reserved": 0, "type": "electric_scooter", "bike_id": "399a855ceaf0e251355fe08bd555cc5c", "lat": 38.883640666666665, "lon": -77.0259705, "rental_uris": {"android": "https://dc.lft.to/lastmile_qr_scan", "ios": "https://dc.lft.to/lastmile_qr_scan"}, "is_disabled": 0, "fusion_lat": 0.0, "name": "399a855ceaf0e251355fe08bd555cc5c", "fusion_lon": 0.0}, {"is_reserved": 0, "type": "electric_scooter", "bike_id": "aa5c3b4e4ec349aa2f7b9426d9466219", "lat": 38.90501483333333, "lon": -77.02951883333333, "rental_uris": {"android": "https://dc.lft.to/lastmile_qr_scan", "ios": "https://dc.lft.to/lastmile_qr_scan"}, "is_disabled": 0, "fusion_lat": 0.0, "name": "aa5c3b4e4ec349aa2f7b9426d9466219", "fusion_lon": 0.0}, {"is_reserved": 0, "type": "electric_scooter", "bike_id": "73be277337261529c52233fd2170da42", "lat": 38.87664266666667, "lon": -77.00748316666666, "rental_uris": {"android": "https://dc.lft.to/lastmile_qr_scan", "ios": "https://dc.lft.to/lastmile_qr_scan"}, "is_disabled": 0, "fusion_lat": 0.0, "name": "73be277337261529c52233fd2170da42", "fusion_lon": 0.0}, {"is_reserved": 0, "type": "electric_scooter", "bike_id": "0a17335464d4f85ac663d3e0277a1b08", "lat": 38.92719366666667, "lon": -77.03686983333333, "rental_uris": {"android": "https://dc.lft.to/lastmile_qr_scan", "ios": "https://dc.lft.to/lastmile_qr_scan"}, "is_disabled": 0, "fusion_lat": 0.0, "name": "0a17335464d4f85ac663d3e0277a1b08", "fusion_lon": 0.0}, {"is_reserved": 0, "type": "electric_scooter", "bike_id": "260cc70030d11b5d80a7282e09ac68b4", "lat": 38.899091166666665, "lon": -76.93364366666667, "rental_uris": {"android": "https://dc.lft.to/lastmile_qr_scan", "ios": "https://dc.lft.to/lastmile_qr_scan"}, "is_disabled": 0, "fusion_lat": 0.0, "name": "260cc70030d11b5d80a7282e09ac68b4", "fusion_lon": 0.0}, {"is_reserved": 0, "type": "electric_scooter", "bike_id": "a1153e4e644aef00d3f3e3b234d012a2", "lat": 38.90630566666667, "lon": -77.00881716666666, "rental_uris": {"android": "https://dc.lft.to/lastmile_qr_scan", "ios": "https://dc.lft.to/lastmile_qr_scan"}, "is_disabled": 0, "fusion_lat": 0.0, "name": "a1153e4e644aef00d3f3e3b234d012a2", "fusion_lon": 0.0}, {"is_reserved": 0, "type": "electric_scooter", "bike_id": "e6d20fe06046cf290e66c896b1448867", "lat": 38.85223583333333, "lon": -76.99428633333333, "rental_uris": {"android": "https://dc.lft.to/lastmile_qr_scan", "ios": "https://dc.lft.to/lastmile_qr_scan"}, "is_disabled": 0, "fusion_lat": 0.0, "name": "e6d20fe06046cf290e66c896b1448867", "fusion_lon": 0.0}, {"is_reserved": 0, "type": "electric_scooter", "bike_id": "4a3e6ec199d149ea6fb896f6a55a2690", "lat": 38.92135533333333, "lon": -77.04478983333334, "rental_uris": {"android": "https://dc.lft.to/lastmile_qr_scan", "ios": "https://dc.lft.to/lastmile_qr_scan"}, "is_disabled": 0, "fusion_lat": 0.0, "name": "4a3e6ec199d149ea6fb896f6a55a2690", "fusion_lon": 0.0}, {"is_reserved": 0, "type": "electric_scooter", "bike_id": "690d7b5933a432836b08fa1974704471", "lat": 38.93618466666667, "lon": -77.03221833333333, "rental_uris": {"android": "https://dc.lft.to/lastmile_qr_scan", "ios": "https://dc.lft.to/lastmile_qr_scan"}, "is_disabled": 0, "fusion_lat": 0.0, "name": "690d7b5933a432836b08fa1974704471", "fusion_lon": 0.0}, {"is_reserved": 0, "type": "electric_scooter", "bike_id": "40f68e2fac74e74ca9246ef76af5a2ce", "lat": 38.938902, "lon": -77.03268033333333, "rental_uris": {"android": "https://dc.lft.to/lastmile_qr_scan", "ios": "https://dc.lft.to/lastmile_qr_scan"}, "is_disabled": 0, "fusion_lat": 0.0, "name": "40f68e2fac74e74ca9246ef76af5a2ce", "fusion_lon": 0.0}, {"is_reserved": 0, "type": "electric_scooter", "bike_id": "ceac24c1eb4b4514fbb7ce9baca0aa25", "lat": 38.89237933333333, "lon": -77.04897766666667, "rental_uris": {"android": "https://dc.lft.to/lastmile_qr_scan", "ios": "https://dc.lft.to/lastmile_qr_scan"}, "is_disabled": 0, "fusion_lat": 0.0, "name": "ceac24c1eb4b4514fbb7ce9baca0aa25", "fusion_lon": 0.0}, {"is_reserved": 0, "type": "electric_scooter", "bike_id": "5519a9dd42a76c91aa5071c4496310c7", "lat": 38.873400333333336, "lon": -76.99170466666666, "rental_uris": {"android": "https://dc.lft.to/lastmile_qr_scan", "ios": "https://dc.lft.to/lastmile_qr_scan"}, "is_disabled": 0, "fusion_lat": 0.0, "name": "5519a9dd42a76c91aa5071c4496310c7", "fusion_lon": 0.0}, {"is_reserved": 0, "type": "electric_scooter", "bike_id": "c26b3c6ada8b2a532415d8370ca8e57c", "lat": 38.91885333333333, "lon": -77.03465083333333, "rental_uris": {"android": "https://dc.lft.to/lastmile_qr_scan", "ios": "https://dc.lft.to/lastmile_qr_scan"}, "is_disabled": 0, "fusion_lat": 0.0, "name": "c26b3c6ada8b2a532415d8370ca8e57c", "fusion_lon": 0.0}, {"is_reserved": 0, "type": "electric_scooter", "bike_id": "4a7a79caf48c5c2e0c133e42014a0634", "lat": 38.89420533333333, "lon": -77.02087233333333, "rental_uris": {"android": "https://dc.lft.to/lastmile_qr_scan", "ios": "https://dc.lft.to/lastmile_qr_scan"}, "is_disabled": 0, "fusion_lat": 0.0, "name": "4a7a79caf48c5c2e0c133e42014a0634", "fusion_lon": 0.0}, {"is_reserved": 0, "type": "electric_scooter", "bike_id": "425b145195e5597eeeeef7018c036730", "lat": 38.900843333333334, "lon": -77.01343383333334, "rental_uris": {"android": "https://dc.lft.to/lastmile_qr_scan", "ios": "https://dc.lft.to/lastmile_qr_scan"}, "is_disabled": 0, "fusion_lat": 0.0, "name": "425b145195e5597eeeeef7018c036730", "fusion_lon": 0.0}, {"is_reserved": 0, "type": "electric_scooter", "bike_id": "97b277466834beb96d13c87f44d2bbca", "lat": 38.90047666666667, "lon": -77.02939566666667, "rental_uris": {"android": "https://dc.lft.to/lastmile_qr_scan", "ios": "https://dc.lft.to/lastmile_qr_scan"}, "is_disabled": 0, "fusion_lat": 0.0, "name": "97b277466834beb96d13c87f44d2bbca", "fusion_lon": 0.0}, {"is_reserved": 0, "type": "electric_scooter", "bike_id": "7acb6ee425e37e956a48c29c6b09ca7a", "lat": 38.89229366666667, "lon": -77.04999516666666, "rental_uris": {"android": "https://dc.lft.to/lastmile_qr_scan", "ios": "https://dc.lft.to/lastmile_qr_scan"}, "is_disabled": 0, "fusion_lat": 0.0, "name": "7acb6ee425e37e956a48c29c6b09ca7a", "fusion_lon": 0.0}, {"is_reserved": 0, "type": "electric_scooter", "bike_id": "fc04f04104161d1bd22ba059ce1aadd3", "lat": 38.92319166666667, "lon": -77.02813, "rental_uris": {"android": "https://dc.lft.to/lastmile_qr_scan", "ios": "https://dc.lft.to/lastmile_qr_scan"}, "is_disabled": 0, "fusion_lat": 0.0, "name": "fc04f04104161d1bd22ba059ce1aadd3", "fusion_lon": 0.0}, {"is_reserved": 0, "type": "electric_scooter", "bike_id": "20c23923a6132fe6fb4327237005cda7", "lat": 38.922551, "lon": -77.019287, "rental_uris": {"android": "https://dc.lft.to/lastmile_qr_scan", "ios": "https://dc.lft.to/lastmile_qr_scan"}, "is_disabled": 0, "fusion_lat": 0.0, "name": "20c23923a6132fe6fb4327237005cda7", "fusion_lon": 0.0}, {"is_reserved": 0, "type": "electric_scooter", "bike_id": "0c5595b4e43772c8c28f4eaaf94fd2b8", "lat": 38.874773833333336, "lon": -77.0173975, "rental_uris": {"android": "https://dc.lft.to/lastmile_qr_scan", "ios": "https://dc.lft.to/lastmile_qr_scan"}, "is_disabled": 0, "fusion_lat": 0.0, "name": "0c5595b4e43772c8c28f4eaaf94fd2b8", "fusion_lon": 0.0}, {"is_reserved": 0, "type": "electric_scooter", "bike_id": "bbcb7b4383842778a7b8000d907ed655", "lat": 38.894534666666665, "lon": -77.0454265, "rental_uris": {"android": "https://dc.lft.to/lastmile_qr_scan", "ios": "https://dc.lft.to/lastmile_qr_scan"}, "is_disabled": 0, "fusion_lat": 0.0, "name": "bbcb7b4383842778a7b8000d907ed655", "fusion_lon": 0.0}, {"is_reserved": 0, "type": "electric_scooter", "bike_id": "0cb39f212e6dbceabba9bb73e4c7fded", "lat": 38.940431, "lon": -77.029135, "rental_uris": {"android": "https://dc.lft.to/lastmile_qr_scan", "ios": "https://dc.lft.to/lastmile_qr_scan"}, "is_disabled": 0, "fusion_lat": 0.0, "name": "0cb39f212e6dbceabba9bb73e4c7fded", "fusion_lon": 0.0}, {"is_reserved": 0, "type": "electric_scooter", "bike_id": "29e3991fb76b615d96efcb800ad7b734", "lat": 38.902246833333336, "lon": -77.04884066666666, "rental_uris": {"android": "https://dc.lft.to/lastmile_qr_scan", "ios": "https://dc.lft.to/lastmile_qr_scan"}, "is_disabled": 0, "fusion_lat": 0.0, "name": "29e3991fb76b615d96efcb800ad7b734", "fusion_lon": 0.0}, {"is_reserved": 0, "type": "electric_scooter", "bike_id": "668b794c4eec66dd6b6511e636a200c8", "lat": 38.9232655, "lon": -77.00895033333333, "rental_uris": {"android": "https://dc.lft.to/lastmile_qr_scan", "ios": "https://dc.lft.to/lastmile_qr_scan"}, "is_disabled": 0, "fusion_lat": 0.0, "name": "668b794c4eec66dd6b6511e636a200c8", "fusion_lon": 0.0}, {"is_reserved": 0, "type": "electric_scooter", "bike_id": "96591f6f82495a9f5d9b092c4f1fa2eb", "lat": 38.92429633333333, "lon": -76.99675566666667, "rental_uris": {"android": "https://dc.lft.to/lastmile_qr_scan", "ios": "https://dc.lft.to/lastmile_qr_scan"}, "is_disabled": 0, "fusion_lat": 0.0, "name": "96591f6f82495a9f5d9b092c4f1fa2eb", "fusion_lon": 0.0}, {"is_reserved": 0, "type": "electric_bike", "bike_id": "99f96a4a5b09aa0f5af786e622d492f9", "lat": 38.84920733333333, "lon": -77.083762, "rental_uris": {"android": "https://dc.lft.to/lastmile_qr_scan", "ios": "https://dc.lft.to/lastmile_qr_scan"}, "is_disabled": 0, "fusion_lat": 0.0, "name": "99f96a4a5b09aa0f5af786e622d492f9", "fusion_lon": 0.0}, {"is_reserved": 0, "type": "electric_scooter", "bike_id": "6b7fc048f2455578502373bea6df0ebc", "lat": 38.89568716666667, "lon": -76.982115, "rental_uris": {"android": "https://dc.lft.to/lastmile_qr_scan", "ios": "https://dc.lft.to/lastmile_qr_scan"}, "is_disabled": 0, "fusion_lat": 0.0, "name": "6b7fc048f2455578502373bea6df0ebc", "fusion_lon": 0.0}, {"is_reserved": 0, "type": "electric_scooter", "bike_id": "d166ed1bc3aaf132c5dc2f4a646bc1c2", "lat": 38.910693, "lon": -76.99134733333334, "rental_uris": {"android": "https://dc.lft.to/lastmile_qr_scan", "ios": "https://dc.lft.to/lastmile_qr_scan"}, "is_disabled": 0, "fusion_lat": 0.0, "name": "d166ed1bc3aaf132c5dc2f4a646bc1c2", "fusion_lon": 0.0}, {"is_reserved": 0, "type": "electric_scooter", "bike_id": "aa56e5cc4b06482c0b25c3fea4160cbb", "lat": 38.915455, "lon": -77.02091, "rental_uris": {"android": "https://dc.lft.to/lastmile_qr_scan", "ios": "https://dc.lft.to/lastmile_qr_scan"}, "is_disabled": 0, "fusion_lat": 0.0, "name": "aa56e5cc4b06482c0b25c3fea4160cbb", "fusion_lon": 0.0}, {"is_reserved": 0, "type": "electric_scooter", "bike_id": "713bb606b606134dfeba1065248fc6d3", "lat": 38.90720833333334, "lon": -77.02546833333334, "rental_uris": {"android": "https://dc.lft.to/lastmile_qr_scan", "ios": "https://dc.lft.to/lastmile_qr_scan"}, "is_disabled": 0, "fusion_lat": 0.0, "name": "713bb606b606134dfeba1065248fc6d3", "fusion_lon": 0.0}, {"is_reserved": 0, "type": "electric_scooter", "bike_id": "37e0b96c4a144c4514b35ef0fae328dd", "lat": 38.92386783333333, "lon": -77.03658666666666, "rental_uris": {"android": "https://dc.lft.to/lastmile_qr_scan", "ios": "https://dc.lft.to/lastmile_qr_scan"}, "is_disabled": 0, "fusion_lat": 0.0, "name": "37e0b96c4a144c4514b35ef0fae328dd", "fusion_lon": 0.0}, {"is_reserved": 0, "type": "electric_scooter", "bike_id": "40cf9579a2d8be541fa94e5244873abb", "lat": 38.920477166666664, "lon": -77.03130683333333, "rental_uris": {"android": "https://dc.lft.to/lastmile_qr_scan", "ios": "https://dc.lft.to/lastmile_qr_scan"}, "is_disabled": 0, "fusion_lat": 0.0, "name": "40cf9579a2d8be541fa94e5244873abb", "fusion_lon": 0.0}, {"is_reserved": 0, "type": "electric_scooter", "bike_id": "745b53866e4933f063d72c58f104ab80", "lat": 38.900754, "lon": -77.0494455, "rental_uris": {"android": "https://dc.lft.to/lastmile_qr_scan", "ios": "https://dc.lft.to/lastmile_qr_scan"}, "is_disabled": 0, "fusion_lat": 0.0, "name": "745b53866e4933f063d72c58f104ab80", "fusion_lon": 0.0}, {"is_reserved": 0, "type": "electric_scooter", "bike_id": "08690d44f646ec347ab9533a429ac4df", "lat": 38.900044333333334, "lon": -77.01195283333334, "rental_uris": {"android": "https://dc.lft.to/lastmile_qr_scan", "ios": "https://dc.lft.to/lastmile_qr_scan"}, "is_disabled": 0, "fusion_lat": 0.0, "name": "08690d44f646ec347ab9533a429ac4df", "fusion_lon": 0.0}, {"is_reserved": 0, "type": "electric_scooter", "bike_id": "34313062cb598e4830cc6cc6d081cefb", "lat": 38.91799616666667, "lon": -77.03189416666666, "rental_uris": {"android": "https://dc.lft.to/lastmile_qr_scan", "ios": "https://dc.lft.to/lastmile_qr_scan"}, "is_disabled": 0, "fusion_lat": 0.0, "name": "34313062cb598e4830cc6cc6d081cefb", "fusion_lon": 0.0}, {"is_reserved": 0, "type": "electric_scooter", "bike_id": "75ca1df4cfd1b6a1fb0f4b9c1172e76e", "lat": 38.877937333333335, "lon": -77.00117666666667, "rental_uris": {"android": "https://dc.lft.to/lastmile_qr_scan", "ios": "https://dc.lft.to/lastmile_qr_scan"}, "is_disabled": 0, "fusion_lat": 0.0, "name": "75ca1df4cfd1b6a1fb0f4b9c1172e76e", "fusion_lon": 0.0}, {"is_reserved": 0, "type": "electric_scooter", "bike_id": "f98869600716dee61a22fea3d86f913d", "lat": 38.9321135, "lon": -77.02397366666666, "rental_uris": {"android": "https://dc.lft.to/lastmile_qr_scan", "ios": "https://dc.lft.to/lastmile_qr_scan"}, "is_disabled": 0, "fusion_lat": 0.0, "name": "f98869600716dee61a22fea3d86f913d", "fusion_lon": 0.0}, {"is_reserved": 0, "type": "electric_scooter", "bike_id": "a06441e7632af7e75f253d692a5b5db0", "lat": 38.9282155, "lon": -77.02257133333333, "rental_uris": {"android": "https://dc.lft.to/lastmile_qr_scan", "ios": "https://dc.lft.to/lastmile_qr_scan"}, "is_disabled": 0, "fusion_lat": 0.0, "name": "a06441e7632af7e75f253d692a5b5db0", "fusion_lon": 0.0}, {"is_reserved": 0, "type": "electric_scooter", "bike_id": "e9ae7a49955dca67acc42fc2101a9d68", "lat": 38.89923683333333, "lon": -77.026794, "rental_uris": {"android": "https://dc.lft.to/lastmile_qr_scan", "ios": "https://dc.lft.to/lastmile_qr_scan"}, "is_disabled": 0, "fusion_lat": 0.0, "name": "e9ae7a49955dca67acc42fc2101a9d68", "fusion_lon": 0.0}, {"is_reserved": 0, "type": "electric_scooter", "bike_id": "36737023d1ff660d4921fdff2c235541", "lat": 38.876492999999996, "lon": -77.0075215, "rental_uris": {"android": "https://dc.lft.to/lastmile_qr_scan", "ios": "https://dc.lft.to/lastmile_qr_scan"}, "is_disabled": 0, "fusion_lat": 0.0, "name": "36737023d1ff660d4921fdff2c235541", "fusion_lon": 0.0}, {"is_reserved": 0, "type": "electric_scooter", "bike_id": "f5ea70cfccfd6a5945666649ff3465df", "lat": 38.890429833333336, "lon": -76.95246916666666, "rental_uris": {"android": "https://dc.lft.to/lastmile_qr_scan", "ios": "https://dc.lft.to/lastmile_qr_scan"}, "is_disabled": 0, "fusion_lat": 0.0, "name": "f5ea70cfccfd6a5945666649ff3465df", "fusion_lon": 0.0}, {"is_reserved": 0, "type": "electric_scooter", "bike_id": "364dbfd4531d3d6affd1933d6a744e95", "lat": 38.876093833333336, "lon": -76.96563683333333, "rental_uris": {"android": "https://dc.lft.to/lastmile_qr_scan", "ios": "https://dc.lft.to/lastmile_qr_scan"}, "is_disabled": 0, "fusion_lat": 0.0, "name": "364dbfd4531d3d6affd1933d6a744e95", "fusion_lon": 0.0}, {"is_reserved": 0, "type": "electric_scooter", "bike_id": "1f25429e85927d38a4ec8313adec3196", "lat": 38.9051035, "lon": -77.06383633333333, "rental_uris": {"android": "https://dc.lft.to/lastmile_qr_scan", "ios": "https://dc.lft.to/lastmile_qr_scan"}, "is_disabled": 0, "fusion_lat": 0.0, "name": "1f25429e85927d38a4ec8313adec3196", "fusion_lon": 0.0}, {"is_reserved": 0, "type": "electric_scooter", "bike_id": "dfd90a4cfae922107ca4392871ea223a", "lat": 38.92553366666667, "lon": -77.07762333333334, "rental_uris": {"android": "https://dc.lft.to/lastmile_qr_scan", "ios": "https://dc.lft.to/lastmile_qr_scan"}, "is_disabled": 0, "fusion_lat": 0.0, "name": "dfd90a4cfae922107ca4392871ea223a", "fusion_lon": 0.0}, {"is_reserved": 0, "type": "electric_scooter", "bike_id": "60d2c316104fa4a93549a57b0d5831ae", "lat": 38.91808916666667, "lon": -77.03158783333333, "rental_uris": {"android": "https://dc.lft.to/lastmile_qr_scan", "ios": "https://dc.lft.to/lastmile_qr_scan"}, "is_disabled": 0, "fusion_lat": 0.0, "name": "60d2c316104fa4a93549a57b0d5831ae", "fusion_lon": 0.0}, {"is_reserved": 0, "type": "electric_scooter", "bike_id": "27968b73814a5175b29e5c9efbd28fb1", "lat": 38.928256833333336, "lon": -77.05438866666667, "rental_uris": {"android": "https://dc.lft.to/lastmile_qr_scan", "ios": "https://dc.lft.to/lastmile_qr_scan"}, "is_disabled": 0, "fusion_lat": 0.0, "name": "27968b73814a5175b29e5c9efbd28fb1", "fusion_lon": 0.0}, {"is_reserved": 0, "type": "electric_scooter", "bike_id": "5beafd79ebe12bbebae8747e65ff935e", "lat": 38.91987266666667, "lon": -77.040777, "rental_uris": {"android": "https://dc.lft.to/lastmile_qr_scan", "ios": "https://dc.lft.to/lastmile_qr_scan"}, "is_disabled": 0, "fusion_lat": 0.0, "name": "5beafd79ebe12bbebae8747e65ff935e", "fusion_lon": 0.0}, {"is_reserved": 0, "type": "electric_scooter", "bike_id": "e09e19ccb7a1703b3d82ed13c6f39211", "lat": 38.924802, "lon": -77.034906, "rental_uris": {"android": "https://dc.lft.to/lastmile_qr_scan", "ios": "https://dc.lft.to/lastmile_qr_scan"}, "is_disabled": 0, "fusion_lat": 0.0, "name": "e09e19ccb7a1703b3d82ed13c6f39211", "fusion_lon": 0.0}, {"is_reserved": 0, "type": "electric_scooter", "bike_id": "510cdb844ee93297fb550f60e314bfd6", "lat": 38.873965166666665, "lon": -77.0002445, "rental_uris": {"android": "https://dc.lft.to/lastmile_qr_scan", "ios": "https://dc.lft.to/lastmile_qr_scan"}, "is_disabled": 0, "fusion_lat": 0.0, "name": "510cdb844ee93297fb550f60e314bfd6", "fusion_lon": 0.0}, {"is_reserved": 0, "type": "electric_scooter", "bike_id": "732d38084c089de94a29955a182d411d", "lat": 38.90793433333333, "lon": -77.04894516666667, "rental_uris": {"android": "https://dc.lft.to/lastmile_qr_scan", "ios": "https://dc.lft.to/lastmile_qr_scan"}, "is_disabled": 0, "fusion_lat": 0.0, "name": "732d38084c089de94a29955a182d411d", "fusion_lon": 0.0}, {"is_reserved": 0, "type": "electric_scooter", "bike_id": "9d003782b4f0115b898582a4fda84a0e", "lat": 38.937391833333336, "lon": -77.03259083333333, "rental_uris": {"android": "https://dc.lft.to/lastmile_qr_scan", "ios": "https://dc.lft.to/lastmile_qr_scan"}, "is_disabled": 0, "fusion_lat": 0.0, "name": "9d003782b4f0115b898582a4fda84a0e", "fusion_lon": 0.0}, {"is_reserved": 0, "type": "electric_scooter", "bike_id": "74a0e996f1fac23dcba3d402ec2c23e9", "lat": 38.943131, "lon": -77.02181666666667, "rental_uris": {"android": "https://dc.lft.to/lastmile_qr_scan", "ios": "https://dc.lft.to/lastmile_qr_scan"}, "is_disabled": 0, "fusion_lat": 0.0, "name": "74a0e996f1fac23dcba3d402ec2c23e9", "fusion_lon": 0.0}, {"is_reserved": 0, "type": "electric_scooter", "bike_id": "08b6c776957d2ad502ccd1b51a346b49", "lat": 38.888093166666664, "lon": -77.00200216666667, "rental_uris": {"android": "https://dc.lft.to/lastmile_qr_scan", "ios": "https://dc.lft.to/lastmile_qr_scan"}, "is_disabled": 0, "fusion_lat": 0.0, "name": "08b6c776957d2ad502ccd1b51a346b49", "fusion_lon": 0.0}, {"is_reserved": 0, "type": "electric_bike", "bike_id": "55cc543b255305468dac1028ff01a344", "lat": 38.92633283333333, "lon": -77.0331645, "rental_uris": {"android": "https://dc.lft.to/lastmile_qr_scan", "ios": "https://dc.lft.to/lastmile_qr_scan"}, "is_disabled": 0, "fusion_lat": 0.0, "name": "55cc543b255305468dac1028ff01a344", "fusion_lon": 0.0}, {"is_reserved": 0, "type": "electric_scooter", "bike_id": "647fbd753180d7282c77a110a6e602e6", "lat": 38.92029616666667, "lon": -77.010358, "rental_uris": {"android": "https://dc.lft.to/lastmile_qr_scan", "ios": "https://dc.lft.to/lastmile_qr_scan"}, "is_disabled": 0, "fusion_lat": 0.0, "name": "647fbd753180d7282c77a110a6e602e6", "fusion_lon": 0.0}, {"is_reserved": 0, "type": "electric_scooter", "bike_id": "915b81313f73f9511f10258e8ec50a61", "lat": 38.884411666666665, "lon": -76.9577245, "rental_uris": {"android": "https://dc.lft.to/lastmile_qr_scan", "ios": "https://dc.lft.to/lastmile_qr_scan"}, "is_disabled": 0, "fusion_lat": 0.0, "name": "915b81313f73f9511f10258e8ec50a61", "fusion_lon": 0.0}, {"is_reserved": 0, "type": "electric_scooter", "bike_id": "9a175f6e7081d7230e9526ed7eb33c70", "lat": 38.91564416666667, "lon": -77.03094116666666, "rental_uris": {"android": "https://dc.lft.to/lastmile_qr_scan", "ios": "https://dc.lft.to/lastmile_qr_scan"}, "is_disabled": 0, "fusion_lat": 0.0, "name": "9a175f6e7081d7230e9526ed7eb33c70", "fusion_lon": 0.0}, {"is_reserved": 0, "type": "electric_scooter", "bike_id": "b56a40a57623f8bff493b4336a392089", "lat": 38.92835066666667, "lon": -77.00602, "rental_uris": {"android": "https://dc.lft.to/lastmile_qr_scan", "ios": "https://dc.lft.to/lastmile_qr_scan"}, "is_disabled": 0, "fusion_lat": 0.0, "name": "b56a40a57623f8bff493b4336a392089", "fusion_lon": 0.0}, {"is_reserved": 0, "type": "electric_scooter", "bike_id": "0aa94b7ca6ef6d4fee6cb8cdb8266bbd", "lat": 38.878446833333335, "lon": -77.00124483333333, "rental_uris": {"android": "https://dc.lft.to/lastmile_qr_scan", "ios": "https://dc.lft.to/lastmile_qr_scan"}, "is_disabled": 0, "fusion_lat": 0.0, "name": "0aa94b7ca6ef6d4fee6cb8cdb8266bbd", "fusion_lon": 0.0}, {"is_reserved": 0, "type": "electric_scooter", "bike_id": "14972b2e7e89529614f84ec31711e3b6", "lat": 38.896004, "lon": -77.044126, "rental_uris": {"android": "https://dc.lft.to/lastmile_qr_scan", "ios": "https://dc.lft.to/lastmile_qr_scan"}, "is_disabled": 0, "fusion_lat": 0.0, "name": "14972b2e7e89529614f84ec31711e3b6", "fusion_lon": 0.0}, {"is_reserved": 0, "type": "electric_scooter", "bike_id": "bb9efb0b5fc1c09bb7807e06dc8286f6", "lat": 38.886067833333335, "lon": -76.98818366666667, "rental_uris": {"android": "https://dc.lft.to/lastmile_qr_scan", "ios": "https://dc.lft.to/lastmile_qr_scan"}, "is_disabled": 0, "fusion_lat": 0.0, "name": "bb9efb0b5fc1c09bb7807e06dc8286f6", "fusion_lon": 0.0}, {"is_reserved": 0, "type": "electric_scooter", "bike_id": "f408b2e3dca0d492d51ab4828e606c08", "lat": 38.92459616666667, "lon": -77.05227183333334, "rental_uris": {"android": "https://dc.lft.to/lastmile_qr_scan", "ios": "https://dc.lft.to/lastmile_qr_scan"}, "is_disabled": 0, "fusion_lat": 0.0, "name": "f408b2e3dca0d492d51ab4828e606c08", "fusion_lon": 0.0}, {"is_reserved": 0, "type": "electric_scooter", "bike_id": "a4b82c4569b210ca9a6aef09f11ec0ff", "lat": 38.92605183333333, "lon": -77.02154916666667, "rental_uris": {"android": "https://dc.lft.to/lastmile_qr_scan", "ios": "https://dc.lft.to/lastmile_qr_scan"}, "is_disabled": 0, "fusion_lat": 0.0, "name": "a4b82c4569b210ca9a6aef09f11ec0ff", "fusion_lon": 0.0}, {"is_reserved": 0, "type": "electric_scooter", "bike_id": "679c8dffd282e90fce18d531b7ef9c6e", "lat": 38.905174333333335, "lon": -77.0070675, "rental_uris": {"android": "https://dc.lft.to/lastmile_qr_scan", "ios": "https://dc.lft.to/lastmile_qr_scan"}, "is_disabled": 0, "fusion_lat": 0.0, "name": "679c8dffd282e90fce18d531b7ef9c6e", "fusion_lon": 0.0}, {"is_reserved": 0, "type": "electric_scooter", "bike_id": "de037a070209b4fb163d64ec266f1b2a", "lat": 38.91407016666667, "lon": -77.02210516666666, "rental_uris": {"android": "https://dc.lft.to/lastmile_qr_scan", "ios": "https://dc.lft.to/lastmile_qr_scan"}, "is_disabled": 0, "fusion_lat": 0.0, "name": "de037a070209b4fb163d64ec266f1b2a", "fusion_lon": 0.0}, {"is_reserved": 0, "type": "electric_scooter", "bike_id": "4f459aa2b762074b43c894128ef62f64", "lat": 38.862179166666664, "lon": -76.97918016666667, "rental_uris": {"android": "https://dc.lft.to/lastmile_qr_scan", "ios": "https://dc.lft.to/lastmile_qr_scan"}, "is_disabled": 0, "fusion_lat": 0.0, "name": "4f459aa2b762074b43c894128ef62f64", "fusion_lon": 0.0}, {"is_reserved": 0, "type": "electric_scooter", "bike_id": "0be988ef99eb94b3d26f744dbfcfa82e", "lat": 38.89968366666667, "lon": -77.01608833333333, "rental_uris": {"android": "https://dc.lft.to/lastmile_qr_scan", "ios": "https://dc.lft.to/lastmile_qr_scan"}, "is_disabled": 0, "fusion_lat": 0.0, "name": "0be988ef99eb94b3d26f744dbfcfa82e", "fusion_lon": 0.0}, {"is_reserved": 0, "type": "electric_scooter", "bike_id": "b40986518d331507c9b110bb161a7a52", "lat": 38.8936205, "lon": -77.0033405, "rental_uris": {"android": "https://dc.lft.to/lastmile_qr_scan", "ios": "https://dc.lft.to/lastmile_qr_scan"}, "is_disabled": 0, "fusion_lat": 0.0, "name": "b40986518d331507c9b110bb161a7a52", "fusion_lon": 0.0}, {"is_reserved": 0, "type": "electric_scooter", "bike_id": "450495728d56abba825cc0ee577acc92", "lat": 38.924087, "lon": -77.02977183333333, "rental_uris": {"android": "https://dc.lft.to/lastmile_qr_scan", "ios": "https://dc.lft.to/lastmile_qr_scan"}, "is_disabled": 0, "fusion_lat": 0.0, "name": "450495728d56abba825cc0ee577acc92", "fusion_lon": 0.0}, {"is_reserved": 0, "type": "electric_scooter", "bike_id": "787104b42bbc7aa0609344f4a79fcf9c", "lat": 38.88627433333333, "lon": -77.03355133333334, "rental_uris": {"android": "https://dc.lft.to/lastmile_qr_scan", "ios": "https://dc.lft.to/lastmile_qr_scan"}, "is_disabled": 0, "fusion_lat": 0.0, "name": "787104b42bbc7aa0609344f4a79fcf9c", "fusion_lon": 0.0}, {"is_reserved": 0, "type": "electric_scooter", "bike_id": "4a398126438153656ae914f4e9bad24c", "lat": 38.8657675, "lon": -76.9903645, "rental_uris": {"android": "https://dc.lft.to/lastmile_qr_scan", "ios": "https://dc.lft.to/lastmile_qr_scan"}, "is_disabled": 0, "fusion_lat": 0.0, "name": "4a398126438153656ae914f4e9bad24c", "fusion_lon": 0.0}, {"is_reserved": 0, "type": "electric_scooter", "bike_id": "fad0a189091c9bfec915f201aeb0af33", "lat": 38.91923216666667, "lon": -77.00974983333333, "rental_uris": {"android": "https://dc.lft.to/lastmile_qr_scan", "ios": "https://dc.lft.to/lastmile_qr_scan"}, "is_disabled": 0, "fusion_lat": 0.0, "name": "fad0a189091c9bfec915f201aeb0af33", "fusion_lon": 0.0}, {"is_reserved": 0, "type": "electric_scooter", "bike_id": "6c2ca02530c0db49bd3f4909aec8d17d", "lat": 38.906041, "lon": -77.04669966666667, "rental_uris": {"android": "https://dc.lft.to/lastmile_qr_scan", "ios": "https://dc.lft.to/lastmile_qr_scan"}, "is_disabled": 0, "fusion_lat": 0.0, "name": "6c2ca02530c0db49bd3f4909aec8d17d", "fusion_lon": 0.0}, {"is_reserved": 0, "type": "electric_scooter", "bike_id": "cbf273992748e71b0688f7a7e76b920d", "lat": 38.91295733333333, "lon": -76.98550216666666, "rental_uris": {"android": "https://dc.lft.to/lastmile_qr_scan", "ios": "https://dc.lft.to/lastmile_qr_scan"}, "is_disabled": 0, "fusion_lat": 0.0, "name": "cbf273992748e71b0688f7a7e76b920d", "fusion_lon": 0.0}, {"is_reserved": 0, "type": "electric_scooter", "bike_id": "f50eeba86827aa578a053c4145d2e44c", "lat": 38.92869566666667, "lon": -77.02709733333333, "rental_uris": {"android": "https://dc.lft.to/lastmile_qr_scan", "ios": "https://dc.lft.to/lastmile_qr_scan"}, "is_disabled": 0, "fusion_lat": 0.0, "name": "f50eeba86827aa578a053c4145d2e44c", "fusion_lon": 0.0}, {"is_reserved": 0, "type": "electric_scooter", "bike_id": "ccd734966385a8a0b50861266f80d682", "lat": 38.911164666666664, "lon": -77.0375375, "rental_uris": {"android": "https://dc.lft.to/lastmile_qr_scan", "ios": "https://dc.lft.to/lastmile_qr_scan"}, "is_disabled": 0, "fusion_lat": 0.0, "name": "ccd734966385a8a0b50861266f80d682", "fusion_lon": 0.0}, {"is_reserved": 0, "type": "electric_scooter", "bike_id": "5b8eac51d7ad19e35446ef09f8686c08", "lat": 38.91360533333334, "lon": -77.019934, "rental_uris": {"android": "https://dc.lft.to/lastmile_qr_scan", "ios": "https://dc.lft.to/lastmile_qr_scan"}, "is_disabled": 0, "fusion_lat": 0.0, "name": "5b8eac51d7ad19e35446ef09f8686c08", "fusion_lon": 0.0}, {"is_reserved": 0, "type": "electric_bike", "bike_id": "57808aa58df3d2e84834a1f86441665e", "lat": 38.87039166666667, "lon": -77.229081, "rental_uris": {"android": "https://dc.lft.to/lastmile_qr_scan", "ios": "https://dc.lft.to/lastmile_qr_scan"}, "is_disabled": 0, "fusion_lat": 0.0, "name": "57808aa58df3d2e84834a1f86441665e", "fusion_lon": 0.0}, {"is_reserved": 0, "type": "electric_scooter", "bike_id": "aa3de8eb138295b0f1baa1d1ca8b950a", "lat": 38.907766333333335, "lon": -77.0451865, "rental_uris": {"android": "https://dc.lft.to/lastmile_qr_scan", "ios": "https://dc.lft.to/lastmile_qr_scan"}, "is_disabled": 0, "fusion_lat": 0.0, "name": "aa3de8eb138295b0f1baa1d1ca8b950a", "fusion_lon": 0.0}, {"is_reserved": 0, "type": "electric_scooter", "bike_id": "5555c1846454d96eae70942c82fd817f", "lat": 38.90105616666666, "lon": -77.01239666666666, "rental_uris": {"android": "https://dc.lft.to/lastmile_qr_scan", "ios": "https://dc.lft.to/lastmile_qr_scan"}, "is_disabled": 0, "fusion_lat": 0.0, "name": "5555c1846454d96eae70942c82fd817f", "fusion_lon": 0.0}, {"is_reserved": 0, "type": "electric_scooter", "bike_id": "519c960c93f925336f7880fed34c588d", "lat": 38.92229416666667, "lon": -77.04378816666667, "rental_uris": {"android": "https://dc.lft.to/lastmile_qr_scan", "ios": "https://dc.lft.to/lastmile_qr_scan"}, "is_disabled": 0, "fusion_lat": 0.0, "name": "519c960c93f925336f7880fed34c588d", "fusion_lon": 0.0}, {"is_reserved": 0, "type": "electric_scooter", "bike_id": "b1e928ebbfbaba8c85ca356deb193116", "lat": 38.913873833333334, "lon": -77.0260725, "rental_uris": {"android": "https://dc.lft.to/lastmile_qr_scan", "ios": "https://dc.lft.to/lastmile_qr_scan"}, "is_disabled": 0, "fusion_lat": 0.0, "name": "b1e928ebbfbaba8c85ca356deb193116", "fusion_lon": 0.0}, {"is_reserved": 0, "type": "electric_scooter", "bike_id": "00e4b31d8a5d9ff1de8c4adc58e0bba3", "lat": 38.91407816666667, "lon": -77.03264816666666, "rental_uris": {"android": "https://dc.lft.to/lastmile_qr_scan", "ios": "https://dc.lft.to/lastmile_qr_scan"}, "is_disabled": 0, "fusion_lat": 0.0, "name": "00e4b31d8a5d9ff1de8c4adc58e0bba3", "fusion_lon": 0.0}, {"is_reserved": 0, "type": "electric_bike", "bike_id": "b060e983ba220f178b59e220ea760934", "lat": 38.9989015, "lon": -76.908634, "rental_uris": {"android": "https://dc.lft.to/lastmile_qr_scan", "ios": "https://dc.lft.to/lastmile_qr_scan"}, "is_disabled": 0, "fusion_lat": 0.0, "name": "b060e983ba220f178b59e220ea760934", "fusion_lon": 0.0}, {"is_reserved": 0, "type": "electric_scooter", "bike_id": "a0c94e6da6e4dbb8ce2bf857105bd955", "lat": 38.89420233333333, "lon": -76.99828166666667, "rental_uris": {"android": "https://dc.lft.to/lastmile_qr_scan", "ios": "https://dc.lft.to/lastmile_qr_scan"}, "is_disabled": 0, "fusion_lat": 0.0, "name": "a0c94e6da6e4dbb8ce2bf857105bd955", "fusion_lon": 0.0}, {"is_reserved": 0, "type": "electric_scooter", "bike_id": "c7256930d0be96e50e70360de76afe2d", "lat": 38.9422205, "lon": -77.029647, "rental_uris": {"android": "https://dc.lft.to/lastmile_qr_scan", "ios": "https://dc.lft.to/lastmile_qr_scan"}, "is_disabled": 0, "fusion_lat": 0.0, "name": "c7256930d0be96e50e70360de76afe2d", "fusion_lon": 0.0}, {"is_reserved": 0, "type": "electric_bike", "bike_id": "942d46cf217de390b41066959af34343", "lat": 38.854367333333336, "lon": -77.083184, "rental_uris": {"android": "https://dc.lft.to/lastmile_qr_scan", "ios": "https://dc.lft.to/lastmile_qr_scan"}, "is_disabled": 0, "fusion_lat": 0.0, "name": "942d46cf217de390b41066959af34343", "fusion_lon": 0.0}, {"is_reserved": 0, "type": "electric_bike", "bike_id": "b953eb339f8945955af093f177d80c29", "lat": 38.964398, "lon": -77.03159583333333, "rental_uris": {"android": "https://dc.lft.to/lastmile_qr_scan", "ios": "https://dc.lft.to/lastmile_qr_scan"}, "is_disabled": 0, "fusion_lat": 0.0, "name": "b953eb339f8945955af093f177d80c29", "fusion_lon": 0.0}, {"is_reserved": 0, "type": "electric_scooter", "bike_id": "4effc0feefde00e93b7915ac4badb2f5", "lat": 38.92450183333333, "lon": -77.020362, "rental_uris": {"android": "https://dc.lft.to/lastmile_qr_scan", "ios": "https://dc.lft.to/lastmile_qr_scan"}, "is_disabled": 0, "fusion_lat": 0.0, "name": "4effc0feefde00e93b7915ac4badb2f5", "fusion_lon": 0.0}, {"is_reserved": 0, "type": "electric_scooter", "bike_id": "6ed3d3e647b61dd7e3acb1ee66fda989", "lat": 38.9311595, "lon": -77.020971, "rental_uris": {"android": "https://dc.lft.to/lastmile_qr_scan", "ios": "https://dc.lft.to/lastmile_qr_scan"}, "is_disabled": 0, "fusion_lat": 0.0, "name": "6ed3d3e647b61dd7e3acb1ee66fda989", "fusion_lon": 0.0}, {"is_reserved": 0, "type": "electric_scooter", "bike_id": "27e69ee196a59ecdc372a52525975c24", "lat": 38.92417533333333, "lon": -77.01945833333333, "rental_uris": {"android": "https://dc.lft.to/lastmile_qr_scan", "ios": "https://dc.lft.to/lastmile_qr_scan"}, "is_disabled": 0, "fusion_lat": 0.0, "name": "27e69ee196a59ecdc372a52525975c24", "fusion_lon": 0.0}, {"is_reserved": 0, "type": "electric_scooter", "bike_id": "7da27f8128a82192fdc4d503423eed90", "lat": 38.90076283333333, "lon": -77.0273505, "rental_uris": {"android": "https://dc.lft.to/lastmile_qr_scan", "ios": "https://dc.lft.to/lastmile_qr_scan"}, "is_disabled": 0, "fusion_lat": 0.0, "name": "7da27f8128a82192fdc4d503423eed90", "fusion_lon": 0.0}, {"is_reserved": 0, "type": "electric_bike", "bike_id": "a457a7c62e021786eea40cd3e3ced36e", "lat": 38.9882765, "lon": -77.02655533333333, "rental_uris": {"android": "https://dc.lft.to/lastmile_qr_scan", "ios": "https://dc.lft.to/lastmile_qr_scan"}, "is_disabled": 0, "fusion_lat": 0.0, "name": "a457a7c62e021786eea40cd3e3ced36e", "fusion_lon": 0.0}, {"is_reserved": 0, "type": "electric_scooter", "bike_id": "49f0cf047bad17972dcbe3bba4b1ddfc", "lat": 38.954656666666665, "lon": -77.07763466666667, "rental_uris": {"android": "https://dc.lft.to/lastmile_qr_scan", "ios": "https://dc.lft.to/lastmile_qr_scan"}, "is_disabled": 0, "fusion_lat": 0.0, "name": "49f0cf047bad17972dcbe3bba4b1ddfc", "fusion_lon": 0.0}, {"is_reserved": 0, "type": "electric_scooter", "bike_id": "0f82c68f9fa0742f58c93b774950e681", "lat": 38.917219, "lon": -77.029721, "rental_uris": {"android": "https://dc.lft.to/lastmile_qr_scan", "ios": "https://dc.lft.to/lastmile_qr_scan"}, "is_disabled": 0, "fusion_lat": 0.0, "name": "0f82c68f9fa0742f58c93b774950e681", "fusion_lon": 0.0}, {"is_reserved": 0, "type": "electric_scooter", "bike_id": "234f6f744762f5eb11b543570adc4b6c", "lat": 38.9146565, "lon": -77.02607233333333, "rental_uris": {"android": "https://dc.lft.to/lastmile_qr_scan", "ios": "https://dc.lft.to/lastmile_qr_scan"}, "is_disabled": 0, "fusion_lat": 0.0, "name": "234f6f744762f5eb11b543570adc4b6c", "fusion_lon": 0.0}, {"is_reserved": 0, "type": "electric_scooter", "bike_id": "1fcf74926bdffeb353ef03051b32bc23", "lat": 38.9078575, "lon": -77.00968933333333, "rental_uris": {"android": "https://dc.lft.to/lastmile_qr_scan", "ios": "https://dc.lft.to/lastmile_qr_scan"}, "is_disabled": 0, "fusion_lat": 0.0, "name": "1fcf74926bdffeb353ef03051b32bc23", "fusion_lon": 0.0}, {"is_reserved": 0, "type": "electric_scooter", "bike_id": "1e3bce4882f68b9fdd23559c661c04ef", "lat": 38.90216483333333, "lon": -77.053224, "rental_uris": {"android": "https://dc.lft.to/lastmile_qr_scan", "ios": "https://dc.lft.to/lastmile_qr_scan"}, "is_disabled": 0, "fusion_lat": 0.0, "name": "1e3bce4882f68b9fdd23559c661c04ef", "fusion_lon": 0.0}, {"is_reserved": 0, "type": "electric_scooter", "bike_id": "711b524998b5ccba53b0c63e76b29b1a", "lat": 38.919171666666664, "lon": -77.0319995, "rental_uris": {"android": "https://dc.lft.to/lastmile_qr_scan", "ios": "https://dc.lft.to/lastmile_qr_scan"}, "is_disabled": 0, "fusion_lat": 0.0, "name": "711b524998b5ccba53b0c63e76b29b1a", "fusion_lon": 0.0}, {"is_reserved": 0, "type": "electric_scooter", "bike_id": "8844d03e507d259dd0a929aaed1f1a5d", "lat": 38.899565, "lon": -77.02183416666666, "rental_uris": {"android": "https://dc.lft.to/lastmile_qr_scan", "ios": "https://dc.lft.to/lastmile_qr_scan"}, "is_disabled": 0, "fusion_lat": 0.0, "name": "8844d03e507d259dd0a929aaed1f1a5d", "fusion_lon": 0.0}, {"is_reserved": 0, "type": "electric_scooter", "bike_id": "d287018f769cabb05a6a8752e6cb0775", "lat": 38.90076166666667, "lon": -77.04883033333333, "rental_uris": {"android": "https://dc.lft.to/lastmile_qr_scan", "ios": "https://dc.lft.to/lastmile_qr_scan"}, "is_disabled": 0, "fusion_lat": 0.0, "name": "d287018f769cabb05a6a8752e6cb0775", "fusion_lon": 0.0}, {"is_reserved": 0, "type": "electric_scooter", "bike_id": "88af0227cbed63092e07c47f476f067a", "lat": 38.899795, "lon": -77.03089333333334, "rental_uris": {"android": "https://dc.lft.to/lastmile_qr_scan", "ios": "https://dc.lft.to/lastmile_qr_scan"}, "is_disabled": 0, "fusion_lat": 0.0, "name": "88af0227cbed63092e07c47f476f067a", "fusion_lon": 0.0}, {"is_reserved": 0, "type": "electric_scooter", "bike_id": "3dc802b5dedadfa0a3d0374cf47fb9b8", "lat": 38.949775333333335, "lon": -77.0245015, "rental_uris": {"android": "https://dc.lft.to/lastmile_qr_scan", "ios": "https://dc.lft.to/lastmile_qr_scan"}, "is_disabled": 0, "fusion_lat": 0.0, "name": "3dc802b5dedadfa0a3d0374cf47fb9b8", "fusion_lon": 0.0}, {"is_reserved": 0, "type": "electric_scooter", "bike_id": "8e9629a5135c89b46440af0e2837560d", "lat": 38.9111675, "lon": -77.03838683333333, "rental_uris": {"android": "https://dc.lft.to/lastmile_qr_scan", "ios": "https://dc.lft.to/lastmile_qr_scan"}, "is_disabled": 0, "fusion_lat": 0.0, "name": "8e9629a5135c89b46440af0e2837560d", "fusion_lon": 0.0}, {"is_reserved": 0, "type": "electric_scooter", "bike_id": "80d9dde0694e47a0796441c702cd2f03", "lat": 38.923626166666665, "lon": -77.0191985, "rental_uris": {"android": "https://dc.lft.to/lastmile_qr_scan", "ios": "https://dc.lft.to/lastmile_qr_scan"}, "is_disabled": 0, "fusion_lat": 0.0, "name": "80d9dde0694e47a0796441c702cd2f03", "fusion_lon": 0.0}, {"is_reserved": 0, "type": "electric_scooter", "bike_id": "93789df8cb94dbf23b8f660860513b00", "lat": 38.920734, "lon": -77.023124, "rental_uris": {"android": "https://dc.lft.to/lastmile_qr_scan", "ios": "https://dc.lft.to/lastmile_qr_scan"}, "is_disabled": 0, "fusion_lat": 0.0, "name": "93789df8cb94dbf23b8f660860513b00", "fusion_lon": 0.0}, {"is_reserved": 0, "type": "electric_scooter", "bike_id": "ed2a182db6bcb516eae7df6c751be190", "lat": 38.922543833333336, "lon": -77.03111216666667, "rental_uris": {"android": "https://dc.lft.to/lastmile_qr_scan", "ios": "https://dc.lft.to/lastmile_qr_scan"}, "is_disabled": 0, "fusion_lat": 0.0, "name": "ed2a182db6bcb516eae7df6c751be190", "fusion_lon": 0.0}, {"is_reserved": 0, "type": "electric_scooter", "bike_id": "563dc6292cdec64fe5b63e6c7a5c93ed", "lat": 38.95934783333333, "lon": -77.03120616666666, "rental_uris": {"android": "https://dc.lft.to/lastmile_qr_scan", "ios": "https://dc.lft.to/lastmile_qr_scan"}, "is_disabled": 0, "fusion_lat": 0.0, "name": "563dc6292cdec64fe5b63e6c7a5c93ed", "fusion_lon": 0.0}, {"is_reserved": 0, "type": "electric_scooter", "bike_id": "483dd09037020db05388cbe0e115bd42", "lat": 38.86527016666667, "lon": -76.96915166666666, "rental_uris": {"android": "https://dc.lft.to/lastmile_qr_scan", "ios": "https://dc.lft.to/lastmile_qr_scan"}, "is_disabled": 0, "fusion_lat": 0.0, "name": "483dd09037020db05388cbe0e115bd42", "fusion_lon": 0.0}, {"is_reserved": 0, "type": "electric_scooter", "bike_id": "72a4995f010a4f050ab225ff857d1396", "lat": 38.91554516666667, "lon": -77.0311975, "rental_uris": {"android": "https://dc.lft.to/lastmile_qr_scan", "ios": "https://dc.lft.to/lastmile_qr_scan"}, "is_disabled": 0, "fusion_lat": 0.0, "name": "72a4995f010a4f050ab225ff857d1396", "fusion_lon": 0.0}, {"is_reserved": 0, "type": "electric_scooter", "bike_id": "14b0f1291c1e6c391422b2925881223a", "lat": 38.89614816666667, "lon": -77.04419483333334, "rental_uris": {"android": "https://dc.lft.to/lastmile_qr_scan", "ios": "https://dc.lft.to/lastmile_qr_scan"}, "is_disabled": 0, "fusion_lat": 0.0, "name": "14b0f1291c1e6c391422b2925881223a", "fusion_lon": 0.0}, {"is_reserved": 0, "type": "electric_scooter", "bike_id": "25130fc63f9f38785e21f0efc42104cb", "lat": 38.91864066666667, "lon": -77.0366375, "rental_uris": {"android": "https://dc.lft.to/lastmile_qr_scan", "ios": "https://dc.lft.to/lastmile_qr_scan"}, "is_disabled": 0, "fusion_lat": 0.0, "name": "25130fc63f9f38785e21f0efc42104cb", "fusion_lon": 0.0}, {"is_reserved": 0, "type": "electric_scooter", "bike_id": "0664ded58e812890d6cd7330401a7b64", "lat": 38.89424616666667, "lon": -77.05603533333333, "rental_uris": {"android": "https://dc.lft.to/lastmile_qr_scan", "ios": "https://dc.lft.to/lastmile_qr_scan"}, "is_disabled": 0, "fusion_lat": 0.0, "name": "0664ded58e812890d6cd7330401a7b64", "fusion_lon": 0.0}, {"is_reserved": 0, "type": "electric_scooter", "bike_id": "c69b3282f68c52045ffed6b906d005be", "lat": 38.9250535, "lon": -77.038823, "rental_uris": {"android": "https://dc.lft.to/lastmile_qr_scan", "ios": "https://dc.lft.to/lastmile_qr_scan"}, "is_disabled": 0, "fusion_lat": 0.0, "name": "c69b3282f68c52045ffed6b906d005be", "fusion_lon": 0.0}, {"is_reserved": 0, "type": "electric_bike", "bike_id": "380b362079f1197180e0fc0dfc5833c8", "lat": 38.802490666666664, "lon": -77.11440666666667, "rental_uris": {"android": "https://dc.lft.to/lastmile_qr_scan", "ios": "https://dc.lft.to/lastmile_qr_scan"}, "is_disabled": 0, "fusion_lat": 0.0, "name": "380b362079f1197180e0fc0dfc5833c8", "fusion_lon": 0.0}, {"is_reserved": 0, "type": "electric_scooter", "bike_id": "bfe31f8696afba5a7c622d1bafc404bc", "lat": 38.931886, "lon": -77.02830416666667, "rental_uris": {"android": "https://dc.lft.to/lastmile_qr_scan", "ios": "https://dc.lft.to/lastmile_qr_scan"}, "is_disabled": 0, "fusion_lat": 0.0, "name": "bfe31f8696afba5a7c622d1bafc404bc", "fusion_lon": 0.0}, {"is_reserved": 0, "type": "electric_scooter", "bike_id": "832f0513af43831474bb019aa90aa0a9", "lat": 38.92760083333334, "lon": -77.027779, "rental_uris": {"android": "https://dc.lft.to/lastmile_qr_scan", "ios": "https://dc.lft.to/lastmile_qr_scan"}, "is_disabled": 0, "fusion_lat": 0.0, "name": "832f0513af43831474bb019aa90aa0a9", "fusion_lon": 0.0},