{"data": {"bikes": [{"fusion_lat": 0.0, "name": "4eddbe90ba78e2f32433f3f0b2597d18", "is_disabled": 0, "rental_uris": {"android": "https://dc.lft.to/lastmile_qr_scan", "ios": "https://dc.lft.to/lastmile_qr_scan"}, "fusion_lon": 0.0, "lat": 38.9370985, "bike_id": "4eddbe90ba78e2f32433f3f0b2597d18", "type": "electric_scooter", "is_reserved": 0, "lon": -77.061115}, {"fusion_lat": 0.0, "name": "e14413b7bf788301e24a7b445583e571", "is_disabled": 0, "rental_uris": {"android": "https://dc.lft.to/lastmile_qr_scan", "ios": "https://dc.lft.to/lastmile_qr_scan"}, "fusion_lon": 0.0, "lat": 38.89227733333333, "bike_id": "e14413b7bf788301e24a7b445583e571", "type": "electric_scooter", "is_reserved": 0, "lon": -77.03180316666666}, {"fusion_lat": 0.0, "name": "2c06ec24faf5ebdc83363ff07af6e09d", "is_disabled": 0, "rental_uris": {"android": "https://dc.lft.to/lastmile_qr_scan", "ios": "https://dc.lft.to/lastmile_qr_scan"}, "fusion_lon": 0.0, "lat": 38.847563, "bike_id": "2c06ec24faf5ebdc83363ff07af6e09d", "type": "electric_scooter", "is_reserved": 0, "lon": -76.9950085}, {"fusion_lat": 0.0, "name": "097f21811d8cb95b036389dc082ef00e", "is_disabled": 0, "rental_uris": {"android": "https://dc.lft.to/lastmile_qr_scan", "ios": "https://dc.lft.to/lastmile_qr_scan"}, "fusion_lon": 0.0, "lat": 38.8900515, "bike_id": "097f21811d8cb95b036389dc082ef00e", "type": "electric_scooter", "is_reserved": 0, "lon": -76.9374655}, {"fusion_lat": 0.0, "name": "d4862fcd80ebfa0f6a6e936e312409ff", "is_disabled": 0, "rental_uris": {"android": "https://dc.lft.to/lastmile_qr_scan", "ios": "https://dc.lft.to/lastmile_qr_scan"}, "fusion_lon": 0.0, "lat": 38.945193333333336, "bike_id": "d4862fcd80ebfa0f6a6e936e312409ff", "type": "electric_scooter", "is_reserved": 0, "lon": -77.038908}, {"fusion_lat": 0.0, "name": "84f5b7d493dc07ed59249ec8c59f33aa", "is_disabled": 0, "rental_uris": {"android": "https://dc.lft.to/lastmile_qr_scan", "ios": "https://dc.lft.to/lastmile_qr_scan"}, "fusion_lon": 0.0, "lat": 38.887207333333336, "bike_id": "84f5b7d493dc07ed59249ec8c59f33aa", "type": "electric_scooter", "is_reserved": 0, "lon": -76.99685666666667}, {"fusion_lat": 0.0, "name": "e5f86f04f9182b29fb7310d8a2f420ad", "is_disabled": 0, "rental_uris": {"android": "https://dc.lft.to/lastmile_qr_scan", "ios": "https://dc.lft.to/lastmile_qr_scan"}, "fusion_lon": 0.0, "lat": 38.90712416666667, "bike_id": "e5f86f04f9182b29fb7310d8a2f420ad", "type": "electric_scooter", "is_reserved": 0, "lon": -76.98698133333333}, {"fusion_lat": 0.0, "name": "cf4993cdfe27f8515dd9efcfd62f53fd", "is_disabled": 0, "rental_uris": {"android": "https://dc.lft.to/lastmile_qr_scan", "ios": "https://dc.lft.to/lastmile_qr_scan"}, "fusion_lon": 0.0, "lat": 38.930714, "bike_id": "cf4993cdfe27f8515dd9efcfd62f53fd", "type": "electric_scooter", "is_reserved": 0, "lon": -77.03374316666667}, {"fusion_lat": 0.0, "name": "ce44e9167968154844065cbfe510fa0d", "is_disabled": 0, "rental_uris": {"android": "https://dc.lft.to/lastmile_qr_scan", "ios": "https://dc.lft.to/lastmile_qr_scan"}, "fusion_lon": 0.0, "lat": 38.886659333333334, "bike_id": "ce44e9167968154844065cbfe510fa0d", "type": "electric_scooter", "is_reserved": 0, "lon": -77.02828}, {"fusion_lat": 0.0, "name": "e5b7930da76e6e03957c3c337fbe0849", "is_disabled": 0, "rental_uris": {"android": "https://dc.lft.to/lastmile_qr_scan", "ios": "https://dc.lft.to/lastmile_qr_scan"}, "fusion_lon": 0.0, "lat": 38.92612716666667, "bike_id": "e5b7930da76e6e03957c3c337fbe0849", "type": "electric_scooter", "is_reserved": 0, "lon": -77.0215955}, {"fusion_lat": 0.0, "name": "63b804cc4786902b8882dd5f80036b07", "is_disabled": 0, "rental_uris": {"android": "https://dc.lft.to/lastmile_qr_scan", "ios": "https://dc.lft.to/lastmile_qr_scan"}, "fusion_lon": 0.0, "lat": 38.93417983333333, "bike_id": "63b804cc4786902b8882dd5f80036b07", "type": "electric_scooter", "is_reserved": 0, "lon": -77.02848}, {"fusion_lat": 0.0, "name": "d338691e607c87bb2ee81b7825cee2dc", "is_disabled": 0, "rental_uris": {"android": "https://dc.lft.to/lastmile_qr_scan", "ios": "https://dc.lft.to/lastmile_qr_scan"}, "fusion_lon": 0.0, "lat": 38.92443316666667, "bike_id": "d338691e607c87bb2ee81b7825cee2dc", "type": "electric_scooter", "is_reserved": 0, "lon": -77.03407233333333}, {"fusion_lat": 0.0, "name": "9d7738005a902710788abfde31cd93eb", "is_disabled": 0, "rental_uris": {"android": "https://dc.lft.to/lastmile_qr_scan", "ios": "https://dc.lft.to/lastmile_qr_scan"}, "fusion_lon": 0.0, "lat": 38.923248, "bike_id": "9d7738005a902710788abfde31cd93eb", "type": "electric_scooter", "is_reserved": 0, "lon": -77.03673683333334}, {"fusion_lat": 0.0, "name": "78ce0eb2be5e61a30f5610bbe41af9f8", "is_disabled": 0, "rental_uris": {"android": "https://dc.lft.to/lastmile_qr_scan", "ios": "https://dc.lft.to/lastmile_qr_scan"}, "fusion_lon": 0.0, "lat": 38.920876, "bike_id": "78ce0eb2be5e61a30f5610bbe41af9f8", "type": "electric_scooter", "is_reserved": 0, "lon": -77.02386616666666}, {"fusion_lat": 0.0, "name": "ceb151ed87a953ab1aa46d623bf2e6d0", "is_disabled": 0, "rental_uris": {"android": "https://dc.lft.to/lastmile_qr_scan", "ios": "https://dc.lft.to/lastmile_qr_scan"}, "fusion_lon": 0.0, "lat": 38.88573983333333, "bike_id": "ceb151ed87a953ab1aa46d623bf2e6d0", "type": "electric_scooter", "is_reserved": 0, "lon": -77.01213683333333}, {"fusion_lat": 0.0, "name": "2be755651af6dee9cb4d33e130275322", "is_disabled": 0, "rental_uris": {"android": "https://dc.lft.to/lastmile_qr_scan", "ios": "https://dc.lft.to/lastmile_qr_scan"}, "fusion_lon": 0.0, "lat": 38.898571833333335, "bike_id": "2be755651af6dee9cb4d33e130275322", "type": "electric_scooter", "is_reserved": 0, "lon": -76.97662066666666}, {"fusion_lat": 0.0, "name": "8893e479cdaa3c057b9575a29431ce4c", "is_disabled": 0, "rental_uris": {"android": "https://dc.lft.to/lastmile_qr_scan", "ios": "https://dc.lft.to/lastmile_qr_scan"}, "fusion_lon": 0.0, "lat": 38.90862333333333, "bike_id": "8893e479cdaa3c057b9575a29431ce4c", "type": "electric_scooter", "is_reserved": 0, "lon": -77.04621566666667}, {"fusion_lat": 0.0, "name": "d2a0a774fd807c08d11f3459806ef4d1", "is_disabled": 0, "rental_uris": {"android": "https://dc.lft.to/lastmile_qr_scan", "ios": "https://dc.lft.to/lastmile_qr_scan"}, "fusion_lon": 0.0, "lat": 38.92251733333333, "bike_id": "d2a0a774fd807c08d11f3459806ef4d1", "type": "electric_scooter", "is_reserved": 0, "lon": -77.0390405}, {"fusion_lat": 0.0, "name": "5716682b3519bf57f2de58813fb56dec", "is_disabled": 0, "rental_uris": {"android": "https://dc.lft.to/lastmile_qr_scan", "ios": "https://dc.lft.to/lastmile_qr_scan"}, "fusion_lon": 0.0, "lat": 38.798550666666664, "bike_id": "5716682b3519bf57f2de58813fb56dec", "type": "electric_bike", "is_reserved": 0, "lon": -77.063061}, {"fusion_lat": 0.0, "name": "f3448e85e9bcc33cf1c3a445fb81fb0b", "is_disabled": 0, "rental_uris": {"android": "https://dc.lft.to/lastmile_qr_scan", "ios": "https://dc.lft.to/lastmile_qr_scan"}, "fusion_lon": 0.0, "lat": 38.90503366666667, "bike_id": "f3448e85e9bcc33cf1c3a445fb81fb0b", "type": "electric_scooter", "is_reserved": 0, "lon": -77.05695266666666}, {"fusion_lat": 0.0, "name": "830f7d9e779cc3343047e799ce602713", "is_disabled": 0, "rental_uris": {"android": "https://dc.lft.to/lastmile_qr_scan", "ios": "https://dc.lft.to/lastmile_qr_scan"}, "fusion_lon": 0.0, "lat": 38.905956333333336, "bike_id": "830f7d9e779cc3343047e799ce602713", "type": "electric_scooter", "is_reserved": 0, "lon": -77.0634725}, {"fusion_lat": 0.0, "name": "9c08eb2ba981f91128a451153bdd7f83", "is_disabled": 0, "rental_uris": {"android": "https://dc.lft.to/lastmile_qr_scan", "ios": "https://dc.lft.to/lastmile_qr_scan"}, "fusion_lon": 0.0, "lat": 38.881874, "bike_id": "9c08eb2ba981f91128a451153bdd7f83", "type": "electric_scooter", "is_reserved": 0, "lon": -77.02866583333333}, {"fusion_lat": 0.0, "name": "c1ebd6f3860ccc79efdb7080561e0756", "is_disabled": 0, "rental_uris": {"android": "https://dc.lft.to/lastmile_qr_scan", "ios": "https://dc.lft.to/lastmile_qr_scan"}, "fusion_lon": 0.0, "lat": 38.890908333333336, "bike_id": "c1ebd6f3860ccc79efdb7080561e0756", "type": "electric_scooter", "is_reserved": 0, "lon": -76.919282}, {"fusion_lat": 0.0, "name": "4e5f20983c0109489866e1ca4d874e68", "is_disabled": 0, "rental_uris": {"android": "https://dc.lft.to/lastmile_qr_scan", "ios": "https://dc.lft.to/lastmile_qr_scan"}, "fusion_lon": 0.0, "lat": 38.9381315, "bike_id": "4e5f20983c0109489866e1ca4d874e68", "type": "electric_scooter", "is_reserved": 0, "lon": -76.99689466666666}, {"fusion_lat": 0.0, "name": "68af5bf20f2674eba732621e0ecefc02", "is_disabled": 0, "rental_uris": {"android": "https://dc.lft.to/lastmile_qr_scan", "ios": "https://dc.lft.to/lastmile_qr_scan"}, "fusion_lon": 0.0, "lat": 38.94431316666667, "bike_id": "68af5bf20f2674eba732621e0ecefc02", "type": "electric_bike", "is_reserved": 0, "lon": -77.0260325}, {"fusion_lat": 0.0, "name": "b9209c336ce2767c875166b37b53986d", "is_disabled": 0, "rental_uris": {"android": "https://dc.lft.to/lastmile_qr_scan", "ios": "https://dc.lft.to/lastmile_qr_scan"}, "fusion_lon": 0.0, "lat": 38.90885883333333, "bike_id": "b9209c336ce2767c875166b37b53986d", "type": "electric_scooter", "is_reserved": 0, "lon": -77.043506}, {"fusion_lat": 0.0, "name": "52476dda8889df4815a56d62be980ed3", "is_disabled": 0, "rental_uris": {"android": "https://dc.lft.to/lastmile_qr_scan", "ios": "https://dc.lft.to/lastmile_qr_scan"}, "fusion_lon": 0.0, "lat": 38.93235283333333, "bike_id": "52476dda8889df4815a56d62be980ed3", "type": "electric_scooter", "is_reserved": 0, "lon": -77.03431066666667}, {"fusion_lat": 0.0, "name": "34697bb92a401d62c30abd4190ea841f", "is_disabled": 0, "rental_uris": {"android": "https://dc.lft.to/lastmile_qr_scan", "ios": "https://dc.lft.to/lastmile_qr_scan"}, "fusion_lon": 0.0, "lat": 38.92610666666667, "bike_id": "34697bb92a401d62c30abd4190ea841f", "type": "electric_scooter", "is_reserved": 0, "lon": -77.021663}, {"fusion_lat": 0.0, "name": "82085fd40cffae40abeeaa703d2bddf3", "is_disabled": 0, "rental_uris": {"android": "https://dc.lft.to/lastmile_qr_scan", "ios": "https://dc.lft.to/lastmile_qr_scan"}, "fusion_lon": 0.0, "lat": 38.921589166666664, "bike_id": "82085fd40cffae40abeeaa703d2bddf3", "type": "electric_scooter", "is_reserved": 0, "lon": -77.041231}, {"fusion_lat": 0.0, "name": "e1f4b96b77e77b4abb404f728dfbd177", "is_disabled": 0, "rental_uris": {"android": "https://dc.lft.to/lastmile_qr_scan", "ios": "https://dc.lft.to/lastmile_qr_scan"}, "fusion_lon": 0.0, "lat": 38.800182166666666, "bike_id": "e1f4b96b77e77b4abb404f728dfbd177", "type": "electric_bike", "is_reserved": 0, "lon": -77.054834}, {"fusion_lat": 0.0, "name": "f1ac537e647b111b0be7c0208359cfa4", "is_disabled": 0, "rental_uris": {"android": "https://dc.lft.to/lastmile_qr_scan", "ios": "https://dc.lft.to/lastmile_qr_scan"}, "fusion_lon": 0.0, "lat": 38.93300083333333, "bike_id": "f1ac537e647b111b0be7c0208359cfa4", "type": "electric_scooter", "is_reserved": 0, "lon": -77.03260616666667}, {"fusion_lat": 0.0, "name": "11a274ecd3cb2fef1cede54c503c5be6", "is_disabled": 0, "rental_uris": {"android": "https://dc.lft.to/lastmile_qr_scan", "ios": "https://dc.lft.to/lastmile_qr_scan"}, "fusion_lon": 0.0, "lat": 38.904847, "bike_id": "11a274ecd3cb2fef1cede54c503c5be6", "type": "electric_scooter", "is_reserved": 0, "lon": -77.04359666666667}, {"fusion_lat": 0.0, "name": "7336e786fe5625123925e55e079b3f98", "is_disabled": 0, "rental_uris": {"android": "https://dc.lft.to/lastmile_qr_scan", "ios": "https://dc.lft.to/lastmile_qr_scan"}, "fusion_lon": 0.0, "lat": 38.89015766666667, "bike_id": "7336e786fe5625123925e55e079b3f98", "type": "electric_scooter", "is_reserved": 0, "lon": -76.9373485}, {"fusion_lat": 0.0, "name": "f4ddf5c38c7d72a91945dd3597fbda8f", "is_disabled": 0, "rental_uris": {"android": "https://dc.lft.to/lastmile_qr_scan", "ios": "https://dc.lft.to/lastmile_qr_scan"}, "fusion_lon": 0.0, "lat": 38.906150833333335, "bike_id": "f4ddf5c38c7d72a91945dd3597fbda8f", "type": "electric_scooter", "is_reserved": 0, "lon": -77.02409366666667}, {"fusion_lat": 0.0, "name": "bda502b7414f8b8763fee98694990529", "is_disabled": 0, "rental_uris": {"android": "https://dc.lft.to/lastmile_qr_scan", "ios": "https://dc.lft.to/lastmile_qr_scan"}, "fusion_lon": 0.0, "lat": 38.900362666666666, "bike_id": "bda502b7414f8b8763fee98694990529", "type": "electric_scooter", "is_reserved": 0, "lon": -76.99859833333333}, {"fusion_lat": 0.0, "name": "7c583d3e44c0feeb583a2cf40a7d0a3a", "is_disabled": 0, "rental_uris": {"android": "https://dc.lft.to/lastmile_qr_scan", "ios": "https://dc.lft.to/lastmile_qr_scan"}, "fusion_lon": 0.0, "lat": 38.91935266666667, "bike_id": "7c583d3e44c0feeb583a2cf40a7d0a3a", "type": "electric_scooter", "is_reserved": 0, "lon": -77.07063183333334}, {"fusion_lat": 0.0, "name": "cdcb67781a930f4dd06ae08f2a901270", "is_disabled": 0, "rental_uris": {"android": "https://dc.lft.to/lastmile_qr_scan", "ios": "https://dc.lft.to/lastmile_qr_scan"}, "fusion_lon": 0.0, "lat": 38.9140935, "bike_id": "cdcb67781a930f4dd06ae08f2a901270", "type": "electric_scooter", "is_reserved": 0, "lon": -77.032237}, {"fusion_lat": 0.0, "name": "51896c879074ceb855ad613e6a7f4a20", "is_disabled": 0, "rental_uris": {"android": "https://dc.lft.to/lastmile_qr_scan", "ios": "https://dc.lft.to/lastmile_qr_scan"}, "fusion_lon": 0.0, "lat": 38.91019516666667, "bike_id": "51896c879074ceb855ad613e6a7f4a20", "type": "electric_scooter", "is_reserved": 0, "lon": -77.00917366666667}, {"fusion_lat": 0.0, "name": "cb5abb01c6b9387d03ddc207e9906c11", "is_disabled": 0, "rental_uris": {"android": "https://dc.lft.to/lastmile_qr_scan", "ios": "https://dc.lft.to/lastmile_qr_scan"}, "fusion_lon": 0.0, "lat": 38.900164333333336, "bike_id": "cb5abb01c6b9387d03ddc207e9906c11", "type": "electric_scooter", "is_reserved": 0, "lon": -77.04496633333333}, {"fusion_lat": 0.0, "name": "7ff3647e0ffb7f4eec4f64961617a9fb", "is_disabled": 0, "rental_uris": {"android": "https://dc.lft.to/lastmile_qr_scan", "ios": "https://dc.lft.to/lastmile_qr_scan"}, "fusion_lon": 0.0, "lat": 38.90899233333333, "bike_id": "7ff3647e0ffb7f4eec4f64961617a9fb", "type": "electric_scooter", "is_reserved": 0, "lon": -77.07260983333333}, {"fusion_lat": 0.0, "name": "1ebf861b0b51e8a3bc8326b85e6f68c5", "is_disabled": 0, "rental_uris": {"android": "https://dc.lft.to/lastmile_qr_scan", "ios": "https://dc.lft.to/lastmile_qr_scan"}, "fusion_lon": 0.0, "lat": 38.91553016666667, "bike_id": "1ebf861b0b51e8a3bc8326b85e6f68c5", "type": "electric_scooter", "is_reserved": 0, "lon": -77.03253216666667}, {"fusion_lat": 0.0, "name": "80555fb6cf1e23a7597a63b964635660", "is_disabled": 0, "rental_uris": {"android": "https://dc.lft.to/lastmile_qr_scan", "ios": "https://dc.lft.to/lastmile_qr_scan"}, "fusion_lon": 0.0, "lat": 38.9305975, "bike_id": "80555fb6cf1e23a7597a63b964635660", "type": "electric_scooter", "is_reserved": 0, "lon": -77.0405885}, {"fusion_lat": 0.0, "name": "80617605b13b656376cf2f50c6f93859", "is_disabled": 0, "rental_uris": {"android": "https://dc.lft.to/lastmile_qr_scan", "ios": "https://dc.lft.to/lastmile_qr_scan"}, "fusion_lon": 0.0, "lat": 38.897372, "bike_id": "80617605b13b656376cf2f50c6f93859", "type": "electric_bike", "is_reserved": 0, "lon": -76.9204705}, {"fusion_lat": 0.0, "name": "c1056414044caea788e591bd92834ad5", "is_disabled": 0, "rental_uris": {"android": "https://dc.lft.to/lastmile_qr_scan", "ios": "https://dc.lft.to/lastmile_qr_scan"}, "fusion_lon": 0.0, "lat": 38.9737585, "bike_id": "c1056414044caea788e591bd92834ad5", "type": "electric_scooter", "is_reserved": 0, "lon": -77.01283633333334}, {"fusion_lat": 0.0, "name": "8b35e7fede1cd421fa20fe159563a10d", "is_disabled": 0, "rental_uris": {"android": "https://dc.lft.to/lastmile_qr_scan", "ios": "https://dc.lft.to/lastmile_qr_scan"}, "fusion_lon": 0.0, "lat": 38.908608, "bike_id": "8b35e7fede1cd421fa20fe159563a10d", "type": "electric_scooter", "is_reserved": 0, "lon": -77.0429065}, {"fusion_lat": 0.0, "name": "d38a31857136c260e0389edc33279bf0", "is_disabled": 0, "rental_uris": {"android": "https://dc.lft.to/lastmile_qr_scan", "ios": "https://dc.lft.to/lastmile_qr_scan"}, "fusion_lon": 0.0, "lat": 38.896836666666665, "bike_id": "d38a31857136c260e0389edc33279bf0", "type": "electric_scooter", "is_reserved": 0, "lon": -77.0432855}, {"fusion_lat": 0.0, "name": "0cfdd63cddc3a5c452f8b3587ade9fc0", "is_disabled": 0, "rental_uris": {"android": "https://dc.lft.to/lastmile_qr_scan", "ios": "https://dc.lft.to/lastmile_qr_scan"}, "fusion_lon": 0.0, "lat": 38.91126916666666, "bike_id": "0cfdd63cddc3a5c452f8b3587ade9fc0", "type": "electric_scooter", "is_reserved": 0, "lon": -77.020935}, {"fusion_lat": 0.0, "name": "fe568d7238b3b1978245a338364365e9", "is_disabled": 0, "rental_uris": {"android": "https://dc.lft.to/lastmile_qr_scan", "ios": "https://dc.lft.to/lastmile_qr_scan"}, "fusion_lon": 0.0, "lat": 38.96184983333333, "bike_id": "fe568d7238b3b1978245a338364365e9", "type": "electric_bike", "is_reserved": 0, "lon": -77.05267233333333}, {"fusion_lat": 0.0, "name": "f1c813c6d9ab1ce27a5c7aed8948e776", "is_disabled": 0, "rental_uris": {"android": "https://dc.lft.to/lastmile_qr_scan", "ios": "https://dc.lft.to/lastmile_qr_scan"}, "fusion_lon": 0.0, "lat": 38.911188833333334, "bike_id": "f1c813c6d9ab1ce27a5c7aed8948e776", "type": "electric_scooter", "is_reserved": 0, "lon": -77.02766616666666}, {"fusion_lat": 0.0, "name": "c1e8b754255bfbaa74680cb08d7f460a", "is_disabled": 0, "rental_uris": {"android": "https://dc.lft.to/lastmile_qr_scan", "ios": "https://dc.lft.to/lastmile_qr_scan"}, "fusion_lon": 0.0, "lat": 38.89112433333333, "bike_id": "c1e8b754255bfbaa74680cb08d7f460a", "type": "electric_scooter", "is_reserved": 0, "lon": -76.9438045}, {"fusion_lat": 0.0, "name": "37b005b52562054b4fbbf2d492f84749", "is_disabled": 0, "rental_uris": {"android": "https://dc.lft.to/lastmile_qr_scan", "ios": "https://dc.lft.to/lastmile_qr_scan"}, "fusion_lon": 0.0, "lat": 38.969909, "bike_id": "37b005b52562054b4fbbf2d492f84749", "type": "electric_scooter", "is_reserved": 0, "lon": -77.01159766666666}, {"fusion_lat": 0.0, "name": "b7afc88866432ab980adeea55bd9a1e1", "is_disabled": 0, "rental_uris": {"android": "https://dc.lft.to/lastmile_qr_scan", "ios": "https://dc.lft.to/lastmile_qr_scan"}, "fusion_lon": 0.0, "lat": 38.93132633333333, "bike_id": "b7afc88866432ab980adeea55bd9a1e1", "type": "electric_scooter", "is_reserved": 0, "lon": -77.03266766666667}, {"fusion_lat": 0.0, "name": "4d8ff0147a361633445b4121c6d8b399", "is_disabled": 0, "rental_uris": {"android": "https://dc.lft.to/lastmile_qr_scan", "ios": "https://dc.lft.to/lastmile_qr_scan"}, "fusion_lon": 0.0, "lat": 38.895549833333334, "bike_id": "4d8ff0147a361633445b4121c6d8b399", "type": "electric_scooter", "is_reserved": 0, "lon": -77.027256}, {"fusion_lat": 0.0, "name": "f36c7481c960f81ffb6db0b6e75911ff", "is_disabled": 0, "rental_uris": {"android": "https://dc.lft.to/lastmile_qr_scan", "ios": "https://dc.lft.to/lastmile_qr_scan"}, "fusion_lon": 0.0, "lat": 38.90783966666667, "bike_id": "f36c7481c960f81ffb6db0b6e75911ff", "type": "electric_scooter", "is_reserved": 0, "lon": -77.01116416666666}, {"fusion_lat": 0.0, "name": "836a69e5d90ecdead811467f607c1b21", "is_disabled": 0, "rental_uris": {"android": "https://dc.lft.to/lastmile_qr_scan", "ios": "https://dc.lft.to/lastmile_qr_scan"}, "fusion_lon": 0.0, "lat": 38.89728383333333, "bike_id": "836a69e5d90ecdead811467f607c1b21", "type": "electric_scooter", "is_reserved": 0, "lon": -76.947048}, {"fusion_lat": 0.0, "name": "a5a11c1d205dc204808fe3e4616ad8c1", "is_disabled": 0, "rental_uris": {"android": "https://dc.lft.to/lastmile_qr_scan", "ios": "https://dc.lft.to/lastmile_qr_scan"}, "fusion_lon": 0.0, "lat": 38.9234785, "bike_id": "a5a11c1d205dc204808fe3e4616ad8c1", "type": "electric_scooter", "is_reserved": 0, "lon": -77.02434583333333}, {"fusion_lat": 0.0, "name": "730c4034826938a3825d54cd921553a5", "is_disabled": 0, "rental_uris": {"android": "https://dc.lft.to/lastmile_qr_scan", "ios": "https://dc.lft.to/lastmile_qr_scan"}, "fusion_lon": 0.0, "lat": 38.88771033333333, "bike_id": "730c4034826938a3825d54cd921553a5", "type": "electric_scooter", "is_reserved": 0, "lon": -77.0040605}, {"fusion_lat": 0.0, "name": "21fc9d59f9c9032da3d3924dbf84a95e", "is_disabled": 0, "rental_uris": {"android": "https://dc.lft.to/lastmile_qr_scan", "ios": "https://dc.lft.to/lastmile_qr_scan"}, "fusion_lon": 0.0, "lat": 38.886131166666665, "bike_id": "21fc9d59f9c9032da3d3924dbf84a95e", "type": "electric_scooter", "is_reserved": 0, "lon": -77.012492}, {"fusion_lat": 0.0, "name": "21a0d21323797e1d35ca9fba1ddc950f", "is_disabled": 0, "rental_uris": {"android": "https://dc.lft.to/lastmile_qr_scan", "ios": "https://dc.lft.to/lastmile_qr_scan"}, "fusion_lon": 0.0, "lat": 38.905170166666664, "bike_id": "21a0d21323797e1d35ca9fba1ddc950f", "type": "electric_scooter", "is_reserved": 0, "lon": -77.06882033333333}, {"fusion_lat": 0.0, "name": "73890d045240f1f16e449f04ef025354", "is_disabled": 0, "rental_uris": {"android": "https://dc.lft.to/lastmile_qr_scan", "ios": "https://dc.lft.to/lastmile_qr_scan"}, "fusion_lon": 0.0, "lat": 38.908754333333334, "bike_id": "73890d045240f1f16e449f04ef025354", "type": "electric_scooter", "is_reserved": 0, "lon": -77.06414466666666}, {"fusion_lat": 0.0, "name": "7bc641e32b4682b3e527c292d6340536", "is_disabled": 0, "rental_uris": {"android": "https://dc.lft.to/lastmile_qr_scan", "ios": "https://dc.lft.to/lastmile_qr_scan"}, "fusion_lon": 0.0, "lat": 38.93217416666667, "bike_id": "7bc641e32b4682b3e527c292d6340536", "type": "electric_scooter", "is_reserved": 0, "lon": -77.03518}, {"fusion_lat": 0.0, "name": "421c62711b12d0ce9ce1e3dffe9a1701", "is_disabled": 0, "rental_uris": {"android": "https://dc.lft.to/lastmile_qr_scan", "ios": "https://dc.lft.to/lastmile_qr_scan"}, "fusion_lon": 0.0, "lat": 38.9185695, "bike_id": "421c62711b12d0ce9ce1e3dffe9a1701", "type": "electric_scooter", "is_reserved": 0, "lon": -76.96110383333334}, {"fusion_lat": 0.0, "name": "a5857a213057a30a7d61c30b981cd7bf", "is_disabled": 0, "rental_uris": {"android": "https://dc.lft.to/lastmile_qr_scan", "ios": "https://dc.lft.to/lastmile_qr_scan"}, "fusion_lon": 0.0, "lat": 38.885115666666664, "bike_id": "a5857a213057a30a7d61c30b981cd7bf", "type": "electric_scooter", "is_reserved": 0, "lon": -77.0258175}, {"fusion_lat": 0.0, "name": "40e9b80e7762fa76ace858b4284cd826", "is_disabled": 0, "rental_uris": {"android": "https://dc.lft.to/lastmile_qr_scan", "ios": "https://dc.lft.to/lastmile_qr_scan"}, "fusion_lon": 0.0, "lat": 38.916990166666665, "bike_id": "40e9b80e7762fa76ace858b4284cd826", "type": "electric_scooter", "is_reserved": 0, "lon": -77.028943}, {"fusion_lat": 0.0, "name": "47c6120156d77f3d48f008d0416b0c5f", "is_disabled": 0, "rental_uris": {"android": "https://dc.lft.to/lastmile_qr_scan", "ios": "https://dc.lft.to/lastmile_qr_scan"}, "fusion_lon": 0.0, "lat": 38.915447666666665, "bike_id": "47c6120156d77f3d48f008d0416b0c5f", "type": "electric_scooter", "is_reserved": 0, "lon": -76.98361933333334}, {"fusion_lat": 0.0, "name": "0a015927264b17ea1f3e9a0629e6c8b9", "is_disabled": 0, "rental_uris": {"android": "https://dc.lft.to/lastmile_qr_scan", "ios": "https://dc.lft.to/lastmile_qr_scan"}, "fusion_lon": 0.0, "lat": 38.923187666666664, "bike_id": "0a015927264b17ea1f3e9a0629e6c8b9", "type": "electric_scooter", "is_reserved": 0, "lon": -77.02897933333334}, {"fusion_lat": 0.0, "name": "8825649fc70c731ca52f03da0475d404", "is_disabled": 0, "rental_uris": {"android": "https://dc.lft.to/lastmile_qr_scan", "ios": "https://dc.lft.to/lastmile_qr_scan"}, "fusion_lon": 0.0, "lat": 38.9224835, "bike_id": "8825649fc70c731ca52f03da0475d404", "type": "electric_scooter", "is_reserved": 0, "lon": -77.022177}, {"fusion_lat": 0.0, "name": "26b6d4e112ea71fa5380e20edd6fc29c", "is_disabled": 0, "rental_uris": {"android": "https://dc.lft.to/lastmile_qr_scan", "ios": "https://dc.lft.to/lastmile_qr_scan"}, "fusion_lon": 0.0, "lat": 38.91652, "bike_id": "26b6d4e112ea71fa5380e20edd6fc29c", "type": "electric_scooter", "is_reserved": 0, "lon": -77.02802533333333}, {"fusion_lat": 0.0, "name": "618d9d9584493860bc9b4ea4999defaa", "is_disabled": 0, "rental_uris": {"android": "https://dc.lft.to/lastmile_qr_scan", "ios": "https://dc.lft.to/lastmile_qr_scan"}, "fusion_lon": 0.0, "lat": 38.900647, "bike_id": "618d9d9584493860bc9b4ea4999defaa", "type": "electric_scooter", "is_reserved": 0, "lon": -77.05425316666667}, {"fusion_lat": 0.0, "name": "2bec91e87945bacb3957e62997c26b6e", "is_disabled": 0, "rental_uris": {"android": "https://dc.lft.to/lastmile_qr_scan", "ios": "https://dc.lft.to/lastmile_qr_scan"}, "fusion_lon": 0.0, "lat": 38.91924566666667, "bike_id": "2bec91e87945bacb3957e62997c26b6e", "type": "electric_scooter", "is_reserved": 0, "lon": -77.00970266666667}, {"fusion_lat": 0.0, "name": "ada6329667f8de9c36993209841c174f", "is_disabled": 0, "rental_uris": {"android": "https://dc.lft.to/lastmile_qr_scan", "ios": "https://dc.lft.to/lastmile_qr_scan"}, "fusion_lon": 0.0, "lat": 38.8959915, "bike_id": "ada6329667f8de9c36993209841c174f", "type": "electric_scooter", "is_reserved": 0, "lon": -77.00932833333333}, {"fusion_lat": 0.0, "name": "ea978fbf1ccea97b8c03d35b1c9d0ac0", "is_disabled": 0, "rental_uris": {"android": "https://dc.lft.to/lastmile_qr_scan", "ios": "https://dc.lft.to/lastmile_qr_scan"}, "fusion_lon": 0.0, "lat": 38.92877083333333, "bike_id": "ea978fbf1ccea97b8c03d35b1c9d0ac0", "type": "electric_scooter", "is_reserved": 0, "lon": -77.0135285}, {"fusion_lat": 0.0, "name": "4ecbddea925365833237b6b6126c5639", "is_disabled": 0, "rental_uris": {"android": "https://dc.lft.to/lastmile_qr_scan", "ios": "https://dc.lft.to/lastmile_qr_scan"}, "fusion_lon": 0.0, "lat": 38.886253833333335, "bike_id": "4ecbddea925365833237b6b6126c5639", "type": "electric_scooter", "is_reserved": 0, "lon": -77.01951833333334}, {"fusion_lat": 0.0, "name": "36c8077c6c8104ba408a1046c8ef8bdd", "is_disabled": 0, "rental_uris": {"android": "https://dc.lft.to/lastmile_qr_scan", "ios": "https://dc.lft.to/lastmile_qr_scan"}, "fusion_lon": 0.0, "lat": 38.9089285, "bike_id": "36c8077c6c8104ba408a1046c8ef8bdd", "type": "electric_scooter", "is_reserved": 0, "lon": -76.99861716666666}, {"fusion_lat": 0.0, "name": "cccc76f6aecd40ba853405dc86d50259", "is_disabled": 0, "rental_uris": {"android": "https://dc.lft.to/lastmile_qr_scan", "ios": "https://dc.lft.to/lastmile_qr_scan"}, "fusion_lon": 0.0, "lat": 38.92797366666667, "bike_id": "cccc76f6aecd40ba853405dc86d50259", "type": "electric_scooter", "is_reserved": 0, "lon": -77.05528733333334}, {"fusion_lat": 0.0, "name": "709802d7e2cbfa3b0a5c03822f6baba0", "is_disabled": 0, "rental_uris": {"android": "https://dc.lft.to/lastmile_qr_scan", "ios": "https://dc.lft.to/lastmile_qr_scan"}, "fusion_lon": 0.0, "lat": 38.91696783333333, "bike_id": "709802d7e2cbfa3b0a5c03822f6baba0", "type": "electric_scooter", "is_reserved": 0, "lon": -77.03767733333333}, {"fusion_lat": 0.0, "name": "036e176d99f0d2ecd010f680efbe5be3", "is_disabled": 0, "rental_uris": {"android": "https://dc.lft.to/lastmile_qr_scan", "ios": "https://dc.lft.to/lastmile_qr_scan"}, "fusion_lon": 0.0, "lat": 38.85700033333333, "bike_id": "036e176d99f0d2ecd010f680efbe5be3", "type": "electric_scooter", "is_reserved": 0, "lon": -76.9959195}, {"fusion_lat": 0.0, "name": "22e9160fb562fd0b9d293ec54037f2ed", "is_disabled": 0, "rental_uris": {"android": "https://dc.lft.to/lastmile_qr_scan", "ios": "https://dc.lft.to/lastmile_qr_scan"}, "fusion_lon": 0.0, "lat": 38.906169, "bike_id": "22e9160fb562fd0b9d293ec54037f2ed", "type": "electric_scooter", "is_reserved": 0, "lon": -77.03962866666667}, {"fusion_lat": 0.0, "name": "4428c197f9de5de713e706edd70d7c48", "is_disabled": 0, "rental_uris": {"android": "https://dc.lft.to/lastmile_qr_scan", "ios": "https://dc.lft.to/lastmile_qr_scan"}, "fusion_lon": 0.0, "lat": 38.88186966666667, "bike_id": "4428c197f9de5de713e706edd70d7c48", "type": "electric_scooter", "is_reserved": 0, "lon": -77.0280955}, {"fusion_lat": 0.0, "name": "34005e4c247c04b0354a3632345eb04f", "is_disabled": 0, "rental_uris": {"android": "https://dc.lft.to/lastmile_qr_scan", "ios": "https://dc.lft.to/lastmile_qr_scan"}, "fusion_lon": 0.0, "lat": 38.88985233333333, "bike_id": "34005e4c247c04b0354a3632345eb04f", "type": "electric_scooter", "is_reserved": 0, "lon": -76.98411183333333}, {"fusion_lat": 0.0, "name": "c97467ec45faea8d4ae210f42ab522fb", "is_disabled": 0, "rental_uris": {"android": "https://dc.lft.to/lastmile_qr_scan", "ios": "https://dc.lft.to/lastmile_qr_scan"}, "fusion_lon": 0.0, "lat": 38.8832765, "bike_id": "c97467ec45faea8d4ae210f42ab522fb", "type": "electric_scooter", "is_reserved": 0, "lon": -77.01372383333333}, {"fusion_lat": 0.0, "name": "44ac7d22202a00cb31f58a43a5db22b4", "is_disabled": 0, "rental_uris": {"android": "https://dc.lft.to/lastmile_qr_scan", "ios": "https://dc.lft.to/lastmile_qr_scan"}, "fusion_lon": 0.0, "lat": 38.902828, "bike_id": "44ac7d22202a00cb31f58a43a5db22b4", "type": "electric_scooter", "is_reserved": 0, "lon": -77.043698}, {"fusion_lat": 0.0, "name": "cc9b8e7d12a137230a86476b9c8faaba", "is_disabled": 0, "rental_uris": {"android": "https://dc.lft.to/lastmile_qr_scan", "ios": "https://dc.lft.to/lastmile_qr_scan"}, "fusion_lon": 0.0, "lat": 38.928906, "bike_id": "cc9b8e7d12a137230a86476b9c8faaba", "type": "electric_scooter", "is_reserved": 0, "lon": -77.03263616666666}, {"fusion_lat": 0.0, "name": "60c6e8ff4b15a1d5d45d12fbd761effa", "is_disabled": 0, "rental_uris": {"android": "https://dc.lft.to/lastmile_qr_scan", "ios": "https://dc.lft.to/lastmile_qr_scan"}, "fusion_lon": 0.0, "lat": 39.038895333333336, "bike_id": "60c6e8ff4b15a1d5d45d12fbd761effa", "type": "electric_bike", "is_reserved": 0, "lon": -77.05015716666666}, {"fusion_lat": 0.0, "name": "b49e4333436fbb402bc037ac892c6ee3", "is_disabled": 0, "rental_uris": {"android": "https://dc.lft.to/lastmile_qr_scan", "ios": "https://dc.lft.to/lastmile_qr_scan"}, "fusion_lon": 0.0, "lat": 38.9051575, "bike_id": "b49e4333436fbb402bc037ac892c6ee3", "type": "electric_scooter", "is_reserved": 0, "lon": -77.067655}, {"fusion_lat": 0.0, "name": "d81111f4026c1ebf21179f3040432d1c", "is_disabled": 0, "rental_uris": {"android": "https://dc.lft.to/lastmile_qr_scan", "ios": "https://dc.lft.to/lastmile_qr_scan"}, "fusion_lon": 0.0, "lat": 38.899468, "bike_id": "d81111f4026c1ebf21179f3040432d1c", "type": "electric_scooter", "is_reserved": 0, "lon": -76.997311}, {"fusion_lat": 0.0, "name": "d044b3473e32ae65fca8fccb674effcd", "is_disabled": 0, "rental_uris": {"android": "https://dc.lft.to/lastmile_qr_scan", "ios": "https://dc.lft.to/lastmile_qr_scan"}, "fusion_lon": 0.0, "lat": 38.92273733333333, "bike_id": "d044b3473e32ae65fca8fccb674effcd", "type": "electric_scooter", "is_reserved": 0, "lon": -77.0295515}, {"fusion_lat": 0.0, "name": "cae02324e93dd5ebf7510af314b8492e", "is_disabled": 0, "rental_uris": {"android": "https://dc.lft.to/lastmile_qr_scan", "ios": "https://dc.lft.to/lastmile_qr_scan"}, "fusion_lon": 0.0, "lat": 38.8963975, "bike_id": "cae02324e93dd5ebf7510af314b8492e", "type": "electric_scooter", "is_reserved": 0, "lon": -77.05105}, {"fusion_lat": 0.0, "name": "5fcad90c144398bed52e29b90a75871f", "is_disabled": 0, "rental_uris": {"android": "https://dc.lft.to/lastmile_qr_scan", "ios": "https://dc.lft.to/lastmile_qr_scan"}, "fusion_lon": 0.0, "lat": 38.924479833333336, "bike_id": "5fcad90c144398bed52e29b90a75871f", "type": "electric_scooter", "is_reserved": 0, "lon": -77.00880783333334}, {"fusion_lat": 0.0, "name": "24165fd1bd6dc2cf6b2432f044db69f6", "is_disabled": 0, "rental_uris": {"android": "https://dc.lft.to/lastmile_qr_scan", "ios": "https://dc.lft.to/lastmile_qr_scan"}, "fusion_lon": 0.0, "lat": 38.974128, "bike_id": "24165fd1bd6dc2cf6b2432f044db69f6", "type": "electric_bike", "is_reserved": 0, "lon": -76.99534116666666}, {"fusion_lat": 0.0, "name": "0b0bb41d10134b1f4f87d79ae93f141a", "is_disabled": 0, "rental_uris": {"android": "https://dc.lft.to/lastmile_qr_scan", "ios": "https://dc.lft.to/lastmile_qr_scan"}, "fusion_lon": 0.0, "lat": 38.9298975, "bike_id": "0b0bb41d10134b1f4f87d79ae93f141a", "type": "electric_scooter", "is_reserved": 0, "lon": -77.03231116666667}, {"fusion_lat": 0.0, "name": "78765aab166cf03e9e7095d70447aab1", "is_disabled": 0, "rental_uris": {"android": "https://dc.lft.to/lastmile_qr_scan", "ios": "https://dc.lft.to/lastmile_qr_scan"}, "fusion_lon": 0.0, "lat": 38.90412833333333, "bike_id": "78765aab166cf03e9e7095d70447aab1", "type": "electric_scooter", "is_reserved": 0, "lon": -76.973299}, {"fusion_lat": 0.0, "name": "28911e211f9352bccd15335fac84fa92", "is_disabled": 0, "rental_uris": {"android": "https://dc.lft.to/lastmile_qr_scan", "ios": "https://dc.lft.to/lastmile_qr_scan"}, "fusion_lon": 0.0, "lat": 38.987931833333334, "bike_id": "28911e211f9352bccd15335fac84fa92", "type": "electric_bike", "is_reserved": 0, "lon": -77.14096466666666}, {"fusion_lat": 0.0, "name": "98c20ed1ce53acfed37fdbae8fa0719e", "is_disabled": 0, "rental_uris": {"android": "https://dc.lft.to/lastmile_qr_scan", "ios": "https://dc.lft.to/lastmile_qr_scan"}, "fusion_lon": 0.0, "lat": 38.9416005, "bike_id": "98c20ed1ce53acfed37fdbae8fa0719e", "type": "electric_bike", "is_reserved": 0, "lon": -77.001935}, {"fusion_lat": 0.0, "name": "dac8510e260b9e67a42cbcac1dc43b58", "is_disabled": 0, "rental_uris": {"android": "https://dc.lft.to/lastmile_qr_scan", "ios": "https://dc.lft.to/lastmile_qr_scan"}, "fusion_lon": 0.0, "lat": 38.90388266666667, "bike_id": "dac8510e260b9e67a42cbcac1dc43b58", "type": "electric_scooter", "is_reserved": 0, "lon": -77.01912416666667}, {"fusion_lat": 0.0, "name": "6fbed33d6e9d11760fbcf96aa28d8bd9", "is_disabled": 0, "rental_uris": {"android": "https://dc.lft.to/lastmile_qr_scan", "ios": "https://dc.lft.to/lastmile_qr_scan"}, "fusion_lon": 0.0, "lat": 38.95589733333333, "bike_id": "6fbed33d6e9d11760fbcf96aa28d8bd9", "type": "electric_bike", "is_reserved": 0, "lon": -77.01009516666667}, {"fusion_lat": 0.0, "name": "a3529c775f8b311e1e7f3c81d0794397", "is_disabled": 0, "rental_uris": {"android": "https://dc.lft.to/lastmile_qr_scan", "ios": "https://dc.lft.to/lastmile_qr_scan"}, "fusion_lon": 0.0, "lat": 38.91986983333334, "bike_id": "a3529c775f8b311e1e7f3c81d0794397", "type": "electric_scooter", "is_reserved": 0, "lon": -77.024944}, {"fusion_lat": 0.0, "name": "d9b7697ff336e559b3ad50f4e0b24f69", "is_disabled": 0, "rental_uris": {"android": "https://dc.lft.to/lastmile_qr_scan", "ios": "https://dc.lft.to/lastmile_qr_scan"}, "fusion_lon": 0.0, "lat": 38.8993945, "bike_id": "d9b7697ff336e559b3ad50f4e0b24f69", "type": "electric_scooter", "is_reserved": 0, "lon": -77.05001516666667}, {"fusion_lat": 0.0, "name": "8e7fdf49f3d390d1bac2853232e49000", "is_disabled": 0, "rental_uris": {"android": "https://dc.lft.to/lastmile_qr_scan", "ios": "https://dc.lft.to/lastmile_qr_scan"}, "fusion_lon": 0.0, "lat": 38.90410216666667, "bike_id": "8e7fdf49f3d390d1bac2853232e49000", "type": "electric_scooter", "is_reserved": 0, "lon": -76.97332983333334}, {"fusion_lat": 0.0, "name": "6f095f35a8c7190fb779fd17d4b6306c", "is_disabled": 0, "rental_uris": {"android": "https://dc.lft.to/lastmile_qr_scan", "ios": "https://dc.lft.to/lastmile_qr_scan"}, "fusion_lon": 0.0, "lat": 38.895466166666665, "bike_id": "6f095f35a8c7190fb779fd17d4b6306c", "type": "electric_scooter", "is_reserved": 0, "lon": -76.94946866666666}, {"fusion_lat": 0.0, "name": "6330582cfef26019b45d7671e58a875e", "is_disabled": 0, "rental_uris": {"android": "https://dc.lft.to/lastmile_qr_scan", "ios": "https://dc.lft.to/lastmile_qr_scan"}, "fusion_lon": 0.0, "lat": 38.920120833333335, "bike_id": "6330582cfef26019b45d7671e58a875e", "type": "electric_bike", "is_reserved": 0, "lon": -77.03173416666667}, {"fusion_lat": 0.0, "name": "d147668d7d90726d1ff2294446772a49", "is_disabled": 0, "rental_uris": {"android": "https://dc.lft.to/lastmile_qr_scan", "ios": "https://dc.lft.to/lastmile_qr_scan"}, "fusion_lon": 0.0, "lat": 38.91663116666667, "bike_id": "d147668d7d90726d1ff2294446772a49", "type": "electric_scooter", "is_reserved": 0, "lon": -77.02823833333333}, {"fusion_lat": 0.0, "name": "9f8dcff00690821089bd9d6671ab08f6", "is_disabled": 0, "rental_uris": {"android": "https://dc.lft.to/lastmile_qr_scan", "ios": "https://dc.lft.to/lastmile_qr_scan"}, "fusion_lon": 0.0, "lat": 38.8773785, "bike_id": "9f8dcff00690821089bd9d6671ab08f6", "type": "electric_scooter", "is_reserved": 0, "lon": -76.99636783333334}, {"fusion_lat": 0.0, "name": "c4f96cdfbe040ec9870bdb099e070055", "is_disabled": 0, "rental_uris": {"android": "https://dc.lft.to/lastmile_qr_scan", "ios": "https://dc.lft.to/lastmile_qr_scan"}, "fusion_lon": 0.0, "lat": 38.92342133333333, "bike_id": "c4f96cdfbe040ec9870bdb099e070055", "type": "electric_scooter", "is_reserved": 0, "lon": -77.05227433333333}, {"fusion_lat": 0.0, "name": "9f9c376c43b6bb292786e0fb5e595c29", "is_disabled": 0, "rental_uris": {"android": "https://dc.lft.to/lastmile_qr_scan", "ios": "https://dc.lft.to/lastmile_qr_scan"}, "fusion_lon": 0.0, "lat": 38.804471166666666, "bike_id": "9f9c376c43b6bb292786e0fb5e595c29", "type": "electric_bike", "is_reserved": 0, "lon": -77.0539245}, {"fusion_lat": 0.0, "name": "34a02db5342f4798192f3c5619971f10", "is_disabled": 0, "rental_uris": {"android": "https://dc.lft.to/lastmile_qr_scan", "ios": "https://dc.lft.to/lastmile_qr_scan"}, "fusion_lon": 0.0, "lat": 38.87958416666667, "bike_id": "34a02db5342f4798192f3c5619971f10", "type": "electric_scooter", "is_reserved": 0, "lon": -76.98997616666666}, {"fusion_lat": 0.0, "name": "de441e78d09bc9056c8e4ebf0c5d4c97", "is_disabled": 0, "rental_uris": {"android": "https://dc.lft.to/lastmile_qr_scan", "ios": "https://dc.lft.to/lastmile_qr_scan"}, "fusion_lon": 0.0, "lat": 38.93263983333333, "bike_id": "de441e78d09bc9056c8e4ebf0c5d4c97", "type": "electric_scooter", "is_reserved": 0, "lon": -77.02092016666667}, {"fusion_lat": 0.0, "name": "140ae9d12e6a21dbad5c8f44e44ae106", "is_disabled": 0, "rental_uris": {"android": "https://dc.lft.to/lastmile_qr_scan", "ios": "https://dc.lft.to/lastmile_qr_scan"}, "fusion_lon": 0.0, "lat": 38.890079166666666, "bike_id": "140ae9d12e6a21dbad5c8f44e44ae106", "type": "electric_scooter", "is_reserved": 0, "lon": -76.937444}, {"fusion_lat": 0.0, "name": "88adcbefb88babf9280bb4a476259228", "is_disabled": 0, "rental_uris": {"android": "https://dc.lft.to/lastmile_qr_scan", "ios": "https://dc.lft.to/lastmile_qr_scan"}, "fusion_lon": 0.0, "lat": 38.877538, "bike_id": "88adcbefb88babf9280bb4a476259228", "type": "electric_scooter", "is_reserved": 0, "lon": -77.01428}, {"fusion_lat": 0.0, "name": "89563185b1d5e6d869fb906371adc053", "is_disabled": 0, "rental_uris": {"android": "https://dc.lft.to/lastmile_qr_scan", "ios": "https://dc.lft.to/lastmile_qr_scan"}, "fusion_lon": 0.0, "lat": 38.93472666666667, "bike_id": "89563185b1d5e6d869fb906371adc053", "type": "electric_scooter", "is_reserved": 0, "lon": -77.0414845}, {"fusion_lat": 0.0, "name": "0370f2bce9e6ec347ad005184f9e1249", "is_disabled": 0, "rental_uris": {"android": "https://dc.lft.to/lastmile_qr_scan", "ios": "https://dc.lft.to/lastmile_qr_scan"}, "fusion_lon": 0.0, "lat": 38.90711783333333, "bike_id": "0370f2bce9e6ec347ad005184f9e1249", "type": "electric_scooter", "is_reserved": 0, "lon": -77.05133666666667}, {"fusion_lat": 0.0, "name": "7fecc3caf20f21b2f913cd386d73e719", "is_disabled": 0, "rental_uris": {"android": "https://dc.lft.to/lastmile_qr_scan", "ios": "https://dc.lft.to/lastmile_qr_scan"}, "fusion_lon": 0.0, "lat": 38.8217465, "bike_id": "7fecc3caf20f21b2f913cd386d73e719", "type": "electric_bike", "is_reserved": 0, "lon": -76.99519833333333}, {"fusion_lat": 0.0, "name": "c15eb6c0601a8fc741e3ca8ac185cbbe", "is_disabled": 0, "rental_uris": {"android": "https://dc.lft.to/lastmile_qr_scan", "ios": "https://dc.lft.to/lastmile_qr_scan"}, "fusion_lon": 0.0, "lat": 38.896769166666665, "bike_id": "c15eb6c0601a8fc741e3ca8ac185cbbe", "type": "electric_scooter", "is_reserved": 0, "lon": -77.0513435}, {"fusion_lat": 0.0, "name": "c8237d5b2c68a0b233aad1ecffd8a904", "is_disabled": 0, "rental_uris": {"android": "https://dc.lft.to/lastmile_qr_scan", "ios": "https://dc.lft.to/lastmile_qr_scan"}, "fusion_lon": 0.0, "lat": 38.87844916666667, "bike_id": "c8237d5b2c68a0b233aad1ecffd8a904", "type": "electric_scooter", "is_reserved": 0, "lon": -77.02285983333333}, {"fusion_lat": 0.0, "name": "fec5e842f2a1fd67186b4c6c50a546bb", "is_disabled": 0, "rental_uris": {"android": "https://dc.lft.to/lastmile_qr_scan", "ios": "https://dc.lft.to/lastmile_qr_scan"}, "fusion_lon": 0.0, "lat": 38.90481283333333, "bike_id": "fec5e842f2a1fd67186b4c6c50a546bb", "type": "electric_scooter", "is_reserved": 0, "lon": -77.01907}, {"fusion_lat": 0.0, "name": "76da53bf5589c9eb5463bc376e4bb75d", "is_disabled": 0, "rental_uris": {"android": "https://dc.lft.to/lastmile_qr_scan", "ios": "https://dc.lft.to/lastmile_qr_scan"}, "fusion_lon": 0.0, "lat": 38.8871065, "bike_id": "76da53bf5589c9eb5463bc376e4bb75d", "type": "electric_scooter", "is_reserved": 0, "lon": -77.00248266666667}, {"fusion_lat": 0.0, "name": "95acab4a82bc1ea0f2d63633b8547aca", "is_disabled": 0, "rental_uris": {"android": "https://dc.lft.to/lastmile_qr_scan", "ios": "https://dc.lft.to/lastmile_qr_scan"}, "fusion_lon": 0.0, "lat": 38.88132983333333, "bike_id": "95acab4a82bc1ea0f2d63633b8547aca", "type": "electric_scooter", "is_reserved": 0, "lon": -77.02718883333333}, {"fusion_lat": 0.0, "name": "3548c8a0e2a247f9a77f2bbdc230d8f2", "is_disabled": 0, "rental_uris": {"android": "https://dc.lft.to/lastmile_qr_scan", "ios": "https://dc.lft.to/lastmile_qr_scan"}, "fusion_lon": 0.0, "lat": 38.92121183333333, "bike_id": "3548c8a0e2a247f9a77f2bbdc230d8f2", "type": "electric_scooter", "is_reserved": 0, "lon": -77.01208566666666}, {"fusion_lat": 0.0, "name": "93853f66ae07f839f33ec568744202da", "is_disabled": 0, "rental_uris": {"android": "https://dc.lft.to/lastmile_qr_scan", "ios": "https://dc.lft.to/lastmile_qr_scan"}, "fusion_lon": 0.0, "lat": 38.927403, "bike_id": "93853f66ae07f839f33ec568744202da", "type": "electric_scooter", "is_reserved": 0, "lon": -77.0216195}, {"fusion_lat": 0.0, "name": "f17eb17ab5300f42e1b7183e517bba26", "is_disabled": 0, "rental_uris": {"android": "https://dc.lft.to/lastmile_qr_scan", "ios": "https://dc.lft.to/lastmile_qr_scan"}, "fusion_lon": 0.0, "lat": 38.900228, "bike_id": "f17eb17ab5300f42e1b7183e517bba26", "type": "electric_scooter", "is_reserved": 0, "lon": -77.00206416666667}, {"fusion_lat": 0.0, "name": "ccf4fd3da042fc440e1824322fc96908", "is_disabled": 0, "rental_uris": {"android": "https://dc.lft.to/lastmile_qr_scan", "ios": "https://dc.lft.to/lastmile_qr_scan"}, "fusion_lon": 0.0, "lat": 38.903755, "bike_id": "ccf4fd3da042fc440e1824322fc96908", "type": "electric_scooter", "is_reserved": 0, "lon": -77.04604266666666}, {"fusion_lat": 0.0, "name": "5445cd5f1ef769143f8551f06b63bd21", "is_disabled": 0, "rental_uris": {"android": "https://dc.lft.to/lastmile_qr_scan", "ios": "https://dc.lft.to/lastmile_qr_scan"}, "fusion_lon": 0.0, "lat": 38.908577666666666, "bike_id": "5445cd5f1ef769143f8551f06b63bd21", "type": "electric_scooter", "is_reserved": 0, "lon": -77.02435066666666}, {"fusion_lat": 0.0, "name": "b821d75583fa3c351e60564ab6e9880c", "is_disabled": 0, "rental_uris": {"android": "https://dc.lft.to/lastmile_qr_scan", "ios": "https://dc.lft.to/lastmile_qr_scan"}, "fusion_lon": 0.0, "lat": 38.90764766666667, "bike_id": "b821d75583fa3c351e60564ab6e9880c", "type": "electric_scooter", "is_reserved": 0, "lon": -77.03216816666666}, {"fusion_lat": 0.0, "name": "27906559cb44905bb9b3f7953f212ad1", "is_disabled": 0, "rental_uris": {"android": "https://dc.lft.to/lastmile_qr_scan", "ios": "https://dc.lft.to/lastmile_qr_scan"}, "fusion_lon": 0.0, "lat": 38.919491, "bike_id": "27906559cb44905bb9b3f7953f212ad1", "type": "electric_scooter", "is_reserved": 0, "lon": -77.01784533333333}, {"fusion_lat": 0.0, "name": "a04bef7fc94d6e24f34aaa79bee8d355", "is_disabled": 0, "rental_uris": {"android": "https://dc.lft.to/lastmile_qr_scan", "ios": "https://dc.lft.to/lastmile_qr_scan"}, "fusion_lon": 0.0, "lat": 38.901237, "bike_id": "a04bef7fc94d6e24f34aaa79bee8d355", "type": "electric_scooter", "is_reserved": 0, "lon": -77.03960333333333}, {"fusion_lat": 0.0, "name": "c699c9302ab2318d886a94f675252a9d", "is_disabled": 0, "rental_uris": {"android": "https://dc.lft.to/lastmile_qr_scan", "ios": "https://dc.lft.to/lastmile_qr_scan"}, "fusion_lon": 0.0, "lat": 38.905423666666664, "bike_id": "c699c9302ab2318d886a94f675252a9d", "type": "electric_scooter", "is_reserved": 0, "lon": -77.00709733333333}, {"fusion_lat": 0.0, "name": "c96a18360bdc87c5bd8745e9e27f2c25", "is_disabled": 0, "rental_uris": {"android": "https://dc.lft.to/lastmile_qr_scan", "ios": "https://dc.lft.to/lastmile_qr_scan"}, "fusion_lon": 0.0, "lat": 38.904867, "bike_id": "c96a18360bdc87c5bd8745e9e27f2c25", "type": "electric_scooter", "is_reserved": 0, "lon": -76.94942483333334}, {"fusion_lat": 0.0, "name": "cb06b1ea2bb5ca1b9d81b161880234d6", "is_disabled": 0, "rental_uris": {"android": "https://dc.lft.to/lastmile_qr_scan", "ios": "https://dc.lft.to/lastmile_qr_scan"}, "fusion_lon": 0.0, "lat": 38.90377633333333, "bike_id": "cb06b1ea2bb5ca1b9d81b161880234d6", "type": "electric_scooter", "is_reserved": 0, "lon": -77.043838}, {"fusion_lat": 0.0, "name": "c73962844a9b187b34ec5ff4e7b35fac", "is_disabled": 0, "rental_uris": {"android": "https://dc.lft.to/lastmile_qr_scan", "ios": "https://dc.lft.to/lastmile_qr_scan"}, "fusion_lon": 0.0, "lat": 38.927967, "bike_id": "c73962844a9b187b34ec5ff4e7b35fac", "type": "electric_scooter", "is_reserved": 0, "lon": -76.955603}, {"fusion_lat": 0.0, "name": "047f18ed3402a709fd1a85c021b7fecf", "is_disabled": 0, "rental_uris": {"android": "https://dc.lft.to/lastmile_qr_scan", "ios": "https://dc.lft.to/lastmile_qr_scan"}, "fusion_lon": 0.0, "lat": 38.92721616666667, "bike_id": "047f18ed3402a709fd1a85c021b7fecf", "type": "electric_scooter", "is_reserved": 0, "lon": -77.06013416666667}, {"fusion_lat": 0.0, "name": "6fa893acb32e57720b8004beffed03f5", "is_disabled": 0, "rental_uris": {"android": "https://dc.lft.to/lastmile_qr_scan", "ios": "https://dc.lft.to/lastmile_qr_scan"}, "fusion_lon": 0.0, "lat": 38.924437833333336, "bike_id": "6fa893acb32e57720b8004beffed03f5", "type": "electric_scooter", "is_reserved": 0, "lon": -77.05255583333333}, {"fusion_lat": 0.0, "name": "26268bc9d9a97d03316cffe7cd3fabd2", "is_disabled": 0, "rental_uris": {"android": "https://dc.lft.to/lastmile_qr_scan", "ios": "https://dc.lft.to/lastmile_qr_scan"}, "fusion_lon": 0.0, "lat": 38.94921166666666, "bike_id": "26268bc9d9a97d03316cffe7cd3fabd2", "type": "electric_scooter", "is_reserved": 0, "lon": -77.018526}, {"fusion_lat": 0.0, "name": "d5ec659acdbbde557a0629458692ddc2", "is_disabled": 0, "rental_uris": {"android": "https://dc.lft.to/lastmile_qr_scan", "ios": "https://dc.lft.to/lastmile_qr_scan"}, "fusion_lon": 0.0, "lat": 38.8783715, "bike_id": "d5ec659acdbbde557a0629458692ddc2", "type": "electric_scooter", "is_reserved": 0, "lon": -77.0227775}, {"fusion_lat": 0.0, "name": "e7520258f5711aff7006db8d5486c804", "is_disabled": 0, "rental_uris": {"android": "https://dc.lft.to/lastmile_qr_scan", "ios": "https://dc.lft.to/lastmile_qr_scan"}, "fusion_lon": 0.0, "lat": 38.875641333333334, "bike_id": "e7520258f5711aff7006db8d5486c804", "type": "electric_scooter", "is_reserved": 0, "lon": -77.00940183333333}, {"fusion_lat": 0.0, "name": "8e05ba2424b07ddb05751b11d2bf001c", "is_disabled": 0, "rental_uris": {"android": "https://dc.lft.to/lastmile_qr_scan", "ios": "https://dc.lft.to/lastmile_qr_scan"}, "fusion_lon": 0.0, "lat": 38.882482833333334, "bike_id": "8e05ba2424b07ddb05751b11d2bf001c", "type": "electric_bike", "is_reserved": 0, "lon": -76.96260283333334}, {"fusion_lat": 0.0, "name": "1255c44df94e886e9d669d36bbcf72d5", "is_disabled": 0, "rental_uris": {"android": "https://dc.lft.to/lastmile_qr_scan", "ios": "https://dc.lft.to/lastmile_qr_scan"}, "fusion_lon": 0.0, "lat": 38.90142633333333, "bike_id": "1255c44df94e886e9d669d36bbcf72d5", "type": "electric_scooter", "is_reserved": 0, "lon": -77.03649366666667}, {"fusion_lat": 0.0, "name": "2d845f76fa1b0c356b105c1e43ad39b3", "is_disabled": 0, "rental_uris": {"android": "https://dc.lft.to/lastmile_qr_scan", "ios": "https://dc.lft.to/lastmile_qr_scan"}, "fusion_lon": 0.0, "lat": 38.9881735, "bike_id": "2d845f76fa1b0c356b105c1e43ad39b3", "type": "electric_bike", "is_reserved": 0, "lon": -77.02654866666667}, {"fusion_lat": 0.0, "name": "c2e3a6b295f503d5fe0ac751bdda63c4", "is_disabled": 0, "rental_uris": {"android": "https://dc.lft.to/lastmile_qr_scan", "ios": "https://dc.lft.to/lastmile_qr_scan"}, "fusion_lon": 0.0, "lat": 38.90729133333333, "bike_id": "c2e3a6b295f503d5fe0ac751bdda63c4", "type": "electric_scooter", "is_reserved": 0, "lon": -77.01223066666667}, {"fusion_lat": 0.0, "name": "135fb2cef65bcb8ab922f7f24a3df38b", "is_disabled": 0, "rental_uris": {"android": "https://dc.lft.to/lastmile_qr_scan", "ios": "https://dc.lft.to/lastmile_qr_scan"}, "fusion_lon": 0.0, "lat": 38.9014815, "bike_id": "135fb2cef65bcb8ab922f7f24a3df38b", "type": "electric_scooter", "is_reserved": 0, "lon": -77.03323216666666}, {"fusion_lat": 0.0, "name": "787c510339c76b6f473d6c403e1683fa", "is_disabled": 0, "rental_uris": {"android": "https://dc.lft.to/lastmile_qr_scan", "ios": "https://dc.lft.to/lastmile_qr_scan"}, "fusion_lon": 0.0, "lat": 38.90259433333333, "bike_id": "787c510339c76b6f473d6c403e1683fa", "type": "electric_scooter", "is_reserved": 0, "lon": -76.9746195}, {"fusion_lat": 0.0, "name": "3d5b69b97da88ff286ab9d4bf2bcd60a", "is_disabled": 0, "rental_uris": {"android": "https://dc.lft.to/lastmile_qr_scan", "ios": "https://dc.lft.to/lastmile_qr_scan"}, "fusion_lon": 0.0, "lat": 38.956325, "bike_id": "3d5b69b97da88ff286ab9d4bf2bcd60a", "type": "electric_scooter", "is_reserved": 0, "lon": -77.02318233333334}, {"fusion_lat": 0.0, "name": "57d68ccdd8f11a7d0d9c16ceefff99d8", "is_disabled": 0, "rental_uris": {"android": "https://dc.lft.to/lastmile_qr_scan", "ios": "https://dc.lft.to/lastmile_qr_scan"}, "fusion_lon": 0.0, "lat": 38.952341833333335, "bike_id": "57d68ccdd8f11a7d0d9c16ceefff99d8", "type": "electric_scooter", "is_reserved": 0, "lon": -76.99007266666666}, {"fusion_lat": 0.0, "name": "3f989ab8dcb343d1b1caeba227b06274", "is_disabled": 0, "rental_uris": {"android": "https://dc.lft.to/lastmile_qr_scan", "ios": "https://dc.lft.to/lastmile_qr_scan"}, "fusion_lon": 0.0, "lat": 38.860197666666664, "bike_id": "3f989ab8dcb343d1b1caeba227b06274", "type": "electric_bike", "is_reserved": 0, "lon": -77.12808216666667}, {"fusion_lat": 0.0, "name": "0a15eee9df555ec0b705db8330b97bc9", "is_disabled": 0, "rental_uris": {"android": "https://dc.lft.to/lastmile_qr_scan", "ios": "https://dc.lft.to/lastmile_qr_scan"}, "fusion_lon": 0.0, "lat": 38.92088483333333, "bike_id": "0a15eee9df555ec0b705db8330b97bc9", "type": "electric_scooter", "is_reserved": 0, "lon": -77.023995}, {"fusion_lat": 0.0, "name": "ea20d0bc9f6190a857f9e124201a635d", "is_disabled": 0, "rental_uris": {"android": "https://dc.lft.to/lastmile_qr_scan", "ios": "https://dc.lft.to/lastmile_qr_scan"}, "fusion_lon": 0.0, "lat": 38.90401516666667, "bike_id": "ea20d0bc9f6190a857f9e124201a635d", "type": "electric_scooter", "is_reserved": 0, "lon": -77.02073166666666}, {"fusion_lat": 0.0, "name": "52f3aa3b554cc0877a0a44c87aecee35", "is_disabled": 0, "rental_uris": {"android": "https://dc.lft.to/lastmile_qr_scan", "ios": "https://dc.lft.to/lastmile_qr_scan"}, "fusion_lon": 0.0, "lat": 38.93081016666667, "bike_id": "52f3aa3b554cc0877a0a44c87aecee35", "type": "electric_scooter", "is_reserved": 0, "lon": -77.07759783333333}, {"fusion_lat": 0.0, "name": "e13b5ca8e8bd6ea22ce50f38d4f3032c", "is_disabled": 0, "rental_uris": {"android": "https://dc.lft.to/lastmile_qr_scan", "ios": "https://dc.lft.to/lastmile_qr_scan"}, "fusion_lon": 0.0, "lat": 38.900623333333336, "bike_id": "e13b5ca8e8bd6ea22ce50f38d4f3032c", "type": "electric_scooter", "is_reserved": 0, "lon": -77.04544883333334}, {"fusion_lat": 0.0, "name": "0c151e95cd923b9ce783351b0e7511a6", "is_disabled": 0, "rental_uris": {"android": "https://dc.lft.to/lastmile_qr_scan", "ios": "https://dc.lft.to/lastmile_qr_scan"}, "fusion_lon": 0.0, "lat": 38.90407183333333, "bike_id": "0c151e95cd923b9ce783351b0e7511a6", "type": "electric_scooter", "is_reserved": 0, "lon": -76.973329}, {"fusion_lat": 0.0, "name": "a34f22e510a9b216248fb3ef78321961", "is_disabled": 0, "rental_uris": {"android": "https://dc.lft.to/lastmile_qr_scan", "ios": "https://dc.lft.to/lastmile_qr_scan"}, "fusion_lon": 0.0, "lat": 38.9176865, "bike_id": "a34f22e510a9b216248fb3ef78321961", "type": "electric_scooter", "is_reserved": 0, "lon": -77.014921}, {"fusion_lat": 0.0, "name": "9d84fa4712602b2c7237b3c3bcd5e8b2", "is_disabled": 0, "rental_uris": {"android": "https://dc.lft.to/lastmile_qr_scan", "ios": "https://dc.lft.to/lastmile_qr_scan"}, "fusion_lon": 0.0, "lat": 38.879418, "bike_id": "9d84fa4712602b2c7237b3c3bcd5e8b2", "type": "electric_scooter", "is_reserved": 0, "lon": -77.02377}, {"fusion_lat": 0.0, "name": "70091dfe7e1392c7026da10779a1815c", "is_disabled": 0, "rental_uris": {"android": "https://dc.lft.to/lastmile_qr_scan", "ios": "https://dc.lft.to/lastmile_qr_scan"}, "fusion_lon": 0.0, "lat": 38.90924566666666, "bike_id": "70091dfe7e1392c7026da10779a1815c", "type": "electric_scooter", "is_reserved": 0, "lon": -77.045753}, {"fusion_lat": 0.0, "name": "6672eaf2ddaae265556c45b2e44d1513", "is_disabled": 0, "rental_uris": {"android": "https://dc.lft.to/lastmile_qr_scan", "ios": "https://dc.lft.to/lastmile_qr_scan"}, "fusion_lon": 0.0, "lat": 38.92164316666667, "bike_id": "6672eaf2ddaae265556c45b2e44d1513", "type": "electric_scooter", "is_reserved": 0, "lon": -76.9981135}, {"fusion_lat": 0.0, "name": "3fe57e23ef3bef110ef4bf6243793881", "is_disabled": 0, "rental_uris": {"android": "https://dc.lft.to/lastmile_qr_scan", "ios": "https://dc.lft.to/lastmile_qr_scan"}, "fusion_lon": 0.0, "lat": 38.91124883333333, "bike_id": "3fe57e23ef3bef110ef4bf6243793881", "type": "electric_scooter", "is_reserved": 0, "lon": -77.02202266666667}, {"fusion_lat": 0.0, "name": "aa35ba5f1b54d8acabaf25b04255a184", "is_disabled": 0, "rental_uris": {"android": "https://dc.lft.to/lastmile_qr_scan", "ios": "https://dc.lft.to/lastmile_qr_scan"}, "fusion_lon": 0.0, "lat": 38.90400783333333, "bike_id": "aa35ba5f1b54d8acabaf25b04255a184", "type": "electric_scooter", "is_reserved": 0, "lon": -77.067733}, {"fusion_lat": 0.0, "name": "75e36707efd78841b877a59f8d696176", "is_disabled": 0, "rental_uris": {"android": "https://dc.lft.to/lastmile_qr_scan", "ios": "https://dc.lft.to/lastmile_qr_scan"}, "fusion_lon": 0.0, "lat": 38.863336, "bike_id": "75e36707efd78841b877a59f8d696176", "type": "electric_bike", "is_reserved": 0, "lon": -76.9872325}, {"fusion_lat": 0.0, "name": "8453807677d1be403ebfbc180aaf0117", "is_disabled": 0, "rental_uris": {"android": "https://dc.lft.to/lastmile_qr_scan", "ios": "https://dc.lft.to/lastmile_qr_scan"}, "fusion_lon": 0.0, "lat": 38.879941333333335, "bike_id": "8453807677d1be403ebfbc180aaf0117", "type": "electric_scooter", "is_reserved": 0, "lon": -77.03741483333333}, {"fusion_lat": 0.0, "name": "9a7759768b889d08e51f5b42880914cc", "is_disabled": 0, "rental_uris": {"android": "https://dc.lft.to/lastmile_qr_scan", "ios": "https://dc.lft.to/lastmile_qr_scan"}, "fusion_lon": 0.0, "lat": 38.905513, "bike_id": "9a7759768b889d08e51f5b42880914cc", "type": "electric_scooter", "is_reserved": 0, "lon": -77.06264616666667}, {"fusion_lat": 0.0, "name": "b0543e2cb37744fe58266d177de00e77", "is_disabled": 0, "rental_uris": {"android": "https://dc.lft.to/lastmile_qr_scan", "ios": "https://dc.lft.to/lastmile_qr_scan"}, "fusion_lon": 0.0, "lat": 38.87636233333333, "bike_id": "b0543e2cb37744fe58266d177de00e77", "type": "electric_scooter", "is_reserved": 0, "lon": -77.009143}, {"fusion_lat": 0.0, "name": "22c37a574799bd3e653d5daf08ce7530", "is_disabled": 0, "rental_uris": {"android": "https://dc.lft.to/lastmile_qr_scan", "ios": "https://dc.lft.to/lastmile_qr_scan"}, "fusion_lon": 0.0, "lat": 38.93182916666667, "bike_id": "22c37a574799bd3e653d5daf08ce7530", "type": "electric_scooter", "is_reserved": 0, "lon": -77.04308016666667}, {"fusion_lat": 0.0, "name": "f532c3a21bc5af1040b34565c10b96a0", "is_disabled": 0, "rental_uris": {"android": "https://dc.lft.to/lastmile_qr_scan", "ios": "https://dc.lft.to/lastmile_qr_scan"}, "fusion_lon": 0.0, "lat": 38.90527733333333, "bike_id": "f532c3a21bc5af1040b34565c10b96a0", "type": "electric_scooter", "is_reserved": 0, "lon": -77.05877883333334}, {"fusion_lat": 0.0, "name": "c836f55d7ab067be870b0d6c61688668", "is_disabled": 0, "rental_uris": {"android": "https://dc.lft.to/lastmile_qr_scan", "ios": "https://dc.lft.to/lastmile_qr_scan"}, "fusion_lon": 0.0, "lat": 38.885087166666665, "bike_id": "c836f55d7ab067be870b0d6c61688668", "type": "electric_scooter", "is_reserved": 0, "lon": -77.02095616666666}, {"fusion_lat": 0.0, "name": "d04e315121cc1ba49adb61f5751a6d09", "is_disabled": 0, "rental_uris": {"android": "https://dc.lft.to/lastmile_qr_scan", "ios": "https://dc.lft.to/lastmile_qr_scan"}, "fusion_lon": 0.0, "lat": 38.90401283333333, "bike_id": "d04e315121cc1ba49adb61f5751a6d09", "type": "electric_scooter", "is_reserved": 0, "lon": -76.98094933333333}, {"fusion_lat": 0.0, "name": "ceadd5abbda84b9d0395ccab80649380", "is_disabled": 0, "rental_uris": {"android": "https://dc.lft.to/lastmile_qr_scan", "ios": "https://dc.lft.to/lastmile_qr_scan"}, "fusion_lon": 0.0, "lat": 38.88759016666667, "bike_id": "ceadd5abbda84b9d0395ccab80649380", "type": "electric_scooter", "is_reserved": 0, "lon": -77.002578}, {"fusion_lat": 0.0, "name": "e67ff154ff1dca9961081e455487ab60", "is_disabled": 0, "rental_uris": {"android": "https://dc.lft.to/lastmile_qr_scan", "ios": "https://dc.lft.to/lastmile_qr_scan"}, "fusion_lon": 0.0, "lat": 38.92197616666667, "bike_id": "e67ff154ff1dca9961081e455487ab60", "type": "electric_scooter", "is_reserved": 0, "lon": -77.0504895}, {"fusion_lat": 0.0, "name": "e29a075ddcdde5f27087dd580282076f", "is_disabled": 0, "rental_uris": {"android": "https://dc.lft.to/lastmile_qr_scan", "ios": "https://dc.lft.to/lastmile_qr_scan"}, "fusion_lon": 0.0, "lat": 38.84138216666667, "bike_id": "e29a075ddcdde5f27087dd580282076f", "type": "electric_bike", "is_reserved": 0, "lon": -76.9476345}, {"fusion_lat": 0.0, "name": "37e6e15442fe7284f3e43d218c7e0cdc", "is_disabled": 0, "rental_uris": {"android": "https://dc.lft.to/lastmile_qr_scan", "ios": "https://dc.lft.to/lastmile_qr_scan"}, "fusion_lon": 0.0, "lat": 38.92438816666667, "bike_id": "37e6e15442fe7284f3e43d218c7e0cdc", "type": "electric_scooter", "is_reserved": 0, "lon": -77.00069083333334}, {"fusion_lat": 0.0, "name": "4a2ef532da39eb7b9187f02bf6fcb1ea", "is_disabled": 0, "rental_uris": {"android": "https://dc.lft.to/lastmile_qr_scan", "ios": "https://dc.lft.to/lastmile_qr_scan"}, "fusion_lon": 0.0, "lat": 38.912668833333335, "bike_id": "4a2ef532da39eb7b9187f02bf6fcb1ea", "type": "electric_scooter", "is_reserved": 0, "lon": -77.01225666666667}, {"fusion_lat": 0.0, "name": "eb7b1f430d10552dd54689c512898f5c", "is_disabled": 0, "rental_uris": {"android": "https://dc.lft.to/lastmile_qr_scan", "ios": "https://dc.lft.to/lastmile_qr_scan"}, "fusion_lon": 0.0, "lat": 38.873787666666665, "bike_id": "eb7b1f430d10552dd54689c512898f5c", "type": "electric_scooter", "is_reserved": 0, "lon": -77.00090183333333}, {"fusion_lat": 0.0, "name": "78226e02238dc4d15c9514613c034958", "is_disabled": 0, "rental_uris": {"android": "https://dc.lft.to/lastmile_qr_scan", "ios": "https://dc.lft.to/lastmile_qr_scan"}, "fusion_lon": 0.0, "lat": 38.90857233333333, "bike_id": "78226e02238dc4d15c9514613c034958", "type": "electric_scooter", "is_reserved": 0, "lon": -77.04546816666667}, {"fusion_lat": 0.0, "name": "8903595aa416daad1cc23e4d0efff0f7", "is_disabled": 0, "rental_uris": {"android": "https://dc.lft.to/lastmile_qr_scan", "ios": "https://dc.lft.to/lastmile_qr_scan"}, "fusion_lon": 0.0, "lat": 38.94837366666667, "bike_id": "8903595aa416daad1cc23e4d0efff0f7", "type": "electric_scooter", "is_reserved": 0, "lon": -77.079803}, {"fusion_lat": 0.0, "name": "b6a53251e30485d98054ee662ea1a4ab", "is_disabled": 0, "rental_uris": {"android": "https://dc.lft.to/lastmile_qr_scan", "ios": "https://dc.lft.to/lastmile_qr_scan"}, "fusion_lon": 0.0, "lat": 38.87473166666667, "bike_id": "b6a53251e30485d98054ee662ea1a4ab", "type": "electric_scooter", "is_reserved": 0, "lon": -77.00562933333333}, {"fusion_lat": 0.0, "name": "0a6766d5f9804e008341908e19cbe4ea", "is_disabled": 0, "rental_uris": {"android": "https://dc.lft.to/lastmile_qr_scan", "ios": "https://dc.lft.to/lastmile_qr_scan"}, "fusion_lon": 0.0, "lat": 38.88479066666667, "bike_id": "0a6766d5f9804e008341908e19cbe4ea", "type": "electric_scooter", "is_reserved": 0, "lon": -76.94977433333334}, {"fusion_lat": 0.0, "name": "65956a7d10f46b70f9232e1a66714884", "is_disabled": 0, "rental_uris": {"android": "https://dc.lft.to/lastmile_qr_scan", "ios": "https://dc.lft.to/lastmile_qr_scan"}, "fusion_lon": 0.0, "lat": 38.961300333333334, "bike_id": "65956a7d10f46b70f9232e1a66714884", "type": "electric_bike", "is_reserved": 0, "lon": -77.03275183333334}, {"fusion_lat": 0.0, "name": "aa1ae105a62771fd0fa2b6b644b063b4", "is_disabled": 0, "rental_uris": {"android": "https://dc.lft.to/lastmile_qr_scan", "ios": "https://dc.lft.to/lastmile_qr_scan"}, "fusion_lon": 0.0, "lat": 38.8762775, "bike_id": "aa1ae105a62771fd0fa2b6b644b063b4", "type": "electric_scooter", "is_reserved": 0, "lon": -77.001188}, {"fusion_lat": 0.0, "name": "2370c2d641e92f0ff86bfa1bd898e963", "is_disabled": 0, "rental_uris": {"android": "https://dc.lft.to/lastmile_qr_scan", "ios": "https://dc.lft.to/lastmile_qr_scan"}, "fusion_lon": 0.0, "lat": 38.90963416666666, "bike_id": "2370c2d641e92f0ff86bfa1bd898e963", "type": "electric_scooter", "is_reserved": 0, "lon": -77.04804483333334}, {"fusion_lat": 0.0, "name": "266df0abfbd885f3cf36e334c4ebbf47", "is_disabled": 0, "rental_uris": {"android": "https://dc.lft.to/lastmile_qr_scan", "ios": "https://dc.lft.to/lastmile_qr_scan"}, "fusion_lon": 0.0, "lat": 38.916304, "bike_id": "266df0abfbd885f3cf36e334c4ebbf47", "type": "electric_scooter", "is_reserved": 0, "lon": -77.02962683333334}, {"fusion_lat": 0.0, "name": "daca9f1127e03b1f32ad853e985eeabc", "is_disabled": 0, "rental_uris": {"android": "https://dc.lft.to/lastmile_qr_scan", "ios": "https://dc.lft.to/lastmile_qr_scan"}, "fusion_lon": 0.0, "lat": 38.900991833333336, "bike_id": "daca9f1127e03b1f32ad853e985eeabc", "type": "electric_scooter", "is_reserved": 0, "lon": -77.05807516666667}, {"fusion_lat": 0.0, "name": "b3c8d49896aed5c70161776f3a5ddfab", "is_disabled": 0, "rental_uris": {"android": "https://dc.lft.to/lastmile_qr_scan", "ios": "https://dc.lft.to/lastmile_qr_scan"}, "fusion_lon": 0.0, "lat": 38.88473233333333, "bike_id": "b3c8d49896aed5c70161776f3a5ddfab", "type": "electric_scooter", "is_reserved": 0, "lon": -76.92940616666667}, {"fusion_lat": 0.0, "name": "72ecbf14d68f1b5c5709b9dbe7fa1f59", "is_disabled": 0, "rental_uris": {"android": "https://dc.lft.to/lastmile_qr_scan", "ios": "https://dc.lft.to/lastmile_qr_scan"}, "fusion_lon": 0.0, "lat": 38.92154166666667, "bike_id": "72ecbf14d68f1b5c5709b9dbe7fa1f59", "type": "electric_scooter", "is_reserved": 0, "lon": -77.04333016666666}, {"fusion_lat": 0.0, "name": "b6e0c8f70767ab6ce62832ff26a78eb6", "is_disabled": 0, "rental_uris": {"android": "https://dc.lft.to/lastmile_qr_scan", "ios": "https://dc.lft.to/lastmile_qr_scan"}, "fusion_lon": 0.0, "lat": 38.89895466666667, "bike_id": "b6e0c8f70767ab6ce62832ff26a78eb6", "type": "electric_scooter", "is_reserved": 0, "lon": -77.03284366666666}, {"fusion_lat": 0.0, "name": "f84911646040c53eb052e55089a34f6d", "is_disabled": 0, "rental_uris": {"android": "https://dc.lft.to/lastmile_qr_scan", "ios": "https://dc.lft.to/lastmile_qr_scan"}, "fusion_lon": 0.0, "lat": 38.95286616666667, "bike_id": "f84911646040c53eb052e55089a34f6d", "type": "electric_scooter", "is_reserved": 0, "lon": -77.06865233333333}, {"fusion_lat": 0.0, "name": "7e2cb0983270afad174825f2adcb8d95", "is_disabled": 0, "rental_uris": {"android": "https://dc.lft.to/lastmile_qr_scan", "ios": "https://dc.lft.to/lastmile_qr_scan"}, "fusion_lon": 0.0, "lat": 38.928985833333336, "bike_id": "7e2cb0983270afad174825f2adcb8d95", "type": "electric_bike", "is_reserved": 0, "lon": -77.23177666666666}, {"fusion_lat": 0.0, "name": "d19e32955d6ff386f5d25d8d3eafa6de", "is_disabled": 0, "rental_uris": {"android": "https://dc.lft.to/lastmile_qr_scan", "ios": "https://dc.lft.to/lastmile_qr_scan"}, "fusion_lon": 0.0, "lat": 38.897472666666665, "bike_id": "d19e32955d6ff386f5d25d8d3eafa6de", "type": "electric_scooter", "is_reserved": 0, "lon": -77.01997666666666}, {"fusion_lat": 0.0, "name": "a058d83c84b133ee10eacef88d04fefb", "is_disabled": 0, "rental_uris": {"android": "https://dc.lft.to/lastmile_qr_scan", "ios": "https://dc.lft.to/lastmile_qr_scan"}, "fusion_lon": 0.0, "lat": 38.90380433333333, "bike_id": "a058d83c84b133ee10eacef88d04fefb", "type": "electric_scooter", "is_reserved": 0, "lon": -77.01785033333333}, {"fusion_lat": 0.0, "name": "9ce4207c9c044dfa34f164acebdf0188", "is_disabled": 0, "rental_uris": {"android": "https://dc.lft.to/lastmile_qr_scan", "ios": "https://dc.lft.to/lastmile_qr_scan"}, "fusion_lon": 0.0, "lat": 38.897695666666664, "bike_id": "9ce4207c9c044dfa34f164acebdf0188", "type": "electric_scooter", "is_reserved": 0, "lon": -77.01226216666667}, {"fusion_lat": 0.0, "name": "57b4d1e9b9df88d7e8ef3640410bc4ce", "is_disabled": 0, "rental_uris": {"android": "https://dc.lft.to/lastmile_qr_scan", "ios": "https://dc.lft.to/lastmile_qr_scan"}, "fusion_lon": 0.0, "lat": 38.92128316666667, "bike_id": "57b4d1e9b9df88d7e8ef3640410bc4ce", "type": "electric_scooter", "is_reserved": 0, "lon": -77.00962483333333}, {"fusion_lat": 0.0, "name": "7ff6aa4cc2bd65dedc66d5dfad7c0c5c", "is_disabled": 0, "rental_uris": {"android": "https://dc.lft.to/lastmile_qr_scan", "ios": "https://dc.lft.to/lastmile_qr_scan"}, "fusion_lon": 0.0, "lat": 38.887711, "bike_id": "7ff6aa4cc2bd65dedc66d5dfad7c0c5c", "type": "electric_scooter", "is_reserved": 0, "lon": -76.97749933333333}, {"fusion_lat": 0.0, "name": "8ac0cf3735f833e9bac796dc19991684", "is_disabled": 0, "rental_uris": {"android": "https://dc.lft.to/lastmile_qr_scan", "ios": "https://dc.lft.to/lastmile_qr_scan"}, "fusion_lon": 0.0, "lat": 38.91016366666667, "bike_id": "8ac0cf3735f833e9bac796dc19991684", "type": "electric_scooter", "is_reserved": 0, "lon": -77.03850833333334}, {"fusion_lat": 0.0, "name": "67b5f428c098eb7edd4d02d27b937973", "is_disabled": 0, "rental_uris": {"android": "https://dc.lft.to/lastmile_qr_scan", "ios": "https://dc.lft.to/lastmile_qr_scan"}, "fusion_lon": 0.0, "lat": 38.873776166666666, "bike_id": "67b5f428c098eb7edd4d02d27b937973", "type": "electric_scooter", "is_reserved": 0, "lon": -77.000908}, {"fusion_lat": 0.0, "name": "3d93f80f35cc0a53814a2e42e972b72b", "is_disabled": 0, "rental_uris": {"android": "https://dc.lft.to/lastmile_qr_scan", "ios": "https://dc.lft.to/lastmile_qr_scan"}, "fusion_lon": 0.0, "lat": 38.90978616666666, "bike_id": "3d93f80f35cc0a53814a2e42e972b72b", "type": "electric_scooter", "is_reserved": 0, "lon": -77.00886466666667}, {"fusion_lat": 0.0, "name": "ddc2d5066ceaed4b658f145eeb5a7d9a", "is_disabled": 0, "rental_uris": {"android": "https://dc.lft.to/lastmile_qr_scan", "ios": "https://dc.lft.to/lastmile_qr_scan"}, "fusion_lon": 0.0, "lat": 38.89237333333333, "bike_id": "ddc2d5066ceaed4b658f145eeb5a7d9a", "type": "electric_scooter", "is_reserved": 0, "lon": -77.01711216666666}, {"fusion_lat": 0.0, "name": "d03e4e4c7467b80d137fba26ae80ed18", "is_disabled": 0, "rental_uris": {"android": "https://dc.lft.to/lastmile_qr_scan", "ios": "https://dc.lft.to/lastmile_qr_scan"}, "fusion_lon": 0.0, "lat": 38.886164, "bike_id": "d03e4e4c7467b80d137fba26ae80ed18", "type": "electric_scooter", "is_reserved": 0, "lon": -77.01557616666666}, {"fusion_lat": 0.0, "name": "3ff21258fdc469e7465f3bff84ebd522", "is_disabled": 0, "rental_uris": {"android": "https://dc.lft.to/lastmile_qr_scan", "ios": "https://dc.lft.to/lastmile_qr_scan"}, "fusion_lon": 0.0, "lat": 38.88734516666667, "bike_id": "3ff21258fdc469e7465f3bff84ebd522", "type": "electric_scooter", "is_reserved": 0, "lon": -76.99488283333334}, {"fusion_lat": 0.0, "name": "2fcfe70c3846625ef5c4b9339a9eb94e", "is_disabled": 0, "rental_uris": {"android": "https://dc.lft.to/lastmile_qr_scan", "ios": "https://dc.lft.to/lastmile_qr_scan"}, "fusion_lon": 0.0, "lat": 38.854599666666665, "bike_id": "2fcfe70c3846625ef5c4b9339a9eb94e", "type": "electric_scooter", "is_reserved": 0, "lon": -76.9723515}, {"fusion_lat": 0.0, "name": "6fe0cd5cda6d7e9ae155e44eff6c07fa", "is_disabled": 0, "rental_uris": {"android": "https://dc.lft.to/lastmile_qr_scan", "ios": "https://dc.lft.to/lastmile_qr_scan"}, "fusion_lon": 0.0, "lat": 38.928524, "bike_id": "6fe0cd5cda6d7e9ae155e44eff6c07fa", "type": "electric_scooter", "is_reserved": 0, "lon": -77.024402}, {"fusion_lat": 0.0, "name": "82ff0ee63ce89bef4228b72c00be3dd1", "is_disabled": 0, "rental_uris": {"android": "https://dc.lft.to/lastmile_qr_scan", "ios": "https://dc.lft.to/lastmile_qr_scan"}, "fusion_lon": 0.0, "lat": 38.90967083333334, "bike_id": "82ff0ee63ce89bef4228b72c00be3dd1", "type": "electric_scooter", "is_reserved": 0, "lon": -77.03328716666667}, {"fusion_lat": 0.0, "name": "3fb80b661754eb7f638c5643a9ba4f57", "is_disabled": 0, "rental_uris": {"android": "https://dc.lft.to/lastmile_qr_scan", "ios": "https://dc.lft.to/lastmile_qr_scan"}, "fusion_lon": 0.0, "lat": 38.931838166666665, "bike_id": "3fb80b661754eb7f638c5643a9ba4f57", "type": "electric_scooter", "is_reserved": 0, "lon": -77.0430105}, {"fusion_lat": 0.0, "name": "37806bbbe0ae970bbd1b8548edfb308b", "is_disabled": 0, "rental_uris": {"android": "https://dc.lft.to/lastmile_qr_scan", "ios": "https://dc.lft.to/lastmile_qr_scan"}, "fusion_lon": 0.0, "lat": 38.92181766666667, "bike_id": "37806bbbe0ae970bbd1b8548edfb308b", "type": "electric_scooter", "is_reserved": 0, "lon": -77.0253385}, {"fusion_lat": 0.0, "name": "ffd1292ed9786b1675777f57b982f384", "is_disabled": 0, "rental_uris": {"android": "https://dc.lft.to/lastmile_qr_scan", "ios": "https://dc.lft.to/lastmile_qr_scan"}, "fusion_lon": 0.0, "lat": 38.90232433333333, "bike_id": "ffd1292ed9786b1675777f57b982f384", "type": "electric_bike", "is_reserved": 0, "lon": -77.02305183333333}, {"fusion_lat": 0.0, "name": "f76cad91b27a0d5f8c88d52d231a6110", "is_disabled": 0, "rental_uris": {"android": "https://dc.lft.to/lastmile_qr_scan", "ios": "https://dc.lft.to/lastmile_qr_scan"}, "fusion_lon": 0.0, "lat": 38.87915533333333, "bike_id": "f76cad91b27a0d5f8c88d52d231a6110", "type": "electric_scooter", "is_reserved": 0, "lon": -77.00879466666666}, {"fusion_lat": 0.0, "name": "8732e02085264fd7051c19e42a52ce99", "is_disabled": 0, "rental_uris": {"android": "https://dc.lft.to/lastmile_qr_scan", "ios": "https://dc.lft.to/lastmile_qr_scan"}, "fusion_lon": 0.0, "lat": 38.89875683333333, "bike_id": "8732e02085264fd7051c19e42a52ce99", "type": "electric_scooter", "is_reserved": 0, "lon": -76.93185616666666}, {"fusion_lat": 0.0, "name": "8877c77b996445e76e3812a78e9d8c30", "is_disabled": 0, "rental_uris": {"android": "https://dc.lft.to/lastmile_qr_scan", "ios": "https://dc.lft.to/lastmile_qr_scan"}, "fusion_lon": 0.0, "lat": 38.920807, "bike_id": "8877c77b996445e76e3812a78e9d8c30", "type": "electric_scooter", "is_reserved": 0, "lon": -77.02304816666667}, {"fusion_lat": 0.0, "name": "0cee7f74c48a9d46c7f8cbf12d404f79", "is_disabled": 0, "rental_uris": {"android": "https://dc.lft.to/lastmile_qr_scan", "ios": "https://dc.lft.to/lastmile_qr_scan"}, "fusion_lon": 0.0, "lat": 38.92862733333333, "bike_id": "0cee7f74c48a9d46c7f8cbf12d404f79", "type": "electric_scooter", "is_reserved": 0, "lon": -77.03501966666667}, {"fusion_lat": 0.0, "name": "bb18cbf1a9f3f4d90413b4bc6ae70169", "is_disabled": 0, "rental_uris": {"android": "https://dc.lft.to/lastmile_qr_scan", "ios": "https://dc.lft.to/lastmile_qr_scan"}, "fusion_lon": 0.0, "lat": 38.930992, "bike_id": "bb18cbf1a9f3f4d90413b4bc6ae70169", "type": "electric_scooter", "is_reserved": 0, "lon": -77.0247315}, {"fusion_lat": 0.0, "name": "a6d47493697850424444be341b814122", "is_disabled": 0, "rental_uris": {"android": "https://dc.lft.to/lastmile_qr_scan", "ios": "https://dc.lft.to/lastmile_qr_scan"}, "fusion_lon": 0.0, "lat": 38.876545666666665, "bike_id": "a6d47493697850424444be341b814122", "type": "electric_scooter", "is_reserved": 0, "lon": -77.00924533333334}, {"fusion_lat": 0.0, "name": "f2d2d6ef051f0309fa1953d65bdf1fd4", "is_disabled": 0, "rental_uris": {"android": "https://dc.lft.to/lastmile_qr_scan", "ios": "https://dc.lft.to/lastmile_qr_scan"}, "fusion_lon": 0.0, "lat": 38.901412666666666, "bike_id": "f2d2d6ef051f0309fa1953d65bdf1fd4", "type": "electric_scooter", "is_reserved": 0, "lon": -77.00069533333334}, {"fusion_lat": 0.0, "name": "391c159109cf4a68f950728c2162064d", "is_disabled": 0, "rental_uris": {"android": "https://dc.lft.to/lastmile_qr_scan", "ios": "https://dc.lft.to/lastmile_qr_scan"}, "fusion_lon": 0.0, "lat": 38.92917816666667, "bike_id": "391c159109cf4a68f950728c2162064d", "type": "electric_scooter", "is_reserved": 0, "lon": -77.020915}, {"fusion_lat": 0.0, "name": "edcfba38fe124327c61d74e5666eb4ba", "is_disabled": 0, "rental_uris": {"android": "https://dc.lft.to/lastmile_qr_scan", "ios": "https://dc.lft.to/lastmile_qr_scan"}, "fusion_lon": 0.0, "lat": 38.95881116666666, "bike_id": "edcfba38fe124327c61d74e5666eb4ba", "type": "electric_scooter", "is_reserved": 0, "lon": -77.01167083333333}, {"fusion_lat": 0.0, "name": "2906e23dc864f8d9b891cb4c2a6d7c35", "is_disabled": 0, "rental_uris": {"android": "https://dc.lft.to/lastmile_qr_scan", "ios": "https://dc.lft.to/lastmile_qr_scan"}, "fusion_lon": 0.0, "lat": 38.915682, "bike_id": "2906e23dc864f8d9b891cb4c2a6d7c35", "type": "electric_scooter", "is_reserved": 0, "lon": -77.02202333333334}, {"fusion_lat": 0.0, "name": "6411611f93a99d7475c12163a23472fe", "is_disabled": 0, "rental_uris": {"android": "https://dc.lft.to/lastmile_qr_scan", "ios": "https://dc.lft.to/lastmile_qr_scan"}, "fusion_lon": 0.0, "lat": 38.87913233333333, "bike_id": "6411611f93a99d7475c12163a23472fe", "type": "electric_scooter", "is_reserved": 0, "lon": -77.00888}, {"fusion_lat": 0.0, "name": "56970e60088862770cef3ad8977a18c6", "is_disabled": 0, "rental_uris": {"android": "https://dc.lft.to/lastmile_qr_scan", "ios": "https://dc.lft.to/lastmile_qr_scan"}, "fusion_lon": 0.0, "lat": 38.91453833333333, "bike_id": "56970e60088862770cef3ad8977a18c6", "type": "electric_scooter", "is_reserved": 0, "lon": -77.0320805}, {"fusion_lat": 0.0, "name": "cc03607f49d3cc16661aeff54cb5312b", "is_disabled": 0, "rental_uris": {"android": "https://dc.lft.to/lastmile_qr_scan", "ios": "https://dc.lft.to/lastmile_qr_scan"}, "fusion_lon": 0.0, "lat": 38.923212166666666, "bike_id": "cc03607f49d3cc16661aeff54cb5312b", "type": "electric_scooter", "is_reserved": 0, "lon": -77.02131483333334}, {"fusion_lat": 0.0, "name": "d9ec5931526fd3f99f8481c9cf37c17d", "is_disabled": 0, "rental_uris": {"android": "https://dc.lft.to/lastmile_qr_scan", "ios": "https://dc.lft.to/lastmile_qr_scan"}, "fusion_lon": 0.0, "lat": 38.90927716666667, "bike_id": "d9ec5931526fd3f99f8481c9cf37c17d", "type": "electric_scooter", "is_reserved": 0, "lon": -77.03842966666667}, {"fusion_lat": 0.0, "name": "3d30b84c3af0e753c4da18793091e969", "is_disabled": 0, "rental_uris": {"android": "https://dc.lft.to/lastmile_qr_scan", "ios": "https://dc.lft.to/lastmile_qr_scan"}, "fusion_lon": 0.0, "lat": 38.92079283333333, "bike_id": "3d30b84c3af0e753c4da18793091e969", "type": "electric_bike", "is_reserved": 0, "lon": -76.989444}, {"fusion_lat": 0.0, "name": "d7eff23fe3e0ac9fecbb757c7fc4e337", "is_disabled": 0, "rental_uris": {"android": "https://dc.lft.to/lastmile_qr_scan", "ios": "https://dc.lft.to/lastmile_qr_scan"}, "fusion_lon": 0.0, "lat": 38.897313, "bike_id": "d7eff23fe3e0ac9fecbb757c7fc4e337", "type": "electric_scooter", "is_reserved": 0, "lon": -77.0033475}, {"fusion_lat": 0.0, "name": "c3fe7312ec784147378ede1dfb6fb34f", "is_disabled": 0, "rental_uris": {"android": "https://dc.lft.to/lastmile_qr_scan", "ios": "https://dc.lft.to/lastmile_qr_scan"}, "fusion_lon": 0.0, "lat": 38.885223, "bike_id": "c3fe7312ec784147378ede1dfb6fb34f", "type": "electric_scooter", "is_reserved": 0, "lon": -77.015059}, {"fusion_lat": 0.0, "name": "3ab90ddab5e1f7a9bf12e4fe224be521", "is_disabled": 0, "rental_uris": {"android": "https://dc.lft.to/lastmile_qr_scan", "ios": "https://dc.lft.to/lastmile_qr_scan"}, "fusion_lon": 0.0, "lat": 38.89327766666667, "bike_id": "3ab90ddab5e1f7a9bf12e4fe224be521", "type": "electric_scooter", "is_reserved": 0, "lon": -77.022427}, {"fusion_lat": 0.0, "name": "feddafb1cb9a93321cdd29626c336bf6", "is_disabled": 0, "rental_uris": {"android": "https://dc.lft.to/lastmile_qr_scan", "ios": "https://dc.lft.to/lastmile_qr_scan"}, "fusion_lon": 0.0, "lat": 38.901012333333334, "bike_id": "feddafb1cb9a93321cdd29626c336bf6", "type": "electric_scooter", "is_reserved": 0, "lon": -77.05168333333333}, {"fusion_lat": 0.0, "name": "079ec21e8befbe33664869c95723633a", "is_disabled": 0, "rental_uris": {"android": "https://dc.lft.to/lastmile_qr_scan", "ios": "https://dc.lft.to/lastmile_qr_scan"}, "fusion_lon": 0.0, "lat": 38.902702, "bike_id": "079ec21e8befbe33664869c95723633a", "type": "electric_scooter", "is_reserved": 0, "lon": -77.0175035}, {"fusion_lat": 0.0, "name": "2cecb06c36e6629e136de010426def5a", "is_disabled": 0, "rental_uris": {"android": "https://dc.lft.to/lastmile_qr_scan", "ios": "https://dc.lft.to/lastmile_qr_scan"}, "fusion_lon": 0.0, "lat": 38.906995333333334, "bike_id": "2cecb06c36e6629e136de010426def5a", "type": "electric_scooter", "is_reserved": 0, "lon": -76.99976066666666}, {"fusion_lat": 0.0, "name": "d5e5ad48fc614421ed404862c92ac3c5", "is_disabled": 0, "rental_uris": {"android": "https://dc.lft.to/lastmile_qr_scan", "ios": "https://dc.lft.to/lastmile_qr_scan"}, "fusion_lon": 0.0, "lat": 38.936506333333334, "bike_id": "d5e5ad48fc614421ed404862c92ac3c5", "type": "electric_scooter", "is_reserved": 0, "lon": -77.03053183333333}, {"fusion_lat": 0.0, "name": "4a6612d364e35bc1d9cd3468301f01fb", "is_disabled": 0, "rental_uris": {"android": "https://dc.lft.to/lastmile_qr_scan", "ios": "https://dc.lft.to/lastmile_qr_scan"}, "fusion_lon": 0.0, "lat": 38.905212166666665, "bike_id": "4a6612d364e35bc1d9cd3468301f01fb", "type": "electric_scooter", "is_reserved": 0, "lon": -77.06451616666666}, {"fusion_lat": 0.0, "name": "3fa0920f2449b3b6404f30723d625490", "is_disabled": 0, "rental_uris": {"android": "https://dc.lft.to/lastmile_qr_scan", "ios": "https://dc.lft.to/lastmile_qr_scan"}, "fusion_lon": 0.0, "lat": 38.92398416666666, "bike_id": "3fa0920f2449b3b6404f30723d625490", "type": "electric_scooter", "is_reserved": 0, "lon": -77.030546}, {"fusion_lat": 0.0, "name": "0050c9b3dbfd68832f133c75f6b61bc6", "is_disabled": 0, "rental_uris": {"android": "https://dc.lft.to/lastmile_qr_scan", "ios": "https://dc.lft.to/lastmile_qr_scan"}, "fusion_lon": 0.0, "lat": 38.8872525, "bike_id": "0050c9b3dbfd68832f133c75f6b61bc6", "type": "electric_scooter", "is_reserved": 0, "lon": -76.98358683333333}, {"fusion_lat": 0.0, "name": "2f9b420c3a1ee5719dcf1aa904327d9c", "is_disabled": 0, "rental_uris": {"android": "https://dc.lft.to/lastmile_qr_scan", "ios": "https://dc.lft.to/lastmile_qr_scan"}, "fusion_lon": 0.0, "lat": 38.92012016666666, "bike_id": "2f9b420c3a1ee5719dcf1aa904327d9c", "type": "electric_scooter", "is_reserved": 0, "lon": -77.02183616666667}, {"fusion_lat": 0.0, "name": "d4b13edb492307b05e0f1ff453c8c3d9", "is_disabled": 0, "rental_uris": {"android": "https://dc.lft.to/lastmile_qr_scan", "ios": "https://dc.lft.to/lastmile_qr_scan"}, "fusion_lon": 0.0, "lat": 38.942293166666666, "bike_id": "d4b13edb492307b05e0f1ff453c8c3d9", "type": "electric_scooter", "is_reserved": 0, "lon": -77.01382983333333}, {"fusion_lat": 0.0, "name": "8ae8a205dfcbbe13672513dbf5b6dfd8", "is_disabled": 0, "rental_uris": {"android": "https://dc.lft.to/lastmile_qr_scan", "ios": "https://dc.lft.to/lastmile_qr_scan"}, "fusion_lon": 0.0, "lat": 38.90395133333333, "bike_id": "8ae8a205dfcbbe13672513dbf5b6dfd8", "type": "electric_scooter", "is_reserved": 0, "lon": -77.06141933333333}, {"fusion_lat": 0.0, "name": "caf3ffd0a8bad9f5bec6f19efbc76a75", "is_disabled": 0, "rental_uris": {"android": "https://dc.lft.to/lastmile_qr_scan", "ios": "https://dc.lft.to/lastmile_qr_scan"}, "fusion_lon": 0.0, "lat": 38.92531316666667, "bike_id": "caf3ffd0a8bad9f5bec6f19efbc76a75", "type": "electric_scooter", "is_reserved": 0, "lon": -77.05568216666667}, {"fusion_lat": 0.0, "name": "483c6c13e89b23fadd7e88bd2f04f412", "is_disabled": 0, "rental_uris": {"android": "https://dc.lft.to/lastmile_qr_scan", "ios": "https://dc.lft.to/lastmile_qr_scan"}, "fusion_lon": 0.0, "lat": 38.90074466666667, "bike_id": "483c6c13e89b23fadd7e88bd2f04f412", "type": "electric_scooter", "is_reserved": 0, "lon": -77.04806933333333}, {"fusion_lat": 0.0, "name": "d3bcdbd8b0150c48abec26b06dd810b4", "is_disabled": 0, "rental_uris": {"android": "https://dc.lft.to/lastmile_qr_scan", "ios": "https://dc.lft.to/lastmile_qr_scan"}, "fusion_lon": 0.0, "lat": 38.90658483333333, "bike_id": "d3bcdbd8b0150c48abec26b06dd810b4", "type": "electric_scooter", "is_reserved": 0, "lon": -77.029523}, {"fusion_lat": 0.0, "name": "78f869bdac6754adfda5bc1ea4921c68", "is_disabled": 0, "rental_uris": {"android": "https://dc.lft.to/lastmile_qr_scan", "ios": "https://dc.lft.to/lastmile_qr_scan"}, "fusion_lon": 0.0, "lat": 38.92246866666667, "bike_id": "78f869bdac6754adfda5bc1ea4921c68", "type": "electric_scooter", "is_reserved": 0, "lon": -77.0221645}, {"fusion_lat": 0.0, "name": "05ffe3965cf1da3aea29a26969650904", "is_disabled": 0, "rental_uris": {"android": "https://dc.lft.to/lastmile_qr_scan", "ios": "https://dc.lft.to/lastmile_qr_scan"}, "fusion_lon": 0.0, "lat": 38.93547316666667, "bike_id": "05ffe3965cf1da3aea29a26969650904", "type": "electric_scooter", "is_reserved": 0, "lon": -77.0326055}, {"fusion_lat": 0.0, "name": "3a945cffd1118928c75d7e1350143907", "is_disabled": 0, "rental_uris": {"android": "https://dc.lft.to/lastmile_qr_scan", "ios": "https://dc.lft.to/lastmile_qr_scan"}, "fusion_lon": 0.0, "lat": 38.909876, "bike_id": "3a945cffd1118928c75d7e1350143907", "type": "electric_scooter", "is_reserved": 0, "lon": -77.02388116666667}, {"fusion_lat": 0.0, "name": "a257a61a1a9cf89ace95b3050ddc5293", "is_disabled": 0, "rental_uris": {"android": "https://dc.lft.to/lastmile_qr_scan", "ios": "https://dc.lft.to/lastmile_qr_scan"}, "fusion_lon": 0.0, "lat": 38.90064433333333, "bike_id": "a257a61a1a9cf89ace95b3050ddc5293", "type": "electric_scooter", "is_reserved": 0, "lon": -76.933889}, {"fusion_lat": 0.0, "name": "34c0ae9c1d3ef45f4cad6d27d93e1e1e", "is_disabled": 0, "rental_uris": {"android": "https://dc.lft.to/lastmile_qr_scan", "ios": "https://dc.lft.to/lastmile_qr_scan"}, "fusion_lon": 0.0, "lat": 38.845111833333334, "bike_id": "34c0ae9c1d3ef45f4cad6d27d93e1e1e", "type": "electric_bike", "is_reserved": 0, "lon": -76.99354133333334}, {"fusion_lat": 0.0, "name": "e4936aca1dfcb6d0bef76994b0eff9de", "is_disabled": 0, "rental_uris": {"android": "https://dc.lft.to/lastmile_qr_scan", "ios": "https://dc.lft.to/lastmile_qr_scan"}, "fusion_lon": 0.0, "lat": 38.956275166666664, "bike_id": "e4936aca1dfcb6d0bef76994b0eff9de", "type": "electric_scooter", "is_reserved": 0, "lon": -77.028368}, {"fusion_lat": 0.0, "name": "b45a43e32a4c02480d3b354f219e054f", "is_disabled": 0, "rental_uris": {"android": "https://dc.lft.to/lastmile_qr_scan", "ios": "https://dc.lft.to/lastmile_qr_scan"}, "fusion_lon": 0.0, "lat": 38.92020766666667, "bike_id": "b45a43e32a4c02480d3b354f219e054f", "type": "electric_scooter", "is_reserved": 0, "lon": -77.025038}, {"fusion_lat": 0.0, "name": "02bd83792e3b804cf61bdb76a162e951", "is_disabled": 0, "rental_uris": {"android": "https://dc.lft.to/lastmile_qr_scan", "ios": "https://dc.lft.to/lastmile_qr_scan"}, "fusion_lon": 0.0, "lat": 38.857802166666666, "bike_id": "02bd83792e3b804cf61bdb76a162e951", "type": "electric_scooter", "is_reserved": 0, "lon": -76.9729675}, {"fusion_lat": 0.0, "name": "03adcd2137ecadd75b192ac7da590a23", "is_disabled": 0, "rental_uris": {"android": "https://dc.lft.to/lastmile_qr_scan", "ios": "https://dc.lft.to/lastmile_qr_scan"}, "fusion_lon": 0.0, "lat": 38.9375195, "bike_id": "03adcd2137ecadd75b192ac7da590a23", "type": "electric_scooter", "is_reserved": 0, "lon": -77.025244}, {"fusion_lat": 0.0, "name": "e827d11ca36b0dcc564311ccea86fa41", "is_disabled": 0, "rental_uris": {"android": "https://dc.lft.to/lastmile_qr_scan", "ios": "https://dc.lft.to/lastmile_qr_scan"}, "fusion_lon": 0.0, "lat": 38.97879966666667, "bike_id": "e827d11ca36b0dcc564311ccea86fa41", "type": "electric_bike", "is_reserved": 0, "lon": -77.06032}, {"fusion_lat": 0.0, "name": "7498163e35b0719c8feb9f86cf68dfc7", "is_disabled": 0, "rental_uris": {"android": "https://dc.lft.to/lastmile_qr_scan", "ios": "https://dc.lft.to/lastmile_qr_scan"}, "fusion_lon": 0.0, "lat": 38.90579116666667, "bike_id": "7498163e35b0719c8feb9f86cf68dfc7", "type": "electric_scooter", "is_reserved": 0, "lon": -77.00604833333334}, {"fusion_lat": 0.0, "name": "ecaae9e22fbd0a9a32cafb05638b2d56", "is_disabled": 0, "rental_uris": {"android": "https://dc.lft.to/lastmile_qr_scan", "ios": "https://dc.lft.to/lastmile_qr_scan"}, "fusion_lon": 0.0, "lat": 38.8393635, "bike_id": "ecaae9e22fbd0a9a32cafb05638b2d56", "type": "electric_bike", "is_reserved": 0, "lon": -77.07897916666667}, {"fusion_lat": 0.0, "name": "bb492617832206724370a82c98d2be52", "is_disabled": 0, "rental_uris": {"android": "https://dc.lft.to/lastmile_qr_scan", "ios": "https://dc.lft.to/lastmile_qr_scan"}, "fusion_lon": 0.0, "lat": 38.90138966666667, "bike_id": "bb492617832206724370a82c98d2be52", "type": "electric_scooter", "is_reserved": 0, "lon": -76.98643983333334}, {"fusion_lat": 0.0, "name": "140d1ca1d932015577c558a9c6478f8a", "is_disabled": 0, "rental_uris": {"android": "https://dc.lft.to/lastmile_qr_scan", "ios": "https://dc.lft.to/lastmile_qr_scan"}, "fusion_lon": 0.0, "lat": 38.88271433333333, "bike_id": "140d1ca1d932015577c558a9c6478f8a", "type": "electric_scooter", "is_reserved": 0, "lon": -76.99017233333333}, {"fusion_lat": 0.0, "name": "4616e44159c0d50442d7a4ba7c1604e1", "is_disabled": 0, "rental_uris": {"android": "https://dc.lft.to/lastmile_qr_scan", "ios": "https://dc.lft.to/lastmile_qr_scan"}, "fusion_lon": 0.0, "lat": 38.8981505, "bike_id": "4616e44159c0d50442d7a4ba7c1604e1", "type": "electric_scooter", "is_reserved": 0, "lon": -77.02949}, {"fusion_lat": 0.0, "name": "87551e9f98989f3d138febafb54c1be6", "is_disabled": 0, "rental_uris": {"android": "https://dc.lft.to/lastmile_qr_scan", "ios": "https://dc.lft.to/lastmile_qr_scan"}, "fusion_lon": 0.0, "lat": 38.917195166666666, "bike_id": "87551e9f98989f3d138febafb54c1be6", "type": "electric_scooter", "is_reserved": 0, "lon": -77.03854833333334}, {"fusion_lat": 0.0, "name": "9c615d8a950d46a340338b8407462670", "is_disabled": 0, "rental_uris": {"android": "https://dc.lft.to/lastmile_qr_scan", "ios": "https://dc.lft.to/lastmile_qr_scan"}, "fusion_lon": 0.0, "lat": 38.906784, "bike_id": "9c615d8a950d46a340338b8407462670", "type": "electric_scooter", "is_reserved": 0, "lon": -77.071187}, {"fusion_lat": 0.0, "name": "2422f2955e53067ecb85c159113c4b43", "is_disabled": 0, "rental_uris": {"android": "https://dc.lft.to/lastmile_qr_scan", "ios": "https://dc.lft.to/lastmile_qr_scan"}, "fusion_lon": 0.0, "lat": 38.87641566666667, "bike_id": "2422f2955e53067ecb85c159113c4b43", "type": "electric_scooter", "is_reserved": 0, "lon": -76.99499966666667}, {"fusion_lat": 0.0, "name": "1c24333755f8174b25c9e014baae5b0e", "is_disabled": 0, "rental_uris": {"android": "https://dc.lft.to/lastmile_qr_scan", "ios": "https://dc.lft.to/lastmile_qr_scan"}, "fusion_lon": 0.0, "lat": 38.91763533333334, "bike_id": "1c24333755f8174b25c9e014baae5b0e", "type": "electric_scooter", "is_reserved": 0, "lon": -77.04768483333334}, {"fusion_lat": 0.0, "name": "fa4a7ae51f023f6926e70b36d0150a7c", "is_disabled": 0, "rental_uris": {"android": "https://dc.lft.to/lastmile_qr_scan", "ios": "https://dc.lft.to/lastmile_qr_scan"}, "fusion_lon": 0.0, "lat": 38.936594166666666, "bike_id": "fa4a7ae51f023f6926e70b36d0150a7c", "type": "electric_scooter", "is_reserved": 0, "lon": -77.05495133333334}, {"fusion_lat": 0.0, "name": "f9cf02a0195405fc062aeee89105d17e", "is_disabled": 0, "rental_uris": {"android": "https://dc.lft.to/lastmile_qr_scan", "ios": "https://dc.lft.to/lastmile_qr_scan"}, "fusion_lon": 0.0, "lat": 38.916330333333335, "bike_id": "f9cf02a0195405fc062aeee89105d17e", "type": "electric_scooter", "is_reserved": 0, "lon": -77.03144666666667}, {"fusion_lat": 0.0, "name": "a82f207bbdab28a70ca3e572e93fac2d", "is_disabled": 0, "rental_uris": {"android": "https://dc.lft.to/lastmile_qr_scan", "ios": "https://dc.lft.to/lastmile_qr_scan"}, "fusion_lon": 0.0, "lat": 38.88623966666667, "bike_id": "a82f207bbdab28a70ca3e572e93fac2d", "type": "electric_scooter", "is_reserved": 0, "lon": -77.019675}, {"fusion_lat": 0.0, "name": "15b452ad33f670e12498a872c47b0565", "is_disabled": 0, "rental_uris": {"android": "https://dc.lft.to/lastmile_qr_scan", "ios": "https://dc.lft.to/lastmile_qr_scan"}, "fusion_lon": 0.0, "lat": 38.90376083333334, "bike_id": "15b452ad33f670e12498a872c47b0565", "type": "electric_scooter", "is_reserved": 0, "lon": -77.0177865}, {"fusion_lat": 0.0, "name": "8dab78d1f56e6b135c6ba79926d1ef56", "is_disabled": 0, "rental_uris": {"android": "https://dc.lft.to/lastmile_qr_scan", "ios": "https://dc.lft.to/lastmile_qr_scan"}, "fusion_lon": 0.0, "lat": 38.9023685, "bike_id": "8dab78d1f56e6b135c6ba79926d1ef56", "type": "electric_scooter", "is_reserved": 0, "lon": -77.04564466666666}, {"fusion_lat": 0.0, "name": "1819fc1f6b3386161f5a303b28620d06", "is_disabled": 0, "rental_uris": {"android": "https://dc.lft.to/lastmile_qr_scan", "ios": "https://dc.lft.to/lastmile_qr_scan"}, "fusion_lon": 0.0, "lat": 38.87246116666667, "bike_id": "1819fc1f6b3386161f5a303b28620d06", "type": "electric_scooter", "is_reserved": 0, "lon": -76.97730683333333}, {"fusion_lat": 0.0, "name": "beb3ef47899b3bd268f3cde2c21ea366", "is_disabled": 0, "rental_uris": {"android": "https://dc.lft.to/lastmile_qr_scan", "ios": "https://dc.lft.to/lastmile_qr_scan"}, "fusion_lon": 0.0, "lat": 38.90520933333333, "bike_id": "beb3ef47899b3bd268f3cde2c21ea366", "type": "electric_scooter", "is_reserved": 0, "lon": -77.0638565}, {"fusion_lat": 0.0, "name": "4329bb2bb70262b851794ab6c11efaab", "is_disabled": 0, "rental_uris": {"android": "https://dc.lft.to/lastmile_qr_scan", "ios": "https://dc.lft.to/lastmile_qr_scan"}, "fusion_lon": 0.0, "lat": 38.90985883333333, "bike_id": "4329bb2bb70262b851794ab6c11efaab", "type": "electric_scooter", "is_reserved": 0, "lon": -77.0338735}, {"fusion_lat": 0.0, "name": "4eca7130c7f533030d5197ebb0350cdf", "is_disabled": 0, "rental_uris": {"android": "https://dc.lft.to/lastmile_qr_scan", "ios": "https://dc.lft.to/lastmile_qr_scan"}, "fusion_lon": 0.0, "lat": 38.90976633333333, "bike_id": "4eca7130c7f533030d5197ebb0350cdf", "type": "electric_scooter", "is_reserved": 0, "lon": -77.00901633333334}, {"fusion_lat": 0.0, "name": "b433b71041d6f0860e5051182b927334", "is_disabled": 0, "rental_uris": {"android": "https://dc.lft.to/lastmile_qr_scan", "ios": "https://dc.lft.to/lastmile_qr_scan"}, "fusion_lon": 0.0, "lat": 38.90580966666667, "bike_id": "b433b71041d6f0860e5051182b927334", "type": "electric_scooter", "is_reserved": 0, "lon": -77.00885}, {"fusion_lat": 0.0, "name": "1c4e82d0087b4038c900044d60ce97ee", "is_disabled": 0, "rental_uris": {"android": "https://dc.lft.to/lastmile_qr_scan", "ios": "https://dc.lft.to/lastmile_qr_scan"}, "fusion_lon": 0.0, "lat": 38.894046833333334, "bike_id": "1c4e82d0087b4038c900044d60ce97ee", "type": "electric_scooter", "is_reserved": 0, "lon": -76.94809266666667}, {"fusion_lat": 0.0, "name": "d4a7d6e4abcdca8b28688e600419298c", "is_disabled": 0, "rental_uris": {"android": "https://dc.lft.to/lastmile_qr_scan", "ios": "https://dc.lft.to/lastmile_qr_scan"}, "fusion_lon": 0.0, "lat": 38.9208345, "bike_id": "d4a7d6e4abcdca8b28688e600419298c", "type": "electric_scooter", "is_reserved": 0, "lon": -77.0237685}, {"fusion_lat": 0.0, "name": "48605f7a1093aa2d6a4ab379ca7deee1", "is_disabled": 0, "rental_uris": {"android": "https://dc.lft.to/lastmile_qr_scan", "ios": "https://dc.lft.to/lastmile_qr_scan"}, "fusion_lon": 0.0, "lat": 38.91567883333333, "bike_id": "48605f7a1093aa2d6a4ab379ca7deee1", "type": "electric_scooter", "is_reserved": 0, "lon": -77.02203816666666}, {"fusion_lat": 0.0, "name": "2aae0e39d7a6694171ef232741db3d88", "is_disabled": 0, "rental_uris": {"android": "https://dc.lft.to/lastmile_qr_scan", "ios": "https://dc.lft.to/lastmile_qr_scan"}, "fusion_lon": 0.0, "lat": 38.889878, "bike_id": "2aae0e39d7a6694171ef232741db3d88", "type": "electric_scooter", "is_reserved": 0, "lon": -76.9873575}, {"fusion_lat": 0.0, "name": "88d2aa72720809475311706a03d8526a", "is_disabled": 0, "rental_uris": {"android": "https://dc.lft.to/lastmile_qr_scan", "ios": "https://dc.lft.to/lastmile_qr_scan"}, "fusion_lon": 0.0, "lat": 38.908879, "bike_id": "88d2aa72720809475311706a03d8526a", "type": "electric_scooter", "is_reserved": 0, "lon": -77.05406683333334}, {"fusion_lat": 0.0, "name": "294810c9c74551cafecdc064d6080bc3", "is_disabled": 0, "rental_uris": {"android": "https://dc.lft.to/lastmile_qr_scan", "ios": "https://dc.lft.to/lastmile_qr_scan"}, "fusion_lon": 0.0, "lat": 38.939422, "bike_id": "294810c9c74551cafecdc064d6080bc3", "type": "electric_scooter", "is_reserved": 0, "lon": -77.03326166666666}, {"fusion_lat": 0.0, "name": "b3e9948cb13fe2f7288fe09279d28e3b", "is_disabled": 0, "rental_uris": {"android": "https://dc.lft.to/lastmile_qr_scan", "ios": "https://dc.lft.to/lastmile_qr_scan"}, "fusion_lon": 0.0, "lat": 38.922351166666665, "bike_id": "b3e9948cb13fe2f7288fe09279d28e3b", "type": "electric_scooter", "is_reserved": 0, "lon": -77.01819316666666}, {"fusion_lat": 0.0, "name": "013568cb9f99ed06e3908d7a8aa99346", "is_disabled": 0, "rental_uris": {"android": "https://dc.lft.to/lastmile_qr_scan", "ios": "https://dc.lft.to/lastmile_qr_scan"}, "fusion_lon": 0.0, "lat": 38.90586016666666, "bike_id": "013568cb9f99ed06e3908d7a8aa99346", "type": "electric_scooter", "is_reserved": 0, "lon": -77.03866833333333}, {"fusion_lat": 0.0, "name": "7833da8d921ccee980082d349eb43c16", "is_disabled": 0, "rental_uris": {"android": "https://dc.lft.to/lastmile_qr_scan", "ios": "https://dc.lft.to/lastmile_qr_scan"}, "fusion_lon": 0.0, "lat": 38.911083833333336, "bike_id": "7833da8d921ccee980082d349eb43c16", "type": "electric_scooter", "is_reserved": 0, "lon": -77.04223766666667}, {"fusion_lat": 0.0, "name": "7b225862ab17a20c3da40db179bd8882", "is_disabled": 0, "rental_uris": {"android": "https://dc.lft.to/lastmile_qr_scan", "ios": "https://dc.lft.to/lastmile_qr_scan"}, "fusion_lon": 0.0, "lat": 38.89534066666667, "bike_id": "7b225862ab17a20c3da40db179bd8882", "type": "electric_scooter", "is_reserved": 0, "lon": -77.01111166666666}, {"fusion_lat": 0.0, "name": "dd0b74a37731d174989389e8591a92ff", "is_disabled": 0, "rental_uris": {"android": "https://dc.lft.to/lastmile_qr_scan", "ios": "https://dc.lft.to/lastmile_qr_scan"}, "fusion_lon": 0.0, "lat": 38.893698, "bike_id": "dd0b74a37731d174989389e8591a92ff", "type": "electric_scooter", "is_reserved": 0, "lon": -77.01960933333334}, {"fusion_lat": 0.0, "name": "56a8972452d96335bbb4779b71970747", "is_disabled": 0, "rental_uris": {"android": "https://dc.lft.to/lastmile_qr_scan", "ios": "https://dc.lft.to/lastmile_qr_scan"}, "fusion_lon": 0.0, "lat": 38.92028233333333, "bike_id": "56a8972452d96335bbb4779b71970747", "type": "electric_scooter", "is_reserved": 0, "lon": -77.01282133333333}, {"fusion_lat": 0.0, "name": "e149de52762cad413cd07c5f93c5f029", "is_disabled": 0, "rental_uris": {"android": "https://dc.lft.to/lastmile_qr_scan", "ios": "https://dc.lft.to/lastmile_qr_scan"}, "fusion_lon": 0.0, "lat": 38.94157916666666, "bike_id": "e149de52762cad413cd07c5f93c5f029", "type": "electric_scooter", "is_reserved": 0, "lon": -77.02632916666667}, {"fusion_lat": 0.0, "name": "8faa5bfce36e140305fa040e491b8caf", "is_disabled": 0, "rental_uris": {"android": "https://dc.lft.to/lastmile_qr_scan", "ios": "https://dc.lft.to/lastmile_qr_scan"}, "fusion_lon": 0.0, "lat": 38.99779766666666, "bike_id": "8faa5bfce36e140305fa040e491b8caf", "type": "electric_bike", "is_reserved": 0, "lon": -77.047179}, {"fusion_lat": 0.0, "name": "625053d810a571c1a84a678c432e8c5a", "is_disabled": 0, "rental_uris": {"android": "https://dc.lft.to/lastmile_qr_scan", "ios": "https://dc.lft.to/lastmile_qr_scan"}, "fusion_lon": 0.0, "lat": 38.906366166666665, "bike_id": "625053d810a571c1a84a678c432e8c5a", "type": "electric_scooter", "is_reserved": 0, "lon": -77.031459}, {"fusion_lat": 0.0, "name": "88c33a5e9f5b810b933ae01c8eb98fbe", "is_disabled": 0, "rental_uris": {"android": "https://dc.lft.to/lastmile_qr_scan", "ios": "https://dc.lft.to/lastmile_qr_scan"}, "fusion_lon": 0.0, "lat": 38.93764316666667, "bike_id": "88c33a5e9f5b810b933ae01c8eb98fbe", "type": "electric_scooter", "is_reserved": 0, "lon": -77.02444433333334}, {"fusion_lat": 0.0, "name": "7b87140d58a775897f316c72aceea5af", "is_disabled": 0, "rental_uris": {"android": "https://dc.lft.to/lastmile_qr_scan", "ios": "https://dc.lft.to/lastmile_qr_scan"}, "fusion_lon": 0.0, "lat": 38.91642216666666, "bike_id": "7b87140d58a775897f316c72aceea5af", "type": "electric_scooter", "is_reserved": 0, "lon": -77.03162566666667}, {"fusion_lat": 0.0, "name": "a51082783330483a66acae27a697128a", "is_disabled": 0, "rental_uris": {"android": "https://dc.lft.to/lastmile_qr_scan", "ios": "https://dc.lft.to/lastmile_qr_scan"}, "fusion_lon": 0.0, "lat": 38.93394933333333, "bike_id": "a51082783330483a66acae27a697128a", "type": "electric_scooter", "is_reserved": 0, "lon": -77.0574535}, {"fusion_lat": 0.0, "name": "42a167859901cbe0a467a8b667e6c58f", "is_disabled": 0, "rental_uris": {"android": "https://dc.lft.to/lastmile_qr_scan", "ios": "https://dc.lft.to/lastmile_qr_scan"}, "fusion_lon": 0.0, "lat": 38.89724116666667, "bike_id": "42a167859901cbe0a467a8b667e6c58f", "type": "electric_scooter", "is_reserved": 0, "lon": -77.0234155}, {"fusion_lat": 0.0, "name": "ff2fe31c0d008eec5a1b646da4aff545", "is_disabled": 0, "rental_uris": {"android": "https://dc.lft.to/lastmile_qr_scan", "ios": "https://dc.lft.to/lastmile_qr_scan"}, "fusion_lon": 0.0, "lat": 38.91116316666667, "bike_id": "ff2fe31c0d008eec5a1b646da4aff545", "type": "electric_scooter", "is_reserved": 0, "lon": -77.08127733333333}, {"fusion_lat": 0.0, "name": "c172b8918f6f1fa2d9d504a3da1a94e4", "is_disabled": 0, "rental_uris": {"android": "https://dc.lft.to/lastmile_qr_scan", "ios": "https://dc.lft.to/lastmile_qr_scan"}, "fusion_lon": 0.0, "lat": 38.89607866666667, "bike_id": "c172b8918f6f1fa2d9d504a3da1a94e4", "type": "electric_scooter", "is_reserved": 0, "lon": -77.00930466666667}, {"fusion_lat": 0.0, "name": "b6b815a3ddf812da864bcb2937f5f35c", "is_disabled": 0, "rental_uris": {"android": "https://dc.lft.to/lastmile_qr_scan", "ios": "https://dc.lft.to/lastmile_qr_scan"}, "fusion_lon": 0.0, "lat": 38.92134883333333, "bike_id": "b6b815a3ddf812da864bcb2937f5f35c", "type": "electric_scooter", "is_reserved": 0, "lon": -77.01809083333333}, {"fusion_lat": 0.0, "name": "2c2d287dbb430e1bfe04181b7a2f07c3", "is_disabled": 0, "rental_uris": {"android": "https://dc.lft.to/lastmile_qr_scan", "ios": "https://dc.lft.to/lastmile_qr_scan"}, "fusion_lon": 0.0, "lat": 38.907641166666664, "bike_id": "2c2d287dbb430e1bfe04181b7a2f07c3", "type": "electric_scooter", "is_reserved": 0, "lon": -77.05693966666666},