{"data": {"bikes": [{"fusion_lat": 0.0, "name": "c0c5076d443e415ce8322c8064e1ee9d", "is_disabled": 0, "rental_uris": {"android": "https://dc.lft.to/lastmile_qr_scan", "ios": "https://dc.lft.to/lastmile_qr_scan"}, "fusion_lon": 0.0, "lat": 38.866493, "bike_id": "c0c5076d443e415ce8322c8064e1ee9d", "type": "electric_scooter", "is_reserved": 0, "lon": -76.985178}, {"fusion_lat": 0.0, "name": "5bce4d9b9502d2febe42b9e6e3e332c8", "is_disabled": 0, "rental_uris": {"android": "https://dc.lft.to/lastmile_qr_scan", "ios": "https://dc.lft.to/lastmile_qr_scan"}, "fusion_lon": 0.0, "lat": 38.923207166666664, "bike_id": "5bce4d9b9502d2febe42b9e6e3e332c8", "type": "electric_scooter", "is_reserved": 0, "lon": -77.02956666666667}, {"fusion_lat": 0.0, "name": "6411cafd26d2d220a238133387c6fa13", "is_disabled": 0, "rental_uris": {"android": "https://dc.lft.to/lastmile_qr_scan", "ios": "https://dc.lft.to/lastmile_qr_scan"}, "fusion_lon": 0.0, "lat": 38.8972525, "bike_id": "6411cafd26d2d220a238133387c6fa13", "type": "electric_scooter", "is_reserved": 0, "lon": -77.00796516666666}, {"fusion_lat": 0.0, "name": "237f9059d67456acfe7c571ceb60f984", "is_disabled": 0, "rental_uris": {"android": "https://dc.lft.to/lastmile_qr_scan", "ios": "https://dc.lft.to/lastmile_qr_scan"}, "fusion_lon": 0.0, "lat": 38.93277233333333, "bike_id": "237f9059d67456acfe7c571ceb60f984", "type": "electric_scooter", "is_reserved": 0, "lon": -77.04534383333333}, {"fusion_lat": 0.0, "name": "f6f498d5df104224714567ae5991ec87", "is_disabled": 0, "rental_uris": {"android": "https://dc.lft.to/lastmile_qr_scan", "ios": "https://dc.lft.to/lastmile_qr_scan"}, "fusion_lon": 0.0, "lat": 38.936506333333334, "bike_id": "f6f498d5df104224714567ae5991ec87", "type": "electric_scooter", "is_reserved": 0, "lon": -77.0369315}, {"fusion_lat": 0.0, "name": "16fbc9e91cf6a8301a7c2993d686d9ce", "is_disabled": 0, "rental_uris": {"android": "https://dc.lft.to/lastmile_qr_scan", "ios": "https://dc.lft.to/lastmile_qr_scan"}, "fusion_lon": 0.0, "lat": 38.92064283333333, "bike_id": "16fbc9e91cf6a8301a7c2993d686d9ce", "type": "electric_scooter", "is_reserved": 0, "lon": -77.03471933333333}, {"fusion_lat": 0.0, "name": "702a759f6359ee1e55134ead5cec522b", "is_disabled": 0, "rental_uris": {"android": "https://dc.lft.to/lastmile_qr_scan", "ios": "https://dc.lft.to/lastmile_qr_scan"}, "fusion_lon": 0.0, "lat": 38.865220666666666, "bike_id": "702a759f6359ee1e55134ead5cec522b", "type": "electric_bike", "is_reserved": 0, "lon": -76.97334383333333}, {"fusion_lat": 0.0, "name": "ae6ac52a604f257603fa52d1ce69a39a", "is_disabled": 0, "rental_uris": {"android": "https://dc.lft.to/lastmile_qr_scan", "ios": "https://dc.lft.to/lastmile_qr_scan"}, "fusion_lon": 0.0, "lat": 38.90025, "bike_id": "ae6ac52a604f257603fa52d1ce69a39a", "type": "electric_scooter", "is_reserved": 0, "lon": -77.04122833333334}, {"fusion_lat": 0.0, "name": "62c66ab8fec40ce0d1921c35a5575a8c", "is_disabled": 0, "rental_uris": {"android": "https://dc.lft.to/lastmile_qr_scan", "ios": "https://dc.lft.to/lastmile_qr_scan"}, "fusion_lon": 0.0, "lat": 38.91548016666667, "bike_id": "62c66ab8fec40ce0d1921c35a5575a8c", "type": "electric_scooter", "is_reserved": 0, "lon": -77.03844}, {"fusion_lat": 0.0, "name": "d2a71416e0a3da3041e80418bfaed1e5", "is_disabled": 0, "rental_uris": {"android": "https://dc.lft.to/lastmile_qr_scan", "ios": "https://dc.lft.to/lastmile_qr_scan"}, "fusion_lon": 0.0, "lat": 38.921024, "bike_id": "d2a71416e0a3da3041e80418bfaed1e5", "type": "electric_scooter", "is_reserved": 0, "lon": -77.07469883333333}, {"fusion_lat": 0.0, "name": "c29436bea4139275d15e571f6f3d3a35", "is_disabled": 0, "rental_uris": {"android": "https://dc.lft.to/lastmile_qr_scan", "ios": "https://dc.lft.to/lastmile_qr_scan"}, "fusion_lon": 0.0, "lat": 38.926154333333336, "bike_id": "c29436bea4139275d15e571f6f3d3a35", "type": "electric_scooter", "is_reserved": 0, "lon": -77.03959716666667}, {"fusion_lat": 0.0, "name": "3218677cf2a9c581f345d21477a5ccf8", "is_disabled": 0, "rental_uris": {"android": "https://dc.lft.to/lastmile_qr_scan", "ios": "https://dc.lft.to/lastmile_qr_scan"}, "fusion_lon": 0.0, "lat": 38.87369283333334, "bike_id": "3218677cf2a9c581f345d21477a5ccf8", "type": "electric_scooter", "is_reserved": 0, "lon": -77.00088983333333}, {"fusion_lat": 0.0, "name": "922506edd57e90a59703d8fcfc98a0e5", "is_disabled": 0, "rental_uris": {"android": "https://dc.lft.to/lastmile_qr_scan", "ios": "https://dc.lft.to/lastmile_qr_scan"}, "fusion_lon": 0.0, "lat": 38.88488816666667, "bike_id": "922506edd57e90a59703d8fcfc98a0e5", "type": "electric_scooter", "is_reserved": 0, "lon": -77.007091}, {"fusion_lat": 0.0, "name": "5e6d41661bce6a96a8174ba005b3fb91", "is_disabled": 0, "rental_uris": {"android": "https://dc.lft.to/lastmile_qr_scan", "ios": "https://dc.lft.to/lastmile_qr_scan"}, "fusion_lon": 0.0, "lat": 38.84283333333333, "bike_id": "5e6d41661bce6a96a8174ba005b3fb91", "type": "electric_bike", "is_reserved": 0, "lon": -77.04492716666667}, {"fusion_lat": 0.0, "name": "50dcccd69f81c5d2965889142015ae89", "is_disabled": 0, "rental_uris": {"android": "https://dc.lft.to/lastmile_qr_scan", "ios": "https://dc.lft.to/lastmile_qr_scan"}, "fusion_lon": 0.0, "lat": 38.92251133333333, "bike_id": "50dcccd69f81c5d2965889142015ae89", "type": "electric_scooter", "is_reserved": 0, "lon": -77.0420395}, {"fusion_lat": 0.0, "name": "c753af73057a0d6c8bce19b76891d85b", "is_disabled": 0, "rental_uris": {"android": "https://dc.lft.to/lastmile_qr_scan", "ios": "https://dc.lft.to/lastmile_qr_scan"}, "fusion_lon": 0.0, "lat": 38.900031166666665, "bike_id": "c753af73057a0d6c8bce19b76891d85b", "type": "electric_scooter", "is_reserved": 0, "lon": -76.93157733333334}, {"fusion_lat": 0.0, "name": "97ef323b5e53abd12a20611ae0b0277f", "is_disabled": 0, "rental_uris": {"android": "https://dc.lft.to/lastmile_qr_scan", "ios": "https://dc.lft.to/lastmile_qr_scan"}, "fusion_lon": 0.0, "lat": 38.89746133333333, "bike_id": "97ef323b5e53abd12a20611ae0b0277f", "type": "electric_scooter", "is_reserved": 0, "lon": -77.0435995}, {"fusion_lat": 0.0, "name": "9ac5ddd4d8a1c87e8ccf771b0409ef50", "is_disabled": 0, "rental_uris": {"android": "https://dc.lft.to/lastmile_qr_scan", "ios": "https://dc.lft.to/lastmile_qr_scan"}, "fusion_lon": 0.0, "lat": 38.93533566666667, "bike_id": "9ac5ddd4d8a1c87e8ccf771b0409ef50", "type": "electric_scooter", "is_reserved": 0, "lon": -77.0365275}, {"fusion_lat": 0.0, "name": "c385a85f775b96b71227763fe2afcdb7", "is_disabled": 0, "rental_uris": {"android": "https://dc.lft.to/lastmile_qr_scan", "ios": "https://dc.lft.to/lastmile_qr_scan"}, "fusion_lon": 0.0, "lat": 38.92824683333333, "bike_id": "c385a85f775b96b71227763fe2afcdb7", "type": "electric_scooter", "is_reserved": 0, "lon": -77.03257833333333}, {"fusion_lat": 0.0, "name": "00c20c926c40f89495fc6c8d9d467063", "is_disabled": 0, "rental_uris": {"android": "https://dc.lft.to/lastmile_qr_scan", "ios": "https://dc.lft.to/lastmile_qr_scan"}, "fusion_lon": 0.0, "lat": 38.899938166666665, "bike_id": "00c20c926c40f89495fc6c8d9d467063", "type": "electric_scooter", "is_reserved": 0, "lon": -77.00649733333333}, {"fusion_lat": 0.0, "name": "d2d65dc6eef70f3f9020208335f0d846", "is_disabled": 0, "rental_uris": {"android": "https://dc.lft.to/lastmile_qr_scan", "ios": "https://dc.lft.to/lastmile_qr_scan"}, "fusion_lon": 0.0, "lat": 38.93463333333333, "bike_id": "d2d65dc6eef70f3f9020208335f0d846", "type": "electric_scooter", "is_reserved": 0, "lon": -77.04123766666666}, {"fusion_lat": 0.0, "name": "bebbb77b07dda67b3231f3106fdfa457", "is_disabled": 0, "rental_uris": {"android": "https://dc.lft.to/lastmile_qr_scan", "ios": "https://dc.lft.to/lastmile_qr_scan"}, "fusion_lon": 0.0, "lat": 38.910462833333334, "bike_id": "bebbb77b07dda67b3231f3106fdfa457", "type": "electric_scooter", "is_reserved": 0, "lon": -77.03439133333333}, {"fusion_lat": 0.0, "name": "c9a6501f640e5f239f86a4afa9397a55", "is_disabled": 0, "rental_uris": {"android": "https://dc.lft.to/lastmile_qr_scan", "ios": "https://dc.lft.to/lastmile_qr_scan"}, "fusion_lon": 0.0, "lat": 38.86682483333333, "bike_id": "c9a6501f640e5f239f86a4afa9397a55", "type": "electric_scooter", "is_reserved": 0, "lon": -76.98565133333334}, {"fusion_lat": 0.0, "name": "33d460f220927f7de0e446e67a28bfaf", "is_disabled": 0, "rental_uris": {"android": "https://dc.lft.to/lastmile_qr_scan", "ios": "https://dc.lft.to/lastmile_qr_scan"}, "fusion_lon": 0.0, "lat": 38.944296666666666, "bike_id": "33d460f220927f7de0e446e67a28bfaf", "type": "electric_bike", "is_reserved": 0, "lon": -77.02602433333334}, {"fusion_lat": 0.0, "name": "b2109d68d7ac74b59651badf8e5405ec", "is_disabled": 0, "rental_uris": {"android": "https://dc.lft.to/lastmile_qr_scan", "ios": "https://dc.lft.to/lastmile_qr_scan"}, "fusion_lon": 0.0, "lat": 38.917105, "bike_id": "b2109d68d7ac74b59651badf8e5405ec", "type": "electric_scooter", "is_reserved": 0, "lon": -77.04144083333334}, {"fusion_lat": 0.0, "name": "c1ce4aa4c011c3f9b990e7a94907b92c", "is_disabled": 0, "rental_uris": {"android": "https://dc.lft.to/lastmile_qr_scan", "ios": "https://dc.lft.to/lastmile_qr_scan"}, "fusion_lon": 0.0, "lat": 38.93242683333333, "bike_id": "c1ce4aa4c011c3f9b990e7a94907b92c", "type": "electric_scooter", "is_reserved": 0, "lon": -77.034282}, {"fusion_lat": 0.0, "name": "e760f6c0a39d585f72a991ca6af065ef", "is_disabled": 0, "rental_uris": {"android": "https://dc.lft.to/lastmile_qr_scan", "ios": "https://dc.lft.to/lastmile_qr_scan"}, "fusion_lon": 0.0, "lat": 38.7985735, "bike_id": "e760f6c0a39d585f72a991ca6af065ef", "type": "electric_bike", "is_reserved": 0, "lon": -77.06306666666667}, {"fusion_lat": 0.0, "name": "ae5ed79b777e9604137ea65b425270f7", "is_disabled": 0, "rental_uris": {"android": "https://dc.lft.to/lastmile_qr_scan", "ios": "https://dc.lft.to/lastmile_qr_scan"}, "fusion_lon": 0.0, "lat": 38.94753033333333, "bike_id": "ae5ed79b777e9604137ea65b425270f7", "type": "electric_scooter", "is_reserved": 0, "lon": -77.0071895}, {"fusion_lat": 0.0, "name": "a86bbd87866051dc70b7df5aa4317158", "is_disabled": 0, "rental_uris": {"android": "https://dc.lft.to/lastmile_qr_scan", "ios": "https://dc.lft.to/lastmile_qr_scan"}, "fusion_lon": 0.0, "lat": 38.882107, "bike_id": "a86bbd87866051dc70b7df5aa4317158", "type": "electric_scooter", "is_reserved": 0, "lon": -77.02858883333333}, {"fusion_lat": 0.0, "name": "734e3b8619fab0c1efdf260710a7738e", "is_disabled": 0, "rental_uris": {"android": "https://dc.lft.to/lastmile_qr_scan", "ios": "https://dc.lft.to/lastmile_qr_scan"}, "fusion_lon": 0.0, "lat": 38.898614, "bike_id": "734e3b8619fab0c1efdf260710a7738e", "type": "electric_scooter", "is_reserved": 0, "lon": -76.97663466666667}, {"fusion_lat": 0.0, "name": "78fad235b0ceab3003898ec971bfc1f3", "is_disabled": 0, "rental_uris": {"android": "https://dc.lft.to/lastmile_qr_scan", "ios": "https://dc.lft.to/lastmile_qr_scan"}, "fusion_lon": 0.0, "lat": 38.89746183333333, "bike_id": "78fad235b0ceab3003898ec971bfc1f3", "type": "electric_scooter", "is_reserved": 0, "lon": -77.0496}, {"fusion_lat": 0.0, "name": "ba7fb8c553ac31dfb71d861a5f0c5246", "is_disabled": 0, "rental_uris": {"android": "https://dc.lft.to/lastmile_qr_scan", "ios": "https://dc.lft.to/lastmile_qr_scan"}, "fusion_lon": 0.0, "lat": 38.879855666666664, "bike_id": "ba7fb8c553ac31dfb71d861a5f0c5246", "type": "electric_scooter", "is_reserved": 0, "lon": -77.02405833333333}, {"fusion_lat": 0.0, "name": "3199c0d1332c78f7981a886860ddd1fc", "is_disabled": 0, "rental_uris": {"android": "https://dc.lft.to/lastmile_qr_scan", "ios": "https://dc.lft.to/lastmile_qr_scan"}, "fusion_lon": 0.0, "lat": 38.92067433333333, "bike_id": "3199c0d1332c78f7981a886860ddd1fc", "type": "electric_scooter", "is_reserved": 0, "lon": -77.024025}, {"fusion_lat": 0.0, "name": "82fc2808c42391b90cbc605d9b9fafd7", "is_disabled": 0, "rental_uris": {"android": "https://dc.lft.to/lastmile_qr_scan", "ios": "https://dc.lft.to/lastmile_qr_scan"}, "fusion_lon": 0.0, "lat": 38.890906, "bike_id": "82fc2808c42391b90cbc605d9b9fafd7", "type": "electric_scooter", "is_reserved": 0, "lon": -76.919245}, {"fusion_lat": 0.0, "name": "8d9ecdcfa55ec1f7ae32cda639d4a502", "is_disabled": 0, "rental_uris": {"android": "https://dc.lft.to/lastmile_qr_scan", "ios": "https://dc.lft.to/lastmile_qr_scan"}, "fusion_lon": 0.0, "lat": 38.924748666666666, "bike_id": "8d9ecdcfa55ec1f7ae32cda639d4a502", "type": "electric_scooter", "is_reserved": 0, "lon": -77.03854066666666}, {"fusion_lat": 0.0, "name": "c3881557a10bd7116aa5383c9d01e40d", "is_disabled": 0, "rental_uris": {"android": "https://dc.lft.to/lastmile_qr_scan", "ios": "https://dc.lft.to/lastmile_qr_scan"}, "fusion_lon": 0.0, "lat": 38.89476666666667, "bike_id": "c3881557a10bd7116aa5383c9d01e40d", "type": "electric_scooter", "is_reserved": 0, "lon": -77.039554}, {"fusion_lat": 0.0, "name": "de336408c29c2b5b59f62bee3da008d3", "is_disabled": 0, "rental_uris": {"android": "https://dc.lft.to/lastmile_qr_scan", "ios": "https://dc.lft.to/lastmile_qr_scan"}, "fusion_lon": 0.0, "lat": 38.905246166666664, "bike_id": "de336408c29c2b5b59f62bee3da008d3", "type": "electric_scooter", "is_reserved": 0, "lon": -77.029589}, {"fusion_lat": 0.0, "name": "46d8a2984b71971fab84e255ce3d0706", "is_disabled": 0, "rental_uris": {"android": "https://dc.lft.to/lastmile_qr_scan", "ios": "https://dc.lft.to/lastmile_qr_scan"}, "fusion_lon": 0.0, "lat": 38.994439666666665, "bike_id": "46d8a2984b71971fab84e255ce3d0706", "type": "electric_bike", "is_reserved": 0, "lon": -76.99591133333334}, {"fusion_lat": 0.0, "name": "3997d706f1ded02725fb1c106e67161d", "is_disabled": 0, "rental_uris": {"android": "https://dc.lft.to/lastmile_qr_scan", "ios": "https://dc.lft.to/lastmile_qr_scan"}, "fusion_lon": 0.0, "lat": 38.9167155, "bike_id": "3997d706f1ded02725fb1c106e67161d", "type": "electric_scooter", "is_reserved": 0, "lon": -77.03469583333333}, {"fusion_lat": 0.0, "name": "c9487eaeb40758debf2af677e53a3f46", "is_disabled": 0, "rental_uris": {"android": "https://dc.lft.to/lastmile_qr_scan", "ios": "https://dc.lft.to/lastmile_qr_scan"}, "fusion_lon": 0.0, "lat": 38.9026735, "bike_id": "c9487eaeb40758debf2af677e53a3f46", "type": "electric_scooter", "is_reserved": 0, "lon": -77.04477183333333}, {"fusion_lat": 0.0, "name": "f2fa167cb0a63a7b12222b8405529c5c", "is_disabled": 0, "rental_uris": {"android": "https://dc.lft.to/lastmile_qr_scan", "ios": "https://dc.lft.to/lastmile_qr_scan"}, "fusion_lon": 0.0, "lat": 38.871110333333334, "bike_id": "f2fa167cb0a63a7b12222b8405529c5c", "type": "electric_scooter", "is_reserved": 0, "lon": -76.96597416666667}, {"fusion_lat": 0.0, "name": "e6fdb076c32fd5e3ad8669b18497a691", "is_disabled": 0, "rental_uris": {"android": "https://dc.lft.to/lastmile_qr_scan", "ios": "https://dc.lft.to/lastmile_qr_scan"}, "fusion_lon": 0.0, "lat": 38.90413916666667, "bike_id": "e6fdb076c32fd5e3ad8669b18497a691", "type": "electric_scooter", "is_reserved": 0, "lon": -77.00117516666667}, {"fusion_lat": 0.0, "name": "ee5f563f9fdf0e4b5b6cb116b08a0f01", "is_disabled": 0, "rental_uris": {"android": "https://dc.lft.to/lastmile_qr_scan", "ios": "https://dc.lft.to/lastmile_qr_scan"}, "fusion_lon": 0.0, "lat": 38.986698, "bike_id": "ee5f563f9fdf0e4b5b6cb116b08a0f01", "type": "electric_bike", "is_reserved": 0, "lon": -76.99994883333333}, {"fusion_lat": 0.0, "name": "64e1a6d4a8820bb89ba91f676bd4a68d", "is_disabled": 0, "rental_uris": {"android": "https://dc.lft.to/lastmile_qr_scan", "ios": "https://dc.lft.to/lastmile_qr_scan"}, "fusion_lon": 0.0, "lat": 38.89231516666667, "bike_id": "64e1a6d4a8820bb89ba91f676bd4a68d", "type": "electric_scooter", "is_reserved": 0, "lon": -77.03181683333334}, {"fusion_lat": 0.0, "name": "9b6b8d85921b8b70418b0039a35f51d5", "is_disabled": 0, "rental_uris": {"android": "https://dc.lft.to/lastmile_qr_scan", "ios": "https://dc.lft.to/lastmile_qr_scan"}, "fusion_lon": 0.0, "lat": 38.935454666666665, "bike_id": "9b6b8d85921b8b70418b0039a35f51d5", "type": "electric_scooter", "is_reserved": 0, "lon": -77.03259433333334}, {"fusion_lat": 0.0, "name": "a01ad4a4822723901a13b466a9333913", "is_disabled": 0, "rental_uris": {"android": "https://dc.lft.to/lastmile_qr_scan", "ios": "https://dc.lft.to/lastmile_qr_scan"}, "fusion_lon": 0.0, "lat": 38.916994333333335, "bike_id": "a01ad4a4822723901a13b466a9333913", "type": "electric_scooter", "is_reserved": 0, "lon": -77.02519383333333}, {"fusion_lat": 0.0, "name": "ceea6ff50a3c3a62756eeb1f3940dbe2", "is_disabled": 0, "rental_uris": {"android": "https://dc.lft.to/lastmile_qr_scan", "ios": "https://dc.lft.to/lastmile_qr_scan"}, "fusion_lon": 0.0, "lat": 38.922504833333335, "bike_id": "ceea6ff50a3c3a62756eeb1f3940dbe2", "type": "electric_scooter", "is_reserved": 0, "lon": -77.0306525}, {"fusion_lat": 0.0, "name": "4fbf81a990a8b0c0600781688d704328", "is_disabled": 0, "rental_uris": {"android": "https://dc.lft.to/lastmile_qr_scan", "ios": "https://dc.lft.to/lastmile_qr_scan"}, "fusion_lon": 0.0, "lat": 38.90198316666667, "bike_id": "4fbf81a990a8b0c0600781688d704328", "type": "electric_scooter", "is_reserved": 0, "lon": -77.06116883333333}, {"fusion_lat": 0.0, "name": "0059e9040f57077713500be57a40216b", "is_disabled": 0, "rental_uris": {"android": "https://dc.lft.to/lastmile_qr_scan", "ios": "https://dc.lft.to/lastmile_qr_scan"}, "fusion_lon": 0.0, "lat": 38.9078155, "bike_id": "0059e9040f57077713500be57a40216b", "type": "electric_scooter", "is_reserved": 0, "lon": -77.0038895}, {"fusion_lat": 0.0, "name": "26829df54676d89ef4f6740ae98b4a9a", "is_disabled": 0, "rental_uris": {"android": "https://dc.lft.to/lastmile_qr_scan", "ios": "https://dc.lft.to/lastmile_qr_scan"}, "fusion_lon": 0.0, "lat": 38.98475466666667, "bike_id": "26829df54676d89ef4f6740ae98b4a9a", "type": "electric_scooter", "is_reserved": 0, "lon": -77.026454}, {"fusion_lat": 0.0, "name": "98c259d84aea2c5f591f148095cdbec9", "is_disabled": 0, "rental_uris": {"android": "https://dc.lft.to/lastmile_qr_scan", "ios": "https://dc.lft.to/lastmile_qr_scan"}, "fusion_lon": 0.0, "lat": 38.916642333333336, "bike_id": "98c259d84aea2c5f591f148095cdbec9", "type": "electric_scooter", "is_reserved": 0, "lon": -77.02822666666667}, {"fusion_lat": 0.0, "name": "3c0690792b47df8008cfdbbce8c9e764", "is_disabled": 0, "rental_uris": {"android": "https://dc.lft.to/lastmile_qr_scan", "ios": "https://dc.lft.to/lastmile_qr_scan"}, "fusion_lon": 0.0, "lat": 38.9156065, "bike_id": "3c0690792b47df8008cfdbbce8c9e764", "type": "electric_scooter", "is_reserved": 0, "lon": -77.032303}, {"fusion_lat": 0.0, "name": "2b34120308e7f252a58ae5bf8c365904", "is_disabled": 0, "rental_uris": {"android": "https://dc.lft.to/lastmile_qr_scan", "ios": "https://dc.lft.to/lastmile_qr_scan"}, "fusion_lon": 0.0, "lat": 38.9182155, "bike_id": "2b34120308e7f252a58ae5bf8c365904", "type": "electric_scooter", "is_reserved": 0, "lon": -77.00259333333334}, {"fusion_lat": 0.0, "name": "b04ea793da88fb506a8b6467128d2b09", "is_disabled": 0, "rental_uris": {"android": "https://dc.lft.to/lastmile_qr_scan", "ios": "https://dc.lft.to/lastmile_qr_scan"}, "fusion_lon": 0.0, "lat": 38.92599233333333, "bike_id": "b04ea793da88fb506a8b6467128d2b09", "type": "electric_scooter", "is_reserved": 0, "lon": -77.02597716666666}, {"fusion_lat": 0.0, "name": "100b3ef8b77a4f091fd436706f32bc4f", "is_disabled": 0, "rental_uris": {"android": "https://dc.lft.to/lastmile_qr_scan", "ios": "https://dc.lft.to/lastmile_qr_scan"}, "fusion_lon": 0.0, "lat": 38.9365005, "bike_id": "100b3ef8b77a4f091fd436706f32bc4f", "type": "electric_scooter", "is_reserved": 0, "lon": -77.03693016666666}, {"fusion_lat": 0.0, "name": "f83ce7371d140e4cc34948ef3991249f", "is_disabled": 0, "rental_uris": {"android": "https://dc.lft.to/lastmile_qr_scan", "ios": "https://dc.lft.to/lastmile_qr_scan"}, "fusion_lon": 0.0, "lat": 38.887602666666666, "bike_id": "f83ce7371d140e4cc34948ef3991249f", "type": "electric_scooter", "is_reserved": 0, "lon": -76.99466666666666}, {"fusion_lat": 0.0, "name": "98d0790563bc99f892b69165b54ffc31", "is_disabled": 0, "rental_uris": {"android": "https://dc.lft.to/lastmile_qr_scan", "ios": "https://dc.lft.to/lastmile_qr_scan"}, "fusion_lon": 0.0, "lat": 38.958318, "bike_id": "98d0790563bc99f892b69165b54ffc31", "type": "electric_bike", "is_reserved": 0, "lon": -77.01514033333333}, {"fusion_lat": 0.0, "name": "f844a05897ee78a1de800257d1ef0280", "is_disabled": 0, "rental_uris": {"android": "https://dc.lft.to/lastmile_qr_scan", "ios": "https://dc.lft.to/lastmile_qr_scan"}, "fusion_lon": 0.0, "lat": 38.95296866666666, "bike_id": "f844a05897ee78a1de800257d1ef0280", "type": "electric_scooter", "is_reserved": 0, "lon": -76.99890466666666}, {"fusion_lat": 0.0, "name": "69f40dfe8d336b1b5dcc25cc3e367625", "is_disabled": 0, "rental_uris": {"android": "https://dc.lft.to/lastmile_qr_scan", "ios": "https://dc.lft.to/lastmile_qr_scan"}, "fusion_lon": 0.0, "lat": 38.92167833333333, "bike_id": "69f40dfe8d336b1b5dcc25cc3e367625", "type": "electric_scooter", "is_reserved": 0, "lon": -77.03644033333333}, {"fusion_lat": 0.0, "name": "9de394bd093c9672647f335942bb93ff", "is_disabled": 0, "rental_uris": {"android": "https://dc.lft.to/lastmile_qr_scan", "ios": "https://dc.lft.to/lastmile_qr_scan"}, "fusion_lon": 0.0, "lat": 38.9245425, "bike_id": "9de394bd093c9672647f335942bb93ff", "type": "electric_scooter", "is_reserved": 0, "lon": -77.08028316666666}, {"fusion_lat": 0.0, "name": "e68fdf779f9ded714fefbeca05547009", "is_disabled": 0, "rental_uris": {"android": "https://dc.lft.to/lastmile_qr_scan", "ios": "https://dc.lft.to/lastmile_qr_scan"}, "fusion_lon": 0.0, "lat": 38.9066695, "bike_id": "e68fdf779f9ded714fefbeca05547009", "type": "electric_scooter", "is_reserved": 0, "lon": -77.04877266666666}, {"fusion_lat": 0.0, "name": "a4f021cdcfa310e5d4806320d1b5f045", "is_disabled": 0, "rental_uris": {"android": "https://dc.lft.to/lastmile_qr_scan", "ios": "https://dc.lft.to/lastmile_qr_scan"}, "fusion_lon": 0.0, "lat": 38.9231815, "bike_id": "a4f021cdcfa310e5d4806320d1b5f045", "type": "electric_scooter", "is_reserved": 0, "lon": -77.02961983333333}, {"fusion_lat": 0.0, "name": "3b1a6d0825c3b0b7b3e9e74179bd6f15", "is_disabled": 0, "rental_uris": {"android": "https://dc.lft.to/lastmile_qr_scan", "ios": "https://dc.lft.to/lastmile_qr_scan"}, "fusion_lon": 0.0, "lat": 38.916619, "bike_id": "3b1a6d0825c3b0b7b3e9e74179bd6f15", "type": "electric_scooter", "is_reserved": 0, "lon": -77.028185}, {"fusion_lat": 0.0, "name": "fc2d7eed1a5a2caeff5303c4108673b7", "is_disabled": 0, "rental_uris": {"android": "https://dc.lft.to/lastmile_qr_scan", "ios": "https://dc.lft.to/lastmile_qr_scan"}, "fusion_lon": 0.0, "lat": 38.95375266666667, "bike_id": "fc2d7eed1a5a2caeff5303c4108673b7", "type": "electric_scooter", "is_reserved": 0, "lon": -77.0255515}, {"fusion_lat": 0.0, "name": "6eec486a626cd37d49a803ede2282c6a", "is_disabled": 0, "rental_uris": {"android": "https://dc.lft.to/lastmile_qr_scan", "ios": "https://dc.lft.to/lastmile_qr_scan"}, "fusion_lon": 0.0, "lat": 38.92302983333333, "bike_id": "6eec486a626cd37d49a803ede2282c6a", "type": "electric_scooter", "is_reserved": 0, "lon": -76.99780033333333}, {"fusion_lat": 0.0, "name": "75bd498d544dac932526316148694300", "is_disabled": 0, "rental_uris": {"android": "https://dc.lft.to/lastmile_qr_scan", "ios": "https://dc.lft.to/lastmile_qr_scan"}, "fusion_lon": 0.0, "lat": 38.92976566666667, "bike_id": "75bd498d544dac932526316148694300", "type": "electric_scooter", "is_reserved": 0, "lon": -77.027963}, {"fusion_lat": 0.0, "name": "3d86b0ba84fbcd96574af571496fb821", "is_disabled": 0, "rental_uris": {"android": "https://dc.lft.to/lastmile_qr_scan", "ios": "https://dc.lft.to/lastmile_qr_scan"}, "fusion_lon": 0.0, "lat": 38.92248583333333, "bike_id": "3d86b0ba84fbcd96574af571496fb821", "type": "electric_scooter", "is_reserved": 0, "lon": -77.02998383333333}, {"fusion_lat": 0.0, "name": "31af157a87de5fbefb8b0f31dbb96b5a", "is_disabled": 0, "rental_uris": {"android": "https://dc.lft.to/lastmile_qr_scan", "ios": "https://dc.lft.to/lastmile_qr_scan"}, "fusion_lon": 0.0, "lat": 38.89719, "bike_id": "31af157a87de5fbefb8b0f31dbb96b5a", "type": "electric_scooter", "is_reserved": 0, "lon": -77.0085125}, {"fusion_lat": 0.0, "name": "758d3fc6891fdf8bd2e989d92c7dc9e1", "is_disabled": 0, "rental_uris": {"android": "https://dc.lft.to/lastmile_qr_scan", "ios": "https://dc.lft.to/lastmile_qr_scan"}, "fusion_lon": 0.0, "lat": 38.94664266666667, "bike_id": "758d3fc6891fdf8bd2e989d92c7dc9e1", "type": "electric_bike", "is_reserved": 0, "lon": -77.00695833333333}, {"fusion_lat": 0.0, "name": "6107ac8da2427f6dca6429b69466958a", "is_disabled": 0, "rental_uris": {"android": "https://dc.lft.to/lastmile_qr_scan", "ios": "https://dc.lft.to/lastmile_qr_scan"}, "fusion_lon": 0.0, "lat": 38.91784666666667, "bike_id": "6107ac8da2427f6dca6429b69466958a", "type": "electric_scooter", "is_reserved": 0, "lon": -77.02314533333333}, {"fusion_lat": 0.0, "name": "57a9a73a375f773d91ee4c2e60643ce8", "is_disabled": 0, "rental_uris": {"android": "https://dc.lft.to/lastmile_qr_scan", "ios": "https://dc.lft.to/lastmile_qr_scan"}, "fusion_lon": 0.0, "lat": 38.88619216666667, "bike_id": "57a9a73a375f773d91ee4c2e60643ce8", "type": "electric_scooter", "is_reserved": 0, "lon": -77.019811}, {"fusion_lat": 0.0, "name": "afd1b61adb61374a82f3aa45d7276708", "is_disabled": 0, "rental_uris": {"android": "https://dc.lft.to/lastmile_qr_scan", "ios": "https://dc.lft.to/lastmile_qr_scan"}, "fusion_lon": 0.0, "lat": 38.88112183333333, "bike_id": "afd1b61adb61374a82f3aa45d7276708", "type": "electric_scooter", "is_reserved": 0, "lon": -76.99850766666667}, {"fusion_lat": 0.0, "name": "b8735134334c4d3b255d3150d6afcc44", "is_disabled": 0, "rental_uris": {"android": "https://dc.lft.to/lastmile_qr_scan", "ios": "https://dc.lft.to/lastmile_qr_scan"}, "fusion_lon": 0.0, "lat": 38.87951733333333, "bike_id": "b8735134334c4d3b255d3150d6afcc44", "type": "electric_bike", "is_reserved": 0, "lon": -77.00776833333333}, {"fusion_lat": 0.0, "name": "c25274ed18744ace9bf4d54c3546c54e", "is_disabled": 0, "rental_uris": {"android": "https://dc.lft.to/lastmile_qr_scan", "ios": "https://dc.lft.to/lastmile_qr_scan"}, "fusion_lon": 0.0, "lat": 38.92127083333333, "bike_id": "c25274ed18744ace9bf4d54c3546c54e", "type": "electric_scooter", "is_reserved": 0, "lon": -77.0317965}, {"fusion_lat": 0.0, "name": "04d2ccb98cb4093713e9c520377dd5d7", "is_disabled": 0, "rental_uris": {"android": "https://dc.lft.to/lastmile_qr_scan", "ios": "https://dc.lft.to/lastmile_qr_scan"}, "fusion_lon": 0.0, "lat": 38.93678466666667, "bike_id": "04d2ccb98cb4093713e9c520377dd5d7", "type": "electric_scooter", "is_reserved": 0, "lon": -77.0359505}, {"fusion_lat": 0.0, "name": "4577389d4e4f73c6f574b094b0265866", "is_disabled": 0, "rental_uris": {"android": "https://dc.lft.to/lastmile_qr_scan", "ios": "https://dc.lft.to/lastmile_qr_scan"}, "fusion_lon": 0.0, "lat": 38.88723666666667, "bike_id": "4577389d4e4f73c6f574b094b0265866", "type": "electric_scooter", "is_reserved": 0, "lon": -77.01329466666667}, {"fusion_lat": 0.0, "name": "2ad5822833d89725dc9fc3c903b14768", "is_disabled": 0, "rental_uris": {"android": "https://dc.lft.to/lastmile_qr_scan", "ios": "https://dc.lft.to/lastmile_qr_scan"}, "fusion_lon": 0.0, "lat": 38.86267316666667, "bike_id": "2ad5822833d89725dc9fc3c903b14768", "type": "electric_bike", "is_reserved": 0, "lon": -76.98350116666667}, {"fusion_lat": 0.0, "name": "16ef6f133b7be65390d041f346b0256f", "is_disabled": 0, "rental_uris": {"android": "https://dc.lft.to/lastmile_qr_scan", "ios": "https://dc.lft.to/lastmile_qr_scan"}, "fusion_lon": 0.0, "lat": 38.914365333333336, "bike_id": "16ef6f133b7be65390d041f346b0256f", "type": "electric_scooter", "is_reserved": 0, "lon": -76.99353866666667}, {"fusion_lat": 0.0, "name": "58b423dc8a44243a6841d3051189449e", "is_disabled": 0, "rental_uris": {"android": "https://dc.lft.to/lastmile_qr_scan", "ios": "https://dc.lft.to/lastmile_qr_scan"}, "fusion_lon": 0.0, "lat": 38.90032333333333, "bike_id": "58b423dc8a44243a6841d3051189449e", "type": "electric_bike", "is_reserved": 0, "lon": -76.97220733333333}, {"fusion_lat": 0.0, "name": "bcee4b124888b290650127383fced673", "is_disabled": 0, "rental_uris": {"android": "https://dc.lft.to/lastmile_qr_scan", "ios": "https://dc.lft.to/lastmile_qr_scan"}, "fusion_lon": 0.0, "lat": 38.91114266666666, "bike_id": "bcee4b124888b290650127383fced673", "type": "electric_scooter", "is_reserved": 0, "lon": -77.03826883333333}, {"fusion_lat": 0.0, "name": "c87d5a062fc4a0c15c2861a2db60e66a", "is_disabled": 0, "rental_uris": {"android": "https://dc.lft.to/lastmile_qr_scan", "ios": "https://dc.lft.to/lastmile_qr_scan"}, "fusion_lon": 0.0, "lat": 38.922547333333334, "bike_id": "c87d5a062fc4a0c15c2861a2db60e66a", "type": "electric_scooter", "is_reserved": 0, "lon": -77.0091255}, {"fusion_lat": 0.0, "name": "af0c4b0b8f4096d976c108e39bcbb169", "is_disabled": 0, "rental_uris": {"android": "https://dc.lft.to/lastmile_qr_scan", "ios": "https://dc.lft.to/lastmile_qr_scan"}, "fusion_lon": 0.0, "lat": 38.92969133333333, "bike_id": "af0c4b0b8f4096d976c108e39bcbb169", "type": "electric_scooter", "is_reserved": 0, "lon": -76.99176533333333}, {"fusion_lat": 0.0, "name": "880a2f7ec793d8f58ce99341f844f710", "is_disabled": 0, "rental_uris": {"android": "https://dc.lft.to/lastmile_qr_scan", "ios": "https://dc.lft.to/lastmile_qr_scan"}, "fusion_lon": 0.0, "lat": 38.907723, "bike_id": "880a2f7ec793d8f58ce99341f844f710", "type": "electric_scooter", "is_reserved": 0, "lon": -77.03844033333333}, {"fusion_lat": 0.0, "name": "ade6057af594d269714e7c1306ab47ad", "is_disabled": 0, "rental_uris": {"android": "https://dc.lft.to/lastmile_qr_scan", "ios": "https://dc.lft.to/lastmile_qr_scan"}, "fusion_lon": 0.0, "lat": 38.905233333333335, "bike_id": "ade6057af594d269714e7c1306ab47ad", "type": "electric_scooter", "is_reserved": 0, "lon": -77.02950683333333}, {"fusion_lat": 0.0, "name": "a0bea54f70d856e4b8d2f71085705096", "is_disabled": 0, "rental_uris": {"android": "https://dc.lft.to/lastmile_qr_scan", "ios": "https://dc.lft.to/lastmile_qr_scan"}, "fusion_lon": 0.0, "lat": 38.938587166666665, "bike_id": "a0bea54f70d856e4b8d2f71085705096", "type": "electric_scooter", "is_reserved": 0, "lon": -77.02552733333333}, {"fusion_lat": 0.0, "name": "36201b65cd1b26ceb69d5d64698a610c", "is_disabled": 0, "rental_uris": {"android": "https://dc.lft.to/lastmile_qr_scan", "ios": "https://dc.lft.to/lastmile_qr_scan"}, "fusion_lon": 0.0, "lat": 38.90774916666667, "bike_id": "36201b65cd1b26ceb69d5d64698a610c", "type": "electric_scooter", "is_reserved": 0, "lon": -77.03840716666667}, {"fusion_lat": 0.0, "name": "62b7588843a4a3084ac7812f30932dd2", "is_disabled": 0, "rental_uris": {"android": "https://dc.lft.to/lastmile_qr_scan", "ios": "https://dc.lft.to/lastmile_qr_scan"}, "fusion_lon": 0.0, "lat": 38.905761166666665, "bike_id": "62b7588843a4a3084ac7812f30932dd2", "type": "electric_scooter", "is_reserved": 0, "lon": -77.03473866666667}, {"fusion_lat": 0.0, "name": "5cca1c84cdb54085fa7542282378e5d1", "is_disabled": 0, "rental_uris": {"android": "https://dc.lft.to/lastmile_qr_scan", "ios": "https://dc.lft.to/lastmile_qr_scan"}, "fusion_lon": 0.0, "lat": 38.90404816666667, "bike_id": "5cca1c84cdb54085fa7542282378e5d1", "type": "electric_scooter", "is_reserved": 0, "lon": -77.04881733333333}, {"fusion_lat": 0.0, "name": "fd11beb7dfc609afc38d681de8aca495", "is_disabled": 0, "rental_uris": {"android": "https://dc.lft.to/lastmile_qr_scan", "ios": "https://dc.lft.to/lastmile_qr_scan"}, "fusion_lon": 0.0, "lat": 38.92474583333333, "bike_id": "fd11beb7dfc609afc38d681de8aca495", "type": "electric_scooter", "is_reserved": 0, "lon": -77.02212516666667}, {"fusion_lat": 0.0, "name": "d8711c6256f8b06420ec98315ace0525", "is_disabled": 0, "rental_uris": {"android": "https://dc.lft.to/lastmile_qr_scan", "ios": "https://dc.lft.to/lastmile_qr_scan"}, "fusion_lon": 0.0, "lat": 38.892222, "bike_id": "d8711c6256f8b06420ec98315ace0525", "type": "electric_scooter", "is_reserved": 0, "lon": -77.02012116666667}, {"fusion_lat": 0.0, "name": "95a51dbeab56760338fe8888b5ef8545", "is_disabled": 0, "rental_uris": {"android": "https://dc.lft.to/lastmile_qr_scan", "ios": "https://dc.lft.to/lastmile_qr_scan"}, "fusion_lon": 0.0, "lat": 38.931718333333336, "bike_id": "95a51dbeab56760338fe8888b5ef8545", "type": "electric_scooter", "is_reserved": 0, "lon": -77.037815}, {"fusion_lat": 0.0, "name": "932a73fbd26372ac80e8bae9d1b4e250", "is_disabled": 0, "rental_uris": {"android": "https://dc.lft.to/lastmile_qr_scan", "ios": "https://dc.lft.to/lastmile_qr_scan"}, "fusion_lon": 0.0, "lat": 38.897319833333334, "bike_id": "932a73fbd26372ac80e8bae9d1b4e250", "type": "electric_scooter", "is_reserved": 0, "lon": -77.04631266666667}, {"fusion_lat": 0.0, "name": "46176c5b490bafad64b7ddb878ece0a7", "is_disabled": 0, "rental_uris": {"android": "https://dc.lft.to/lastmile_qr_scan", "ios": "https://dc.lft.to/lastmile_qr_scan"}, "fusion_lon": 0.0, "lat": 38.91146766666667, "bike_id": "46176c5b490bafad64b7ddb878ece0a7", "type": "electric_scooter", "is_reserved": 0, "lon": -76.99690266666667}, {"fusion_lat": 0.0, "name": "568947e31c9624a5944dd6a0caec96aa", "is_disabled": 0, "rental_uris": {"android": "https://dc.lft.to/lastmile_qr_scan", "ios": "https://dc.lft.to/lastmile_qr_scan"}, "fusion_lon": 0.0, "lat": 38.9667845, "bike_id": "568947e31c9624a5944dd6a0caec96aa", "type": "electric_bike", "is_reserved": 0, "lon": -77.0230675}, {"fusion_lat": 0.0, "name": "a75b5e727e79aca7eed56995f0d6c454", "is_disabled": 0, "rental_uris": {"android": "https://dc.lft.to/lastmile_qr_scan", "ios": "https://dc.lft.to/lastmile_qr_scan"}, "fusion_lon": 0.0, "lat": 38.87721, "bike_id": "a75b5e727e79aca7eed56995f0d6c454", "type": "electric_scooter", "is_reserved": 0, "lon": -77.004218}, {"fusion_lat": 0.0, "name": "afaf7842539425b6db9d407a5db1a2ea", "is_disabled": 0, "rental_uris": {"android": "https://dc.lft.to/lastmile_qr_scan", "ios": "https://dc.lft.to/lastmile_qr_scan"}, "fusion_lon": 0.0, "lat": 38.907370666666665, "bike_id": "afaf7842539425b6db9d407a5db1a2ea", "type": "electric_scooter", "is_reserved": 0, "lon": -77.0344265}, {"fusion_lat": 0.0, "name": "e2d7d360987a26fd268a2790553ffa8c", "is_disabled": 0, "rental_uris": {"android": "https://dc.lft.to/lastmile_qr_scan", "ios": "https://dc.lft.to/lastmile_qr_scan"}, "fusion_lon": 0.0, "lat": 38.8320555, "bike_id": "e2d7d360987a26fd268a2790553ffa8c", "type": "electric_bike", "is_reserved": 0, "lon": -76.9967595}, {"fusion_lat": 0.0, "name": "e1808f407a5709b9080422e16c044db1", "is_disabled": 0, "rental_uris": {"android": "https://dc.lft.to/lastmile_qr_scan", "ios": "https://dc.lft.to/lastmile_qr_scan"}, "fusion_lon": 0.0, "lat": 38.91693933333333, "bike_id": "e1808f407a5709b9080422e16c044db1", "type": "electric_scooter", "is_reserved": 0, "lon": -77.03224333333333}, {"fusion_lat": 0.0, "name": "b2d44d68b344dc047116ee4ef47fc9c8", "is_disabled": 0, "rental_uris": {"android": "https://dc.lft.to/lastmile_qr_scan", "ios": "https://dc.lft.to/lastmile_qr_scan"}, "fusion_lon": 0.0, "lat": 38.885299, "bike_id": "b2d44d68b344dc047116ee4ef47fc9c8", "type": "electric_scooter", "is_reserved": 0, "lon": -76.92909416666667}, {"fusion_lat": 0.0, "name": "340ccb7c8df8825805a2a826df1bb149", "is_disabled": 0, "rental_uris": {"android": "https://dc.lft.to/lastmile_qr_scan", "ios": "https://dc.lft.to/lastmile_qr_scan"}, "fusion_lon": 0.0, "lat": 38.92141983333333, "bike_id": "340ccb7c8df8825805a2a826df1bb149", "type": "electric_scooter", "is_reserved": 0, "lon": -77.01802866666667}, {"fusion_lat": 0.0, "name": "077882bda0897c72049a6dd379210a66", "is_disabled": 0, "rental_uris": {"android": "https://dc.lft.to/lastmile_qr_scan", "ios": "https://dc.lft.to/lastmile_qr_scan"}, "fusion_lon": 0.0, "lat": 38.900431166666664, "bike_id": "077882bda0897c72049a6dd379210a66", "type": "electric_scooter", "is_reserved": 0, "lon": -77.0348265}, {"fusion_lat": 0.0, "name": "9e20aa2757b12ad6953637b8cd69630e", "is_disabled": 0, "rental_uris": {"android": "https://dc.lft.to/lastmile_qr_scan", "ios": "https://dc.lft.to/lastmile_qr_scan"}, "fusion_lon": 0.0, "lat": 38.8982735, "bike_id": "9e20aa2757b12ad6953637b8cd69630e", "type": "electric_scooter", "is_reserved": 0, "lon": -76.94653933333333}, {"fusion_lat": 0.0, "name": "ce27d54e66036bfce4fb0a30f215c903", "is_disabled": 0, "rental_uris": {"android": "https://dc.lft.to/lastmile_qr_scan", "ios": "https://dc.lft.to/lastmile_qr_scan"}, "fusion_lon": 0.0, "lat": 38.899092833333334, "bike_id": "ce27d54e66036bfce4fb0a30f215c903", "type": "electric_scooter", "is_reserved": 0, "lon": -76.93352016666667}, {"fusion_lat": 0.0, "name": "7c3d2405cb4a71e83bf1596daabbde54", "is_disabled": 0, "rental_uris": {"android": "https://dc.lft.to/lastmile_qr_scan", "ios": "https://dc.lft.to/lastmile_qr_scan"}, "fusion_lon": 0.0, "lat": 38.950579166666664, "bike_id": "7c3d2405cb4a71e83bf1596daabbde54", "type": "electric_scooter", "is_reserved": 0, "lon": -77.08026233333334}, {"fusion_lat": 0.0, "name": "482cf278e74a97cc415d7ccc53ccded4", "is_disabled": 0, "rental_uris": {"android": "https://dc.lft.to/lastmile_qr_scan", "ios": "https://dc.lft.to/lastmile_qr_scan"}, "fusion_lon": 0.0, "lat": 38.935994, "bike_id": "482cf278e74a97cc415d7ccc53ccded4", "type": "electric_scooter", "is_reserved": 0, "lon": -77.03653283333334}, {"fusion_lat": 0.0, "name": "da4856f1c880ae4fa6b52b62a2cab62a", "is_disabled": 0, "rental_uris": {"android": "https://dc.lft.to/lastmile_qr_scan", "ios": "https://dc.lft.to/lastmile_qr_scan"}, "fusion_lon": 0.0, "lat": 38.922656833333335, "bike_id": "da4856f1c880ae4fa6b52b62a2cab62a", "type": "electric_scooter", "is_reserved": 0, "lon": -77.01947016666666}, {"fusion_lat": 0.0, "name": "b340ee73f64a30fbf8c1048e9a58c3d7", "is_disabled": 0, "rental_uris": {"android": "https://dc.lft.to/lastmile_qr_scan", "ios": "https://dc.lft.to/lastmile_qr_scan"}, "fusion_lon": 0.0, "lat": 38.896137, "bike_id": "b340ee73f64a30fbf8c1048e9a58c3d7", "type": "electric_scooter", "is_reserved": 0, "lon": -77.03245583333333}, {"fusion_lat": 0.0, "name": "61539771d935590d56ed5114aca58106", "is_disabled": 0, "rental_uris": {"android": "https://dc.lft.to/lastmile_qr_scan", "ios": "https://dc.lft.to/lastmile_qr_scan"}, "fusion_lon": 0.0, "lat": 38.87578116666667, "bike_id": "61539771d935590d56ed5114aca58106", "type": "electric_bike", "is_reserved": 0, "lon": -77.23409366666667}, {"fusion_lat": 0.0, "name": "e3ddfb52a54420a47348ff1d634897e0", "is_disabled": 0, "rental_uris": {"android": "https://dc.lft.to/lastmile_qr_scan", "ios": "https://dc.lft.to/lastmile_qr_scan"}, "fusion_lon": 0.0, "lat": 38.89192466666667, "bike_id": "e3ddfb52a54420a47348ff1d634897e0", "type": "electric_scooter", "is_reserved": 0, "lon": -76.9983995}, {"fusion_lat": 0.0, "name": "7e107b39e9df07675c9b9e5e78a3d3d4", "is_disabled": 0, "rental_uris": {"android": "https://dc.lft.to/lastmile_qr_scan", "ios": "https://dc.lft.to/lastmile_qr_scan"}, "fusion_lon": 0.0, "lat": 38.918853, "bike_id": "7e107b39e9df07675c9b9e5e78a3d3d4", "type": "electric_scooter", "is_reserved": 0, "lon": -77.04832483333334}, {"fusion_lat": 0.0, "name": "9ce797506f111bb6a4f46f0b967e4d6d", "is_disabled": 0, "rental_uris": {"android": "https://dc.lft.to/lastmile_qr_scan", "ios": "https://dc.lft.to/lastmile_qr_scan"}, "fusion_lon": 0.0, "lat": 38.9161635, "bike_id": "9ce797506f111bb6a4f46f0b967e4d6d", "type": "electric_scooter", "is_reserved": 0, "lon": -77.03113166666667}, {"fusion_lat": 0.0, "name": "8f1f5834b6a4975a476212934ac06366", "is_disabled": 0, "rental_uris": {"android": "https://dc.lft.to/lastmile_qr_scan", "ios": "https://dc.lft.to/lastmile_qr_scan"}, "fusion_lon": 0.0, "lat": 38.932594, "bike_id": "8f1f5834b6a4975a476212934ac06366", "type": "electric_scooter", "is_reserved": 0, "lon": -77.03447933333334}, {"fusion_lat": 0.0, "name": "9344a960517d9bc17d55ae8fc37e9050", "is_disabled": 0, "rental_uris": {"android": "https://dc.lft.to/lastmile_qr_scan", "ios": "https://dc.lft.to/lastmile_qr_scan"}, "fusion_lon": 0.0, "lat": 38.9342965, "bike_id": "9344a960517d9bc17d55ae8fc37e9050", "type": "electric_scooter", "is_reserved": 0, "lon": -77.0399165}, {"fusion_lat": 0.0, "name": "22f365b072d5f388bdaaf48f20982d2d", "is_disabled": 0, "rental_uris": {"android": "https://dc.lft.to/lastmile_qr_scan", "ios": "https://dc.lft.to/lastmile_qr_scan"}, "fusion_lon": 0.0, "lat": 38.9239205, "bike_id": "22f365b072d5f388bdaaf48f20982d2d", "type": "electric_scooter", "is_reserved": 0, "lon": -77.03658733333333}, {"fusion_lat": 0.0, "name": "a9d876d0ff4e4a6caf88a52cae662825", "is_disabled": 0, "rental_uris": {"android": "https://dc.lft.to/lastmile_qr_scan", "ios": "https://dc.lft.to/lastmile_qr_scan"}, "fusion_lon": 0.0, "lat": 38.8923745, "bike_id": "a9d876d0ff4e4a6caf88a52cae662825", "type": "electric_scooter", "is_reserved": 0, "lon": -77.03346616666667}, {"fusion_lat": 0.0, "name": "a501690f3fe0870c9772c713e8b8dcf0", "is_disabled": 0, "rental_uris": {"android": "https://dc.lft.to/lastmile_qr_scan", "ios": "https://dc.lft.to/lastmile_qr_scan"}, "fusion_lon": 0.0, "lat": 38.900652, "bike_id": "a501690f3fe0870c9772c713e8b8dcf0", "type": "electric_scooter", "is_reserved": 0, "lon": -76.93390183333334}, {"fusion_lat": 0.0, "name": "247bf5c706e1aa10f740c563c1cb53ea", "is_disabled": 0, "rental_uris": {"android": "https://dc.lft.to/lastmile_qr_scan", "ios": "https://dc.lft.to/lastmile_qr_scan"}, "fusion_lon": 0.0, "lat": 38.9223445, "bike_id": "247bf5c706e1aa10f740c563c1cb53ea", "type": "electric_scooter", "is_reserved": 0, "lon": -77.04245916666666}, {"fusion_lat": 0.0, "name": "ea477e84b22eae331026d27bf8a13d37", "is_disabled": 0, "rental_uris": {"android": "https://dc.lft.to/lastmile_qr_scan", "ios": "https://dc.lft.to/lastmile_qr_scan"}, "fusion_lon": 0.0, "lat": 38.94822033333333, "bike_id": "ea477e84b22eae331026d27bf8a13d37", "type": "electric_scooter", "is_reserved": 0, "lon": -77.0260925}, {"fusion_lat": 0.0, "name": "1a8010f4ec00c756060e50f4330e38a8", "is_disabled": 0, "rental_uris": {"android": "https://dc.lft.to/lastmile_qr_scan", "ios": "https://dc.lft.to/lastmile_qr_scan"}, "fusion_lon": 0.0, "lat": 38.90569133333333, "bike_id": "1a8010f4ec00c756060e50f4330e38a8", "type": "electric_scooter", "is_reserved": 0, "lon": -77.006006}, {"fusion_lat": 0.0, "name": "a344efc3010461dba8e6db42a7485382", "is_disabled": 0, "rental_uris": {"android": "https://dc.lft.to/lastmile_qr_scan", "ios": "https://dc.lft.to/lastmile_qr_scan"}, "fusion_lon": 0.0, "lat": 38.91554583333333, "bike_id": "a344efc3010461dba8e6db42a7485382", "type": "electric_scooter", "is_reserved": 0, "lon": -77.04150783333333}, {"fusion_lat": 0.0, "name": "a200fc395abc85bdd34e7856dd535477", "is_disabled": 0, "rental_uris": {"android": "https://dc.lft.to/lastmile_qr_scan", "ios": "https://dc.lft.to/lastmile_qr_scan"}, "fusion_lon": 0.0, "lat": 38.881012, "bike_id": "a200fc395abc85bdd34e7856dd535477", "type": "electric_scooter", "is_reserved": 0, "lon": -76.9866615}, {"fusion_lat": 0.0, "name": "1f16c9f7ed666f11080eed5673bd3e62", "is_disabled": 0, "rental_uris": {"android": "https://dc.lft.to/lastmile_qr_scan", "ios": "https://dc.lft.to/lastmile_qr_scan"}, "fusion_lon": 0.0, "lat": 38.835443166666664, "bike_id": "1f16c9f7ed666f11080eed5673bd3e62", "type": "electric_bike", "is_reserved": 0, "lon": -76.9872585}, {"fusion_lat": 0.0, "name": "dae726644fb7179998174bb03bc24787", "is_disabled": 0, "rental_uris": {"android": "https://dc.lft.to/lastmile_qr_scan", "ios": "https://dc.lft.to/lastmile_qr_scan"}, "fusion_lon": 0.0, "lat": 38.8861035, "bike_id": "dae726644fb7179998174bb03bc24787", "type": "electric_scooter", "is_reserved": 0, "lon": -77.01553416666667}, {"fusion_lat": 0.0, "name": "b44794b2a20802d7a5f4d8ed0d107069", "is_disabled": 0, "rental_uris": {"android": "https://dc.lft.to/lastmile_qr_scan", "ios": "https://dc.lft.to/lastmile_qr_scan"}, "fusion_lon": 0.0, "lat": 38.93366016666667, "bike_id": "b44794b2a20802d7a5f4d8ed0d107069", "type": "electric_scooter", "is_reserved": 0, "lon": -77.03079916666667}, {"fusion_lat": 0.0, "name": "c332ee51b67465a3eb7c7da1c7ac3829", "is_disabled": 0, "rental_uris": {"android": "https://dc.lft.to/lastmile_qr_scan", "ios": "https://dc.lft.to/lastmile_qr_scan"}, "fusion_lon": 0.0, "lat": 38.842802666666664, "bike_id": "c332ee51b67465a3eb7c7da1c7ac3829", "type": "electric_bike", "is_reserved": 0, "lon": -76.988406}, {"fusion_lat": 0.0, "name": "d82792b4ee8b20319e146c570cdc3b9d", "is_disabled": 0, "rental_uris": {"android": "https://dc.lft.to/lastmile_qr_scan", "ios": "https://dc.lft.to/lastmile_qr_scan"}, "fusion_lon": 0.0, "lat": 38.92260366666667, "bike_id": "d82792b4ee8b20319e146c570cdc3b9d", "type": "electric_bike", "is_reserved": 0, "lon": -77.070286}, {"fusion_lat": 0.0, "name": "4d57f5a4d6bb8494297ee22ba19f4d4b", "is_disabled": 0, "rental_uris": {"android": "https://dc.lft.to/lastmile_qr_scan", "ios": "https://dc.lft.to/lastmile_qr_scan"}, "fusion_lon": 0.0, "lat": 38.9113215, "bike_id": "4d57f5a4d6bb8494297ee22ba19f4d4b", "type": "electric_scooter", "is_reserved": 0, "lon": -77.02198533333333}, {"fusion_lat": 0.0, "name": "ee95575b127598d1802beef9079dac1b", "is_disabled": 0, "rental_uris": {"android": "https://dc.lft.to/lastmile_qr_scan", "ios": "https://dc.lft.to/lastmile_qr_scan"}, "fusion_lon": 0.0, "lat": 38.924577666666664, "bike_id": "ee95575b127598d1802beef9079dac1b", "type": "electric_scooter", "is_reserved": 0, "lon": -77.02410483333334}, {"fusion_lat": 0.0, "name": "64836409c52cc86ca3f995d21687a71f", "is_disabled": 0, "rental_uris": {"android": "https://dc.lft.to/lastmile_qr_scan", "ios": "https://dc.lft.to/lastmile_qr_scan"}, "fusion_lon": 0.0, "lat": 38.908847333333334, "bike_id": "64836409c52cc86ca3f995d21687a71f", "type": "electric_scooter", "is_reserved": 0, "lon": -77.04414716666666}, {"fusion_lat": 0.0, "name": "65eb61df9f76dc06f8b2f3217bfb342d", "is_disabled": 0, "rental_uris": {"android": "https://dc.lft.to/lastmile_qr_scan", "ios": "https://dc.lft.to/lastmile_qr_scan"}, "fusion_lon": 0.0, "lat": 38.920345, "bike_id": "65eb61df9f76dc06f8b2f3217bfb342d", "type": "electric_scooter", "is_reserved": 0, "lon": -77.030741}, {"fusion_lat": 0.0, "name": "0ea907823926e065d44c30acc51571f1", "is_disabled": 0, "rental_uris": {"android": "https://dc.lft.to/lastmile_qr_scan", "ios": "https://dc.lft.to/lastmile_qr_scan"}, "fusion_lon": 0.0, "lat": 38.92070016666667, "bike_id": "0ea907823926e065d44c30acc51571f1", "type": "electric_scooter", "is_reserved": 0, "lon": -77.02859016666666}, {"fusion_lat": 0.0, "name": "2b13debfd91913bebaac935636307a6e", "is_disabled": 0, "rental_uris": {"android": "https://dc.lft.to/lastmile_qr_scan", "ios": "https://dc.lft.to/lastmile_qr_scan"}, "fusion_lon": 0.0, "lat": 38.91821016666667, "bike_id": "2b13debfd91913bebaac935636307a6e", "type": "electric_scooter", "is_reserved": 0, "lon": -77.03275433333333}, {"fusion_lat": 0.0, "name": "49cb5146ffb60a201bc4f680e12aeb1e", "is_disabled": 0, "rental_uris": {"android": "https://dc.lft.to/lastmile_qr_scan", "ios": "https://dc.lft.to/lastmile_qr_scan"}, "fusion_lon": 0.0, "lat": 38.91656283333333, "bike_id": "49cb5146ffb60a201bc4f680e12aeb1e", "type": "electric_scooter", "is_reserved": 0, "lon": -77.0419735}, {"fusion_lat": 0.0, "name": "c17f0a14c776daa3d6a22cb9cc065871", "is_disabled": 0, "rental_uris": {"android": "https://dc.lft.to/lastmile_qr_scan", "ios": "https://dc.lft.to/lastmile_qr_scan"}, "fusion_lon": 0.0, "lat": 38.920905833333336, "bike_id": "c17f0a14c776daa3d6a22cb9cc065871", "type": "electric_scooter", "is_reserved": 0, "lon": -77.0394455}, {"fusion_lat": 0.0, "name": "788f45c969c888933c73df7fdd96f7a7", "is_disabled": 0, "rental_uris": {"android": "https://dc.lft.to/lastmile_qr_scan", "ios": "https://dc.lft.to/lastmile_qr_scan"}, "fusion_lon": 0.0, "lat": 38.934595, "bike_id": "788f45c969c888933c73df7fdd96f7a7", "type": "electric_scooter", "is_reserved": 0, "lon": -77.0577875}, {"fusion_lat": 0.0, "name": "2fc67eb23d4a69320ea15c9bdeedce70", "is_disabled": 0, "rental_uris": {"android": "https://dc.lft.to/lastmile_qr_scan", "ios": "https://dc.lft.to/lastmile_qr_scan"}, "fusion_lon": 0.0, "lat": 38.897474833333334, "bike_id": "2fc67eb23d4a69320ea15c9bdeedce70", "type": "electric_scooter", "is_reserved": 0, "lon": -77.03190766666667}, {"fusion_lat": 0.0, "name": "ad141eef17093c627484a1933da16b6b", "is_disabled": 0, "rental_uris": {"android": "https://dc.lft.to/lastmile_qr_scan", "ios": "https://dc.lft.to/lastmile_qr_scan"}, "fusion_lon": 0.0, "lat": 38.935348166666664, "bike_id": "ad141eef17093c627484a1933da16b6b", "type": "electric_scooter", "is_reserved": 0, "lon": -77.02348016666667}, {"fusion_lat": 0.0, "name": "0dd6f1b62c9de63dd993a60875f96e6f", "is_disabled": 0, "rental_uris": {"android": "https://dc.lft.to/lastmile_qr_scan", "ios": "https://dc.lft.to/lastmile_qr_scan"}, "fusion_lon": 0.0, "lat": 38.921128, "bike_id": "0dd6f1b62c9de63dd993a60875f96e6f", "type": "electric_scooter", "is_reserved": 0, "lon": -77.04694783333333}, {"fusion_lat": 0.0, "name": "a342868f7607fb950469ca826d5c82c8", "is_disabled": 0, "rental_uris": {"android": "https://dc.lft.to/lastmile_qr_scan", "ios": "https://dc.lft.to/lastmile_qr_scan"}, "fusion_lon": 0.0, "lat": 38.9123815, "bike_id": "a342868f7607fb950469ca826d5c82c8", "type": "electric_scooter", "is_reserved": 0, "lon": -77.04875016666666}, {"fusion_lat": 0.0, "name": "f76c0cf125dd1595a4b434e98e4095a8", "is_disabled": 0, "rental_uris": {"android": "https://dc.lft.to/lastmile_qr_scan", "ios": "https://dc.lft.to/lastmile_qr_scan"}, "fusion_lon": 0.0, "lat": 38.923526, "bike_id": "f76c0cf125dd1595a4b434e98e4095a8", "type": "electric_scooter", "is_reserved": 0, "lon": -77.024496}, {"fusion_lat": 0.0, "name": "da28b146eb6b667271585e72dbfb809d", "is_disabled": 0, "rental_uris": {"android": "https://dc.lft.to/lastmile_qr_scan", "ios": "https://dc.lft.to/lastmile_qr_scan"}, "fusion_lon": 0.0, "lat": 38.92820866666667, "bike_id": "da28b146eb6b667271585e72dbfb809d", "type": "electric_bike", "is_reserved": 0, "lon": -77.05411316666667}, {"fusion_lat": 0.0, "name": "668f6cf40681c0edc6325a3e1b22f076", "is_disabled": 0, "rental_uris": {"android": "https://dc.lft.to/lastmile_qr_scan", "ios": "https://dc.lft.to/lastmile_qr_scan"}, "fusion_lon": 0.0, "lat": 38.849173666666665, "bike_id": "668f6cf40681c0edc6325a3e1b22f076", "type": "electric_bike", "is_reserved": 0, "lon": -77.07928983333333}, {"fusion_lat": 0.0, "name": "16571f58012d2a02d83b3e1945164163", "is_disabled": 0, "rental_uris": {"android": "https://dc.lft.to/lastmile_qr_scan", "ios": "https://dc.lft.to/lastmile_qr_scan"}, "fusion_lon": 0.0, "lat": 38.90062866666667, "bike_id": "16571f58012d2a02d83b3e1945164163", "type": "electric_scooter", "is_reserved": 0, "lon": -76.987181}, {"fusion_lat": 0.0, "name": "39ef72365f5a081f593039957576aaae", "is_disabled": 0, "rental_uris": {"android": "https://dc.lft.to/lastmile_qr_scan", "ios": "https://dc.lft.to/lastmile_qr_scan"}, "fusion_lon": 0.0, "lat": 38.93194966666667, "bike_id": "39ef72365f5a081f593039957576aaae", "type": "electric_scooter", "is_reserved": 0, "lon": -77.02971516666666}, {"fusion_lat": 0.0, "name": "62f235426e289e9117114382efe4d398", "is_disabled": 0, "rental_uris": {"android": "https://dc.lft.to/lastmile_qr_scan", "ios": "https://dc.lft.to/lastmile_qr_scan"}, "fusion_lon": 0.0, "lat": 38.92702666666667, "bike_id": "62f235426e289e9117114382efe4d398", "type": "electric_scooter", "is_reserved": 0, "lon": -77.020729}, {"fusion_lat": 0.0, "name": "fdee493fc619c5a15f9b4ecda7f736ec", "is_disabled": 0, "rental_uris": {"android": "https://dc.lft.to/lastmile_qr_scan", "ios": "https://dc.lft.to/lastmile_qr_scan"}, "fusion_lon": 0.0, "lat": 38.88512033333333, "bike_id": "fdee493fc619c5a15f9b4ecda7f736ec", "type": "electric_scooter", "is_reserved": 0, "lon": -76.99756366666666}, {"fusion_lat": 0.0, "name": "284947b8002571e83bc8bbb38d2cc2f3", "is_disabled": 0, "rental_uris": {"android": "https://dc.lft.to/lastmile_qr_scan", "ios": "https://dc.lft.to/lastmile_qr_scan"}, "fusion_lon": 0.0, "lat": 38.81605916666667, "bike_id": "284947b8002571e83bc8bbb38d2cc2f3", "type": "electric_bike", "is_reserved": 0, "lon": -76.99654166666667}, {"fusion_lat": 0.0, "name": "30f86fed1e974ad7bbd150378fbd535d", "is_disabled": 0, "rental_uris": {"android": "https://dc.lft.to/lastmile_qr_scan", "ios": "https://dc.lft.to/lastmile_qr_scan"}, "fusion_lon": 0.0, "lat": 39.01418283333334, "bike_id": "30f86fed1e974ad7bbd150378fbd535d", "type": "electric_bike", "is_reserved": 0, "lon": -77.04497066666667}, {"fusion_lat": 0.0, "name": "c45819a20f0e82ef8ed988a1ce1ec667", "is_disabled": 0, "rental_uris": {"android": "https://dc.lft.to/lastmile_qr_scan", "ios": "https://dc.lft.to/lastmile_qr_scan"}, "fusion_lon": 0.0, "lat": 38.909519333333336, "bike_id": "c45819a20f0e82ef8ed988a1ce1ec667", "type": "electric_scooter", "is_reserved": 0, "lon": -76.9853785}, {"fusion_lat": 0.0, "name": "e163e5f2fc192f71b2f239d164d9bbd5", "is_disabled": 0, "rental_uris": {"android": "https://dc.lft.to/lastmile_qr_scan", "ios": "https://dc.lft.to/lastmile_qr_scan"}, "fusion_lon": 0.0, "lat": 38.929204666666664, "bike_id": "e163e5f2fc192f71b2f239d164d9bbd5", "type": "electric_scooter", "is_reserved": 0, "lon": -77.02188416666667}, {"fusion_lat": 0.0, "name": "fb5aa76964f74ede169c93812d63aea7", "is_disabled": 0, "rental_uris": {"android": "https://dc.lft.to/lastmile_qr_scan", "ios": "https://dc.lft.to/lastmile_qr_scan"}, "fusion_lon": 0.0, "lat": 38.89491233333333, "bike_id": "fb5aa76964f74ede169c93812d63aea7", "type": "electric_scooter", "is_reserved": 0, "lon": -77.00252483333334}, {"fusion_lat": 0.0, "name": "f9248c49ec508cdb6806ec9b9d04ce25", "is_disabled": 0, "rental_uris": {"android": "https://dc.lft.to/lastmile_qr_scan", "ios": "https://dc.lft.to/lastmile_qr_scan"}, "fusion_lon": 0.0, "lat": 38.892270333333336, "bike_id": "f9248c49ec508cdb6806ec9b9d04ce25", "type": "electric_scooter", "is_reserved": 0, "lon": -77.04504916666667}, {"fusion_lat": 0.0, "name": "18b678432fe7138a79517b015089a767", "is_disabled": 0, "rental_uris": {"android": "https://dc.lft.to/lastmile_qr_scan", "ios": "https://dc.lft.to/lastmile_qr_scan"}, "fusion_lon": 0.0, "lat": 38.94297916666667, "bike_id": "18b678432fe7138a79517b015089a767", "type": "electric_scooter", "is_reserved": 0, "lon": -77.02171133333333}, {"fusion_lat": 0.0, "name": "0c9a363b8f01aa1e727e1d45f4b3ed21", "is_disabled": 0, "rental_uris": {"android": "https://dc.lft.to/lastmile_qr_scan", "ios": "https://dc.lft.to/lastmile_qr_scan"}, "fusion_lon": 0.0, "lat": 38.952929166666664, "bike_id": "0c9a363b8f01aa1e727e1d45f4b3ed21", "type": "electric_bike", "is_reserved": 0, "lon": -76.99988983333333}, {"fusion_lat": 0.0, "name": "3c9d91dcc183dcd1665dcc5e40feb578", "is_disabled": 0, "rental_uris": {"android": "https://dc.lft.to/lastmile_qr_scan", "ios": "https://dc.lft.to/lastmile_qr_scan"}, "fusion_lon": 0.0, "lat": 38.8997115, "bike_id": "3c9d91dcc183dcd1665dcc5e40feb578", "type": "electric_scooter", "is_reserved": 0, "lon": -76.98163133333334}, {"fusion_lat": 0.0, "name": "1d4bb621bdae331a408dd669a2e6244e", "is_disabled": 0, "rental_uris": {"android": "https://dc.lft.to/lastmile_qr_scan", "ios": "https://dc.lft.to/lastmile_qr_scan"}, "fusion_lon": 0.0, "lat": 38.897559, "bike_id": "1d4bb621bdae331a408dd669a2e6244e", "type": "electric_scooter", "is_reserved": 0, "lon": -77.03313}, {"fusion_lat": 0.0, "name": "96d1caffcf366ec4b8e605de1319c90f", "is_disabled": 0, "rental_uris": {"android": "https://dc.lft.to/lastmile_qr_scan", "ios": "https://dc.lft.to/lastmile_qr_scan"}, "fusion_lon": 0.0, "lat": 38.841296, "bike_id": "96d1caffcf366ec4b8e605de1319c90f", "type": "electric_bike", "is_reserved": 0, "lon": -77.06310333333333}, {"fusion_lat": 0.0, "name": "d0bd56a332e1f8c6f51a73604b7d18b5", "is_disabled": 0, "rental_uris": {"android": "https://dc.lft.to/lastmile_qr_scan", "ios": "https://dc.lft.to/lastmile_qr_scan"}, "fusion_lon": 0.0, "lat": 38.9027445, "bike_id": "d0bd56a332e1f8c6f51a73604b7d18b5", "type": "electric_scooter", "is_reserved": 0, "lon": -77.017621}, {"fusion_lat": 0.0, "name": "f4b8bb788f3857768bb756422130eac9", "is_disabled": 0, "rental_uris": {"android": "https://dc.lft.to/lastmile_qr_scan", "ios": "https://dc.lft.to/lastmile_qr_scan"}, "fusion_lon": 0.0, "lat": 38.898365166666665, "bike_id": "f4b8bb788f3857768bb756422130eac9", "type": "electric_scooter", "is_reserved": 0, "lon": -77.03167666666667}, {"fusion_lat": 0.0, "name": "b142901251a30eb85d2fc0fe77c86d87", "is_disabled": 0, "rental_uris": {"android": "https://dc.lft.to/lastmile_qr_scan", "ios": "https://dc.lft.to/lastmile_qr_scan"}, "fusion_lon": 0.0, "lat": 38.8974555, "bike_id": "b142901251a30eb85d2fc0fe77c86d87", "type": "electric_scooter", "is_reserved": 0, "lon": -77.02383616666667}, {"fusion_lat": 0.0, "name": "e058dbbf918f8e86d4dff92e2c9425ff", "is_disabled": 0, "rental_uris": {"android": "https://dc.lft.to/lastmile_qr_scan", "ios": "https://dc.lft.to/lastmile_qr_scan"}, "fusion_lon": 0.0, "lat": 38.92394183333333, "bike_id": "e058dbbf918f8e86d4dff92e2c9425ff", "type": "electric_scooter", "is_reserved": 0, "lon": -77.04298383333334}, {"fusion_lat": 0.0, "name": "ce08f04103a0f8660286b8c0acb39c37", "is_disabled": 0, "rental_uris": {"android": "https://dc.lft.to/lastmile_qr_scan", "ios": "https://dc.lft.to/lastmile_qr_scan"}, "fusion_lon": 0.0, "lat": 38.93125466666667, "bike_id": "ce08f04103a0f8660286b8c0acb39c37", "type": "electric_scooter", "is_reserved": 0, "lon": -76.98445633333333}, {"fusion_lat": 0.0, "name": "7cce3b3a2c2d90597c87878db82f2a53", "is_disabled": 0, "rental_uris": {"android": "https://dc.lft.to/lastmile_qr_scan", "ios": "https://dc.lft.to/lastmile_qr_scan"}, "fusion_lon": 0.0, "lat": 38.90624016666666, "bike_id": "7cce3b3a2c2d90597c87878db82f2a53", "type": "electric_scooter", "is_reserved": 0, "lon": -77.00591966666667}, {"fusion_lat": 0.0, "name": "0641e3940dde4cf5885db35146734d05", "is_disabled": 0, "rental_uris": {"android": "https://dc.lft.to/lastmile_qr_scan", "ios": "https://dc.lft.to/lastmile_qr_scan"}, "fusion_lon": 0.0, "lat": 38.9339435, "bike_id": "0641e3940dde4cf5885db35146734d05", "type": "electric_scooter", "is_reserved": 0, "lon": -77.02841266666667}, {"fusion_lat": 0.0, "name": "4fb4e5c7c63594d665d8f10b165460bd", "is_disabled": 0, "rental_uris": {"android": "https://dc.lft.to/lastmile_qr_scan", "ios": "https://dc.lft.to/lastmile_qr_scan"}, "fusion_lon": 0.0, "lat": 38.9204125, "bike_id": "4fb4e5c7c63594d665d8f10b165460bd", "type": "electric_scooter", "is_reserved": 0, "lon": -77.03166066666667}, {"fusion_lat": 0.0, "name": "8200bdd4725b541d52a744ad43d92ca3", "is_disabled": 0, "rental_uris": {"android": "https://dc.lft.to/lastmile_qr_scan", "ios": "https://dc.lft.to/lastmile_qr_scan"}, "fusion_lon": 0.0, "lat": 38.90036683333334, "bike_id": "8200bdd4725b541d52a744ad43d92ca3", "type": "electric_scooter", "is_reserved": 0, "lon": -77.002018}, {"fusion_lat": 0.0, "name": "6390365325bd45828833a3e87068b806", "is_disabled": 0, "rental_uris": {"android": "https://dc.lft.to/lastmile_qr_scan", "ios": "https://dc.lft.to/lastmile_qr_scan"}, "fusion_lon": 0.0, "lat": 38.88331433333333, "bike_id": "6390365325bd45828833a3e87068b806", "type": "electric_scooter", "is_reserved": 0, "lon": -77.01772583333333}, {"fusion_lat": 0.0, "name": "0572392afc68d47bad3220a28d83ed3d", "is_disabled": 0, "rental_uris": {"android": "https://dc.lft.to/lastmile_qr_scan", "ios": "https://dc.lft.to/lastmile_qr_scan"}, "fusion_lon": 0.0, "lat": 38.81328033333333, "bike_id": "0572392afc68d47bad3220a28d83ed3d", "type": "electric_bike", "is_reserved": 0, "lon": -77.05085583333333}, {"fusion_lat": 0.0, "name": "a210a099a076ce1b7d664bda9aa40e7f", "is_disabled": 0, "rental_uris": {"android": "https://dc.lft.to/lastmile_qr_scan", "ios": "https://dc.lft.to/lastmile_qr_scan"}, "fusion_lon": 0.0, "lat": 38.93199583333333, "bike_id": "a210a099a076ce1b7d664bda9aa40e7f", "type": "electric_bike", "is_reserved": 0, "lon": -77.2292635}, {"fusion_lat": 0.0, "name": "a3699bf4d845fe14952116d2921bf7f4", "is_disabled": 0, "rental_uris": {"android": "https://dc.lft.to/lastmile_qr_scan", "ios": "https://dc.lft.to/lastmile_qr_scan"}, "fusion_lon": 0.0, "lat": 38.9142805, "bike_id": "a3699bf4d845fe14952116d2921bf7f4", "type": "electric_scooter", "is_reserved": 0, "lon": -77.03466833333333}, {"fusion_lat": 0.0, "name": "715959b6027e80f3772b3d0d0974eb6a", "is_disabled": 0, "rental_uris": {"android": "https://dc.lft.to/lastmile_qr_scan", "ios": "https://dc.lft.to/lastmile_qr_scan"}, "fusion_lon": 0.0, "lat": 38.9248625, "bike_id": "715959b6027e80f3772b3d0d0974eb6a", "type": "electric_scooter", "is_reserved": 0, "lon": -77.0263215}, {"fusion_lat": 0.0, "name": "cd28aa68f600bc30ef64c2bc6a595436", "is_disabled": 0, "rental_uris": {"android": "https://dc.lft.to/lastmile_qr_scan", "ios": "https://dc.lft.to/lastmile_qr_scan"}, "fusion_lon": 0.0, "lat": 38.92245416666667, "bike_id": "cd28aa68f600bc30ef64c2bc6a595436", "type": "electric_scooter", "is_reserved": 0, "lon": -77.0747565}, {"fusion_lat": 0.0, "name": "b024d1065a6e339d8e474aa985220b62", "is_disabled": 0, "rental_uris": {"android": "https://dc.lft.to/lastmile_qr_scan", "ios": "https://dc.lft.to/lastmile_qr_scan"}, "fusion_lon": 0.0, "lat": 38.935111166666665, "bike_id": "b024d1065a6e339d8e474aa985220b62", "type": "electric_scooter", "is_reserved": 0, "lon": -77.0326}, {"fusion_lat": 0.0, "name": "74ea0b2b2125537fcff36c18bdd0f780", "is_disabled": 0, "rental_uris": {"android": "https://dc.lft.to/lastmile_qr_scan", "ios": "https://dc.lft.to/lastmile_qr_scan"}, "fusion_lon": 0.0, "lat": 38.92063516666666, "bike_id": "74ea0b2b2125537fcff36c18bdd0f780", "type": "electric_scooter", "is_reserved": 0, "lon": -77.0425755}, {"fusion_lat": 0.0, "name": "2d373189861c3a814a9a5790ff9bfefe", "is_disabled": 0, "rental_uris": {"android": "https://dc.lft.to/lastmile_qr_scan", "ios": "https://dc.lft.to/lastmile_qr_scan"}, "fusion_lon": 0.0, "lat": 38.9206225, "bike_id": "2d373189861c3a814a9a5790ff9bfefe", "type": "electric_scooter", "is_reserved": 0, "lon": -77.02537133333334}, {"fusion_lat": 0.0, "name": "aa140f2f3a426dae458eb83003e8bf0d", "is_disabled": 0, "rental_uris": {"android": "https://dc.lft.to/lastmile_qr_scan", "ios": "https://dc.lft.to/lastmile_qr_scan"}, "fusion_lon": 0.0, "lat": 38.923816333333335, "bike_id": "aa140f2f3a426dae458eb83003e8bf0d", "type": "electric_scooter", "is_reserved": 0, "lon": -77.07533366666667}, {"fusion_lat": 0.0, "name": "ebe27d7795963cf04cc46cc2fd576075", "is_disabled": 0, "rental_uris": {"android": "https://dc.lft.to/lastmile_qr_scan", "ios": "https://dc.lft.to/lastmile_qr_scan"}, "fusion_lon": 0.0, "lat": 38.89727633333333, "bike_id": "ebe27d7795963cf04cc46cc2fd576075", "type": "electric_scooter", "is_reserved": 0, "lon": -77.0317365}, {"fusion_lat": 0.0, "name": "a237c700c7756c3e316aa5b88b4d6217", "is_disabled": 0, "rental_uris": {"android": "https://dc.lft.to/lastmile_qr_scan", "ios": "https://dc.lft.to/lastmile_qr_scan"}, "fusion_lon": 0.0, "lat": 38.904117666666664, "bike_id": "a237c700c7756c3e316aa5b88b4d6217", "type": "electric_scooter", "is_reserved": 0, "lon": -76.97331066666666}, {"fusion_lat": 0.0, "name": "55031ce8b4bb38c2b85c88cf5919279d", "is_disabled": 0, "rental_uris": {"android": "https://dc.lft.to/lastmile_qr_scan", "ios": "https://dc.lft.to/lastmile_qr_scan"}, "fusion_lon": 0.0, "lat": 38.91699066666666, "bike_id": "55031ce8b4bb38c2b85c88cf5919279d", "type": "electric_scooter", "is_reserved": 0, "lon": -77.01163283333334}, {"fusion_lat": 0.0, "name": "fab7d4cc08e72f988f28a4dfd62e955b", "is_disabled": 0, "rental_uris": {"android": "https://dc.lft.to/lastmile_qr_scan", "ios": "https://dc.lft.to/lastmile_qr_scan"}, "fusion_lon": 0.0, "lat": 38.9110395, "bike_id": "fab7d4cc08e72f988f28a4dfd62e955b", "type": "electric_scooter", "is_reserved": 0, "lon": -77.01523733333333}, {"fusion_lat": 0.0, "name": "1ac6d8e81d4b636e6e9d285d0af3f652", "is_disabled": 0, "rental_uris": {"android": "https://dc.lft.to/lastmile_qr_scan", "ios": "https://dc.lft.to/lastmile_qr_scan"}, "fusion_lon": 0.0, "lat": 38.8450605, "bike_id": "1ac6d8e81d4b636e6e9d285d0af3f652", "type": "electric_bike", "is_reserved": 0, "lon": -76.993562}, {"fusion_lat": 0.0, "name": "4767f0419d9a78af31dcdff1b384e896", "is_disabled": 0, "rental_uris": {"android": "https://dc.lft.to/lastmile_qr_scan", "ios": "https://dc.lft.to/lastmile_qr_scan"}, "fusion_lon": 0.0, "lat": 38.919910333333334, "bike_id": "4767f0419d9a78af31dcdff1b384e896", "type": "electric_scooter", "is_reserved": 0, "lon": -77.0239665}, {"fusion_lat": 0.0, "name": "513a0863cfdece40e86a52fce7c72f9a", "is_disabled": 0, "rental_uris": {"android": "https://dc.lft.to/lastmile_qr_scan", "ios": "https://dc.lft.to/lastmile_qr_scan"}, "fusion_lon": 0.0, "lat": 38.884013833333334, "bike_id": "513a0863cfdece40e86a52fce7c72f9a", "type": "electric_bike", "is_reserved": 0, "lon": -76.96052066666667}, {"fusion_lat": 0.0, "name": "825566bc562e273fec90f8806aab0ea5", "is_disabled": 0, "rental_uris": {"android": "https://dc.lft.to/lastmile_qr_scan", "ios": "https://dc.lft.to/lastmile_qr_scan"}, "fusion_lon": 0.0, "lat": 38.901993166666664, "bike_id": "825566bc562e273fec90f8806aab0ea5", "type": "electric_scooter", "is_reserved": 0, "lon": -76.988427}, {"fusion_lat": 0.0, "name": "2b20d7359cb41409b0c1d07472018854", "is_disabled": 0, "rental_uris": {"android": "https://dc.lft.to/lastmile_qr_scan", "ios": "https://dc.lft.to/lastmile_qr_scan"}, "fusion_lon": 0.0, "lat": 38.92038016666667, "bike_id": "2b20d7359cb41409b0c1d07472018854", "type": "electric_scooter", "is_reserved": 0, "lon": -77.01792716666667}, {"fusion_lat": 0.0, "name": "48ddcdb76bb235b810f304d0bf4100f2", "is_disabled": 0, "rental_uris": {"android": "https://dc.lft.to/lastmile_qr_scan", "ios": "https://dc.lft.to/lastmile_qr_scan"}, "fusion_lon": 0.0, "lat": 38.90060483333333, "bike_id": "48ddcdb76bb235b810f304d0bf4100f2", "type": "electric_scooter", "is_reserved": 0, "lon": -77.01166633333334}, {"fusion_lat": 0.0, "name": "a74ff67fa8a6fd90387b74ed29da8ad1", "is_disabled": 0, "rental_uris": {"android": "https://dc.lft.to/lastmile_qr_scan", "ios": "https://dc.lft.to/lastmile_qr_scan"}, "fusion_lon": 0.0, "lat": 38.89158966666667, "bike_id": "a74ff67fa8a6fd90387b74ed29da8ad1", "type": "electric_bike", "is_reserved": 0, "lon": -77.0046495}, {"fusion_lat": 0.0, "name": "60e4b912b277dc205a49f428fce0cd15", "is_disabled": 0, "rental_uris": {"android": "https://dc.lft.to/lastmile_qr_scan", "ios": "https://dc.lft.to/lastmile_qr_scan"}, "fusion_lon": 0.0, "lat": 38.88739566666667, "bike_id": "60e4b912b277dc205a49f428fce0cd15", "type": "electric_scooter", "is_reserved": 0, "lon": -77.02584383333334}, {"fusion_lat": 0.0, "name": "63e24de64aa90b1f21d6b4fcb7ce23ae", "is_disabled": 0, "rental_uris": {"android": "https://dc.lft.to/lastmile_qr_scan", "ios": "https://dc.lft.to/lastmile_qr_scan"}, "fusion_lon": 0.0, "lat": 38.934562, "bike_id": "63e24de64aa90b1f21d6b4fcb7ce23ae", "type": "electric_scooter", "is_reserved": 0, "lon": -77.07266733333333}, {"fusion_lat": 0.0, "name": "f281856ecdd6c21497657cea7bd08097", "is_disabled": 0, "rental_uris": {"android": "https://dc.lft.to/lastmile_qr_scan", "ios": "https://dc.lft.to/lastmile_qr_scan"}, "fusion_lon": 0.0, "lat": 38.94508533333333, "bike_id": "f281856ecdd6c21497657cea7bd08097", "type": "electric_bike", "is_reserved": 0, "lon": -77.00665316666667}, {"fusion_lat": 0.0, "name": "7788dfc5bd4f3316cbbd2d41ef5991fd", "is_disabled": 0, "rental_uris": {"android": "https://dc.lft.to/lastmile_qr_scan", "ios": "https://dc.lft.to/lastmile_qr_scan"}, "fusion_lon": 0.0, "lat": 38.957345833333335, "bike_id": "7788dfc5bd4f3316cbbd2d41ef5991fd", "type": "electric_scooter", "is_reserved": 0, "lon": -77.02407383333333}, {"fusion_lat": 0.0, "name": "43ee18198f79055c32f7f66abe12e674", "is_disabled": 0, "rental_uris": {"android": "https://dc.lft.to/lastmile_qr_scan", "ios": "https://dc.lft.to/lastmile_qr_scan"}, "fusion_lon": 0.0, "lat": 38.918312, "bike_id": "43ee18198f79055c32f7f66abe12e674", "type": "electric_scooter", "is_reserved": 0, "lon": -77.0239925}, {"fusion_lat": 0.0, "name": "9a9ff8817723a7e1f0add4c11b4b2fe6", "is_disabled": 0, "rental_uris": {"android": "https://dc.lft.to/lastmile_qr_scan", "ios": "https://dc.lft.to/lastmile_qr_scan"}, "fusion_lon": 0.0, "lat": 38.901777333333335, "bike_id": "9a9ff8817723a7e1f0add4c11b4b2fe6", "type": "electric_scooter", "is_reserved": 0, "lon": -76.94147016666666}, {"fusion_lat": 0.0, "name": "d8c14a63977bb86e289a9bd38a2ee41c", "is_disabled": 0, "rental_uris": {"android": "https://dc.lft.to/lastmile_qr_scan", "ios": "https://dc.lft.to/lastmile_qr_scan"}, "fusion_lon": 0.0, "lat": 38.897432333333334, "bike_id": "d8c14a63977bb86e289a9bd38a2ee41c", "type": "electric_scooter", "is_reserved": 0, "lon": -77.0000675}, {"fusion_lat": 0.0, "name": "c03a088b22a9b1447214a62aad55171c", "is_disabled": 0, "rental_uris": {"android": "https://dc.lft.to/lastmile_qr_scan", "ios": "https://dc.lft.to/lastmile_qr_scan"}, "fusion_lon": 0.0, "lat": 38.905169, "bike_id": "c03a088b22a9b1447214a62aad55171c", "type": "electric_scooter", "is_reserved": 0, "lon": -77.03454983333333}, {"fusion_lat": 0.0, "name": "1e233e6e2e970b3d165b6d0c16d60b51", "is_disabled": 0, "rental_uris": {"android": "https://dc.lft.to/lastmile_qr_scan", "ios": "https://dc.lft.to/lastmile_qr_scan"}, "fusion_lon": 0.0, "lat": 38.91643533333333, "bike_id": "1e233e6e2e970b3d165b6d0c16d60b51", "type": "electric_scooter", "is_reserved": 0, "lon": -77.04825133333334}, {"fusion_lat": 0.0, "name": "b9f1b2d766d7cce6c7af6d923755edf4", "is_disabled": 0, "rental_uris": {"android": "https://dc.lft.to/lastmile_qr_scan", "ios": "https://dc.lft.to/lastmile_qr_scan"}, "fusion_lon": 0.0, "lat": 38.8813485, "bike_id": "b9f1b2d766d7cce6c7af6d923755edf4", "type": "electric_scooter", "is_reserved": 0, "lon": -76.992854}, {"fusion_lat": 0.0, "name": "f8816ad750b7404ce16a521a2b925664", "is_disabled": 0, "rental_uris": {"android": "https://dc.lft.to/lastmile_qr_scan", "ios": "https://dc.lft.to/lastmile_qr_scan"}, "fusion_lon": 0.0, "lat": 38.87656833333333, "bike_id": "f8816ad750b7404ce16a521a2b925664", "type": "electric_scooter", "is_reserved": 0, "lon": -77.00133316666667}, {"fusion_lat": 0.0, "name": "14a86a98e08e43369a4c7f12f8a59fd8", "is_disabled": 0, "rental_uris": {"android": "https://dc.lft.to/lastmile_qr_scan", "ios": "https://dc.lft.to/lastmile_qr_scan"}, "fusion_lon": 0.0, "lat": 38.905111166666664, "bike_id": "14a86a98e08e43369a4c7f12f8a59fd8", "type": "electric_scooter", "is_reserved": 0, "lon": -77.06883566666667}, {"fusion_lat": 0.0, "name": "d21c0d2ee09058628b21b6e39f8d9452", "is_disabled": 0, "rental_uris": {"android": "https://dc.lft.to/lastmile_qr_scan", "ios": "https://dc.lft.to/lastmile_qr_scan"}, "fusion_lon": 0.0, "lat": 38.908910666666664, "bike_id": "d21c0d2ee09058628b21b6e39f8d9452", "type": "electric_scooter", "is_reserved": 0, "lon": -76.99864433333333}, {"fusion_lat": 0.0, "name": "ce3338bf7b57d5b9349cd9fe0e9ac838", "is_disabled": 0, "rental_uris": {"android": "https://dc.lft.to/lastmile_qr_scan", "ios": "https://dc.lft.to/lastmile_qr_scan"}, "fusion_lon": 0.0, "lat": 38.886358666666666, "bike_id": "ce3338bf7b57d5b9349cd9fe0e9ac838", "type": "electric_scooter", "is_reserved": 0, "lon": -77.01964166666667}, {"fusion_lat": 0.0, "name": "3e4bf285e5a718ee7d1c299c72e03ccb", "is_disabled": 0, "rental_uris": {"android": "https://dc.lft.to/lastmile_qr_scan", "ios": "https://dc.lft.to/lastmile_qr_scan"}, "fusion_lon": 0.0, "lat": 38.88612333333333, "bike_id": "3e4bf285e5a718ee7d1c299c72e03ccb", "type": "electric_scooter", "is_reserved": 0, "lon": -77.01248066666666}, {"fusion_lat": 0.0, "name": "85e94cded0e1065521619eaddb18b0bb", "is_disabled": 0, "rental_uris": {"android": "https://dc.lft.to/lastmile_qr_scan", "ios": "https://dc.lft.to/lastmile_qr_scan"}, "fusion_lon": 0.0, "lat": 38.9111945, "bike_id": "85e94cded0e1065521619eaddb18b0bb", "type": "electric_scooter", "is_reserved": 0, "lon": -76.997665}, {"fusion_lat": 0.0, "name": "233fbaff2576e71d5259b20c3d41396b", "is_disabled": 0, "rental_uris": {"android": "https://dc.lft.to/lastmile_qr_scan", "ios": "https://dc.lft.to/lastmile_qr_scan"}, "fusion_lon": 0.0, "lat": 38.8995065, "bike_id": "233fbaff2576e71d5259b20c3d41396b", "type": "electric_scooter", "is_reserved": 0, "lon": -77.00679116666667}, {"fusion_lat": 0.0, "name": "6b7da00ff4562c63ce589e4d1abbda85", "is_disabled": 0, "rental_uris": {"android": "https://dc.lft.to/lastmile_qr_scan", "ios": "https://dc.lft.to/lastmile_qr_scan"}, "fusion_lon": 0.0, "lat": 38.916546833333335, "bike_id": "6b7da00ff4562c63ce589e4d1abbda85", "type": "electric_scooter", "is_reserved": 0, "lon": -77.022732}, {"fusion_lat": 0.0, "name": "b77ee252f08ad174097142a378c46835", "is_disabled": 0, "rental_uris": {"android": "https://dc.lft.to/lastmile_qr_scan", "ios": "https://dc.lft.to/lastmile_qr_scan"}, "fusion_lon": 0.0, "lat": 38.900356, "bike_id": "b77ee252f08ad174097142a378c46835", "type": "electric_scooter", "is_reserved": 0, "lon": -77.03194033333334}, {"fusion_lat": 0.0, "name": "af6b6c1c1f7706230e130643681421c7", "is_disabled": 0, "rental_uris": {"android": "https://dc.lft.to/lastmile_qr_scan", "ios": "https://dc.lft.to/lastmile_qr_scan"}, "fusion_lon": 0.0, "lat": 38.929568333333336, "bike_id": "af6b6c1c1f7706230e130643681421c7", "type": "electric_scooter", "is_reserved": 0, "lon": -77.02980016666666}, {"fusion_lat": 0.0, "name": "d25b86a3ee3ac67b38297d184e705849", "is_disabled": 0, "rental_uris": {"android": "https://dc.lft.to/lastmile_qr_scan", "ios": "https://dc.lft.to/lastmile_qr_scan"}, "fusion_lon": 0.0, "lat": 38.923177, "bike_id": "d25b86a3ee3ac67b38297d184e705849", "type": "electric_scooter", "is_reserved": 0, "lon": -77.0290635}, {"fusion_lat": 0.0, "name": "bc84944021f5b2a93b35c4903958d7f1", "is_disabled": 0, "rental_uris": {"android": "https://dc.lft.to/lastmile_qr_scan", "ios": "https://dc.lft.to/lastmile_qr_scan"}, "fusion_lon": 0.0, "lat": 38.93216916666667, "bike_id": "bc84944021f5b2a93b35c4903958d7f1", "type": "electric_scooter", "is_reserved": 0, "lon": -77.0351305}, {"fusion_lat": 0.0, "name": "77bc7e30071fbc25b86b56234141f312", "is_disabled": 0, "rental_uris": {"android": "https://dc.lft.to/lastmile_qr_scan", "ios": "https://dc.lft.to/lastmile_qr_scan"}, "fusion_lon": 0.0, "lat": 38.885604666666666, "bike_id": "77bc7e30071fbc25b86b56234141f312", "type": "electric_scooter", "is_reserved": 0, "lon": -76.977167}, {"fusion_lat": 0.0, "name": "22886d581ffd7068e5c8a976ad7defac", "is_disabled": 0, "rental_uris": {"android": "https://dc.lft.to/lastmile_qr_scan", "ios": "https://dc.lft.to/lastmile_qr_scan"}, "fusion_lon": 0.0, "lat": 38.9165695, "bike_id": "22886d581ffd7068e5c8a976ad7defac", "type": "electric_scooter", "is_reserved": 0, "lon": -77.02808266666666}, {"fusion_lat": 0.0, "name": "b73dc20d3e8fcb7ce0df58c3133d7b3b", "is_disabled": 0, "rental_uris": {"android": "https://dc.lft.to/lastmile_qr_scan", "ios": "https://dc.lft.to/lastmile_qr_scan"}, "fusion_lon": 0.0, "lat": 38.919231833333335, "bike_id": "b73dc20d3e8fcb7ce0df58c3133d7b3b", "type": "electric_scooter", "is_reserved": 0, "lon": -77.00969133333334}, {"fusion_lat": 0.0, "name": "c1a66676fbd0414c3a4db4bb85a2fbb1", "is_disabled": 0, "rental_uris": {"android": "https://dc.lft.to/lastmile_qr_scan", "ios": "https://dc.lft.to/lastmile_qr_scan"}, "fusion_lon": 0.0, "lat": 38.90066216666666, "bike_id": "c1a66676fbd0414c3a4db4bb85a2fbb1", "type": "electric_scooter", "is_reserved": 0, "lon": -77.0543055}, {"fusion_lat": 0.0, "name": "5fa87bd5dbe0682b0d3c25c726a35ed7", "is_disabled": 0, "rental_uris": {"android": "https://dc.lft.to/lastmile_qr_scan", "ios": "https://dc.lft.to/lastmile_qr_scan"}, "fusion_lon": 0.0, "lat": 38.95928033333333, "bike_id": "5fa87bd5dbe0682b0d3c25c726a35ed7", "type": "electric_bike", "is_reserved": 0, "lon": -77.03120916666667}, {"fusion_lat": 0.0, "name": "dac200d9b6cd09b329b731ff946feedb", "is_disabled": 0, "rental_uris": {"android": "https://dc.lft.to/lastmile_qr_scan", "ios": "https://dc.lft.to/lastmile_qr_scan"}, "fusion_lon": 0.0, "lat": 38.92106666666667, "bike_id": "dac200d9b6cd09b329b731ff946feedb", "type": "electric_scooter", "is_reserved": 0, "lon": -77.04179266666667}, {"fusion_lat": 0.0, "name": "26d511dfabf2f262d0cf67b5d1d1b241", "is_disabled": 0, "rental_uris": {"android": "https://dc.lft.to/lastmile_qr_scan", "ios": "https://dc.lft.to/lastmile_qr_scan"}, "fusion_lon": 0.0, "lat": 38.926784166666664, "bike_id": "26d511dfabf2f262d0cf67b5d1d1b241", "type": "electric_scooter", "is_reserved": 0, "lon": -77.03142466666667}, {"fusion_lat": 0.0, "name": "fcbb30515e192d9c259ab48067ad0cc4", "is_disabled": 0, "rental_uris": {"android": "https://dc.lft.to/lastmile_qr_scan", "ios": "https://dc.lft.to/lastmile_qr_scan"}, "fusion_lon": 0.0, "lat": 38.89354516666667, "bike_id": "fcbb30515e192d9c259ab48067ad0cc4", "type": "electric_scooter", "is_reserved": 0, "lon": -77.02802983333333}, {"fusion_lat": 0.0, "name": "77e4da5d1dcc5f6168cc210c92df117c", "is_disabled": 0, "rental_uris": {"android": "https://dc.lft.to/lastmile_qr_scan", "ios": "https://dc.lft.to/lastmile_qr_scan"}, "fusion_lon": 0.0, "lat": 38.906841166666666, "bike_id": "77e4da5d1dcc5f6168cc210c92df117c", "type": "electric_scooter", "is_reserved": 0, "lon": -77.0744105}, {"fusion_lat": 0.0, "name": "783a3789c42166f17fbea01410f4b3f4", "is_disabled": 0, "rental_uris": {"android": "https://dc.lft.to/lastmile_qr_scan", "ios": "https://dc.lft.to/lastmile_qr_scan"}, "fusion_lon": 0.0, "lat": 38.91979116666667, "bike_id": "783a3789c42166f17fbea01410f4b3f4", "type": "electric_scooter", "is_reserved": 0, "lon": -77.0239335}, {"fusion_lat": 0.0, "name": "68c41513a9253c30dc338f9effcc8c1c", "is_disabled": 0, "rental_uris": {"android": "https://dc.lft.to/lastmile_qr_scan", "ios": "https://dc.lft.to/lastmile_qr_scan"}, "fusion_lon": 0.0, "lat": 38.93109716666667, "bike_id": "68c41513a9253c30dc338f9effcc8c1c", "type": "electric_scooter", "is_reserved": 0, "lon": -77.02406266666667}, {"fusion_lat": 0.0, "name": "8d185691e2d7d4e3e482cc1ab91a0ba9", "is_disabled": 0, "rental_uris": {"android": "https://dc.lft.to/lastmile_qr_scan", "ios": "https://dc.lft.to/lastmile_qr_scan"}, "fusion_lon": 0.0, "lat": 38.907294666666665, "bike_id": "8d185691e2d7d4e3e482cc1ab91a0ba9", "type": "electric_scooter", "is_reserved": 0, "lon": -77.02966966666666}, {"fusion_lat": 0.0, "name": "459ca67c5fe7d348c2e86f792cc39f96", "is_disabled": 0, "rental_uris": {"android": "https://dc.lft.to/lastmile_qr_scan", "ios": "https://dc.lft.to/lastmile_qr_scan"}, "fusion_lon": 0.0, "lat": 38.94172016666667, "bike_id": "459ca67c5fe7d348c2e86f792cc39f96", "type": "electric_scooter", "is_reserved": 0, "lon": -77.02517183333333}, {"fusion_lat": 0.0, "name": "98735073638095900da7ed88fa7d9d6e", "is_disabled": 0, "rental_uris": {"android": "https://dc.lft.to/lastmile_qr_scan", "ios": "https://dc.lft.to/lastmile_qr_scan"}, "fusion_lon": 0.0, "lat": 38.888118166666665, "bike_id": "98735073638095900da7ed88fa7d9d6e", "type": "electric_scooter", "is_reserved": 0, "lon": -76.98355633333334}, {"fusion_lat": 0.0, "name": "d2d921f2047b35fb9f596028f20ff403", "is_disabled": 0, "rental_uris": {"android": "https://dc.lft.to/lastmile_qr_scan", "ios": "https://dc.lft.to/lastmile_qr_scan"}, "fusion_lon": 0.0, "lat": 38.9113345, "bike_id": "d2d921f2047b35fb9f596028f20ff403", "type": "electric_bike", "is_reserved": 0, "lon": -77.0657205}, {"fusion_lat": 0.0, "name": "60259e245c8aba3018634ccb5c8da39c", "is_disabled": 0, "rental_uris": {"android": "https://dc.lft.to/lastmile_qr_scan", "ios": "https://dc.lft.to/lastmile_qr_scan"}, "fusion_lon": 0.0, "lat": 38.91337466666667, "bike_id": "60259e245c8aba3018634ccb5c8da39c", "type": "electric_scooter", "is_reserved": 0, "lon": -77.04348466666667}, {"fusion_lat": 0.0, "name": "bb62f849964e654f5e5a75605a202157", "is_disabled": 0, "rental_uris": {"android": "https://dc.lft.to/lastmile_qr_scan", "ios": "https://dc.lft.to/lastmile_qr_scan"}, "fusion_lon": 0.0, "lat": 38.86635733333333, "bike_id": "bb62f849964e654f5e5a75605a202157", "type": "electric_scooter", "is_reserved": 0, "lon": -76.98305083333334}, {"fusion_lat": 0.0, "name": "9257db65a121304483720737ab80ca47", "is_disabled": 0, "rental_uris": {"android": "https://dc.lft.to/lastmile_qr_scan", "ios": "https://dc.lft.to/lastmile_qr_scan"}, "fusion_lon": 0.0, "lat": 38.90561133333333, "bike_id": "9257db65a121304483720737ab80ca47", "type": "electric_scooter", "is_reserved": 0, "lon": -77.00576566666666}, {"fusion_lat": 0.0, "name": "1b92204cbf6332af4b46dc751b1ac867", "is_disabled": 0, "rental_uris": {"android": "https://dc.lft.to/lastmile_qr_scan", "ios": "https://dc.lft.to/lastmile_qr_scan"}, "fusion_lon": 0.0, "lat": 38.931279333333336, "bike_id": "1b92204cbf6332af4b46dc751b1ac867", "type": "electric_scooter", "is_reserved": 0, "lon": -77.02194583333333}, {"fusion_lat": 0.0, "name": "5506690a36d9b478ff6331e24cec6ef8", "is_disabled": 0, "rental_uris": {"android": "https://dc.lft.to/lastmile_qr_scan", "ios": "https://dc.lft.to/lastmile_qr_scan"}, "fusion_lon": 0.0, "lat": 38.925511666666665, "bike_id": "5506690a36d9b478ff6331e24cec6ef8", "type": "electric_scooter", "is_reserved": 0, "lon": -76.98301166666667}, {"fusion_lat": 0.0, "name": "8c45563969932dc1a717356102dbe9c1", "is_disabled": 0, "rental_uris": {"android": "https://dc.lft.to/lastmile_qr_scan", "ios": "https://dc.lft.to/lastmile_qr_scan"}, "fusion_lon": 0.0, "lat": 38.9018675, "bike_id": "8c45563969932dc1a717356102dbe9c1", "type": "electric_scooter", "is_reserved": 0, "lon": -77.01588016666666}, {"fusion_lat": 0.0, "name": "91132fe9e8c07f65bf0a6b07f6e0fc3f", "is_disabled": 0, "rental_uris": {"android": "https://dc.lft.to/lastmile_qr_scan", "ios": "https://dc.lft.to/lastmile_qr_scan"}, "fusion_lon": 0.0, "lat": 38.916577, "bike_id": "91132fe9e8c07f65bf0a6b07f6e0fc3f", "type": "electric_scooter", "is_reserved": 0, "lon": -77.03845733333333}, {"fusion_lat": 0.0, "name": "45892aa16932455b6b206bd88b681dc2", "is_disabled": 0, "rental_uris": {"android": "https://dc.lft.to/lastmile_qr_scan", "ios": "https://dc.lft.to/lastmile_qr_scan"}, "fusion_lon": 0.0, "lat": 38.81609383333333, "bike_id": "45892aa16932455b6b206bd88b681dc2", "type": "electric_bike", "is_reserved": 0, "lon": -77.05053116666667}, {"fusion_lat": 0.0, "name": "ad46926e965cba24c397957c01de3e8a", "is_disabled": 0, "rental_uris": {"android": "https://dc.lft.to/lastmile_qr_scan", "ios": "https://dc.lft.to/lastmile_qr_scan"}, "fusion_lon": 0.0, "lat": 38.904917833333336, "bike_id": "ad46926e965cba24c397957c01de3e8a", "type": "electric_scooter", "is_reserved": 0, "lon": -77.02679966666666}, {"fusion_lat": 0.0, "name": "9ea8beffaa6c0ebfe29273eae09c9a43", "is_disabled": 0, "rental_uris": {"android": "https://dc.lft.to/lastmile_qr_scan", "ios": "https://dc.lft.to/lastmile_qr_scan"}, "fusion_lon": 0.0, "lat": 38.966216833333334, "bike_id": "9ea8beffaa6c0ebfe29273eae09c9a43", "type": "electric_bike", "is_reserved": 0, "lon": -77.03434466666667}, {"fusion_lat": 0.0, "name": "7214df03f8a1528ffc9ddb26f6d73610", "is_disabled": 0, "rental_uris": {"android": "https://dc.lft.to/lastmile_qr_scan", "ios": "https://dc.lft.to/lastmile_qr_scan"}, "fusion_lon": 0.0, "lat": 38.916258, "bike_id": "7214df03f8a1528ffc9ddb26f6d73610", "type": "electric_scooter", "is_reserved": 0, "lon": -77.01125216666667}, {"fusion_lat": 0.0, "name": "21d18f925d7b5aff1f900d2c02d4a091", "is_disabled": 0, "rental_uris": {"android": "https://dc.lft.to/lastmile_qr_scan", "ios": "https://dc.lft.to/lastmile_qr_scan"}, "fusion_lon": 0.0, "lat": 38.90514366666667, "bike_id": "21d18f925d7b5aff1f900d2c02d4a091", "type": "electric_scooter", "is_reserved": 0, "lon": -77.029739}, {"fusion_lat": 0.0, "name": "729bff8683344341125cd41c797f1636", "is_disabled": 0, "rental_uris": {"android": "https://dc.lft.to/lastmile_qr_scan", "ios": "https://dc.lft.to/lastmile_qr_scan"}, "fusion_lon": 0.0, "lat": 38.904064, "bike_id": "729bff8683344341125cd41c797f1636", "type": "electric_scooter", "is_reserved": 0, "lon": -77.06774666666666}, {"fusion_lat": 0.0, "name": "cb02707c8a48e748fcd2a8e2682ab1f7", "is_disabled": 0, "rental_uris": {"android": "https://dc.lft.to/lastmile_qr_scan", "ios": "https://dc.lft.to/lastmile_qr_scan"}, "fusion_lon": 0.0, "lat": 38.90843866666667, "bike_id": "cb02707c8a48e748fcd2a8e2682ab1f7", "type": "electric_scooter", "is_reserved": 0, "lon": -77.026923}, {"fusion_lat": 0.0, "name": "2e926701baff6d1b658f835778a51eca", "is_disabled": 0, "rental_uris": {"android": "https://dc.lft.to/lastmile_qr_scan", "ios": "https://dc.lft.to/lastmile_qr_scan"}, "fusion_lon": 0.0, "lat": 38.909339333333335, "bike_id": "2e926701baff6d1b658f835778a51eca", "type": "electric_scooter", "is_reserved": 0, "lon": -77.04578033333334}, {"fusion_lat": 0.0, "name": "6f6044b1c949cd2fa8722b32cda51f25", "is_disabled": 0, "rental_uris": {"android": "https://dc.lft.to/lastmile_qr_scan", "ios": "https://dc.lft.to/lastmile_qr_scan"}, "fusion_lon": 0.0, "lat": 38.89924033333333, "bike_id": "6f6044b1c949cd2fa8722b32cda51f25", "type": "electric_scooter", "is_reserved": 0, "lon": -77.040839}, {"fusion_lat": 0.0, "name": "b624825b153feffd061f979f7f972759", "is_disabled": 0, "rental_uris": {"android": "https://dc.lft.to/lastmile_qr_scan", "ios": "https://dc.lft.to/lastmile_qr_scan"}, "fusion_lon": 0.0, "lat": 38.876345, "bike_id": "b624825b153feffd061f979f7f972759", "type": "electric_scooter", "is_reserved": 0, "lon": -77.00947616666667}, {"fusion_lat": 0.0, "name": "89a5f2ba1e1112133cb2455c752f2c6e", "is_disabled": 0, "rental_uris": {"android": "https://dc.lft.to/lastmile_qr_scan", "ios": "https://dc.lft.to/lastmile_qr_scan"}, "fusion_lon": 0.0, "lat": 38.9156925, "bike_id": "89a5f2ba1e1112133cb2455c752f2c6e", "type": "electric_scooter", "is_reserved": 0, "lon": -77.03229516666667}, {"fusion_lat": 0.0, "name": "9826b4f9232a070436feaf83fd37484c", "is_disabled": 0, "rental_uris": {"android": "https://dc.lft.to/lastmile_qr_scan", "ios": "https://dc.lft.to/lastmile_qr_scan"}, "fusion_lon": 0.0, "lat": 38.897448, "bike_id": "9826b4f9232a070436feaf83fd37484c", "type": "electric_scooter", "is_reserved": 0, "lon": -77.03178516666667}, {"fusion_lat": 0.0, "name": "96b70750c33e573c8042900c011c0bcb", "is_disabled": 0, "rental_uris": {"android": "https://dc.lft.to/lastmile_qr_scan", "ios": "https://dc.lft.to/lastmile_qr_scan"}, "fusion_lon": 0.0, "lat": 38.91819366666667, "bike_id": "96b70750c33e573c8042900c011c0bcb", "type": "electric_scooter", "is_reserved": 0, "lon": -77.03342383333333}, {"fusion_lat": 0.0, "name": "bbdfdb705de9c648093565590382a8ca", "is_disabled": 0, "rental_uris": {"android": "https://dc.lft.to/lastmile_qr_scan", "ios": "https://dc.lft.to/lastmile_qr_scan"}, "fusion_lon": 0.0, "lat": 38.91147516666667, "bike_id": "bbdfdb705de9c648093565590382a8ca", "type": "electric_scooter", "is_reserved": 0, "lon": -77.01073133333334}, {"fusion_lat": 0.0, "name": "8537667e8e83fbe9a6aa1cce9dd491c5", "is_disabled": 0, "rental_uris": {"android": "https://dc.lft.to/lastmile_qr_scan", "ios": "https://dc.lft.to/lastmile_qr_scan"}, "fusion_lon": 0.0, "lat": 38.94020366666667, "bike_id": "8537667e8e83fbe9a6aa1cce9dd491c5", "type": "electric_scooter", "is_reserved": 0, "lon": -77.02763266666666}, {"fusion_lat": 0.0, "name": "9c4bed1a167a16600d73425e82015834", "is_disabled": 0, "rental_uris": {"android": "https://dc.lft.to/lastmile_qr_scan", "ios": "https://dc.lft.to/lastmile_qr_scan"}, "fusion_lon": 0.0, "lat": 38.92608883333333, "bike_id": "9c4bed1a167a16600d73425e82015834", "type": "electric_scooter", "is_reserved": 0, "lon": -77.02219283333334}, {"fusion_lat": 0.0, "name": "771d1520024b5181cbdb889011cf1997", "is_disabled": 0, "rental_uris": {"android": "https://dc.lft.to/lastmile_qr_scan", "ios": "https://dc.lft.to/lastmile_qr_scan"}, "fusion_lon": 0.0, "lat": 38.9192345, "bike_id": "771d1520024b5181cbdb889011cf1997", "type": "electric_scooter", "is_reserved": 0, "lon": -77.02499983333334}, {"fusion_lat": 0.0, "name": "96caa368d5d4c00170e97faad2cbb8b0", "is_disabled": 0, "rental_uris": {"android": "https://dc.lft.to/lastmile_qr_scan", "ios": "https://dc.lft.to/lastmile_qr_scan"}, "fusion_lon": 0.0, "lat": 38.90971733333333, "bike_id": "96caa368d5d4c00170e97faad2cbb8b0", "type": "electric_scooter", "is_reserved": 0, "lon": -77.0088285}, {"fusion_lat": 0.0, "name": "99367badbb5be7098895b856cfef365b", "is_disabled": 0, "rental_uris": {"android": "https://dc.lft.to/lastmile_qr_scan", "ios": "https://dc.lft.to/lastmile_qr_scan"}, "fusion_lon": 0.0, "lat": 38.86245383333333, "bike_id": "99367badbb5be7098895b856cfef365b", "type": "electric_scooter", "is_reserved": 0, "lon": -76.99499966666667}, {"fusion_lat": 0.0, "name": "9eee5d0ea3db4e739f118238a8eeb87b", "is_disabled": 0, "rental_uris": {"android": "https://dc.lft.to/lastmile_qr_scan", "ios": "https://dc.lft.to/lastmile_qr_scan"}, "fusion_lon": 0.0, "lat": 38.905803666666664, "bike_id": "9eee5d0ea3db4e739f118238a8eeb87b", "type": "electric_scooter", "is_reserved": 0, "lon": -77.0088235}, {"fusion_lat": 0.0, "name": "410bd273161ecf9238b8dad99e15fee9", "is_disabled": 0, "rental_uris": {"android": "https://dc.lft.to/lastmile_qr_scan", "ios": "https://dc.lft.to/lastmile_qr_scan"}, "fusion_lon": 0.0, "lat": 38.918416, "bike_id": "410bd273161ecf9238b8dad99e15fee9", "type": "electric_scooter", "is_reserved": 0, "lon": -77.03517066666667}, {"fusion_lat": 0.0, "name": "da7a4639b4cad5a4051109c97313417c", "is_disabled": 0, "rental_uris": {"android": "https://dc.lft.to/lastmile_qr_scan", "ios": "https://dc.lft.to/lastmile_qr_scan"}, "fusion_lon": 0.0, "lat": 38.90513283333333, "bike_id": "da7a4639b4cad5a4051109c97313417c", "type": "electric_scooter", "is_reserved": 0, "lon": -77.0638495}, {"fusion_lat": 0.0, "name": "b5f47fb19e7c64c42e763b98e3b4ec59", "is_disabled": 0, "rental_uris": {"android": "https://dc.lft.to/lastmile_qr_scan", "ios": "https://dc.lft.to/lastmile_qr_scan"}, "fusion_lon": 0.0, "lat": 38.9573325, "bike_id": "b5f47fb19e7c64c42e763b98e3b4ec59", "type": "electric_scooter", "is_reserved": 0, "lon": -77.02404366666667}, {"fusion_lat": 0.0, "name": "16bf5bacb476c5e6911fa560f5306ebb", "is_disabled": 0, "rental_uris": {"android": "https://dc.lft.to/lastmile_qr_scan", "ios": "https://dc.lft.to/lastmile_qr_scan"}, "fusion_lon": 0.0, "lat": 38.9057445, "bike_id": "16bf5bacb476c5e6911fa560f5306ebb", "type": "electric_scooter", "is_reserved": 0, "lon": -77.034678}, {"fusion_lat": 0.0, "name": "6c797ce5792296e3f6c63008d110c9a7", "is_disabled": 0, "rental_uris": {"android": "https://dc.lft.to/lastmile_qr_scan", "ios": "https://dc.lft.to/lastmile_qr_scan"}, "fusion_lon": 0.0, "lat": 38.9172945, "bike_id": "6c797ce5792296e3f6c63008d110c9a7", "type": "electric_scooter", "is_reserved": 0, "lon": -77.04597983333333}, {"fusion_lat": 0.0, "name": "de5b5b59ec42893259d42821c0c3c21d", "is_disabled": 0, "rental_uris": {"android": "https://dc.lft.to/lastmile_qr_scan", "ios": "https://dc.lft.to/lastmile_qr_scan"}, "fusion_lon": 0.0, "lat": 38.924959666666666, "bike_id": "de5b5b59ec42893259d42821c0c3c21d", "type": "electric_scooter", "is_reserved": 0, "lon": -77.0217095}, {"fusion_lat": 0.0, "name": "c395edad3d0c9c74331209d3520dbbf0", "is_disabled": 0, "rental_uris": {"android": "https://dc.lft.to/lastmile_qr_scan", "ios": "https://dc.lft.to/lastmile_qr_scan"}, "fusion_lon": 0.0, "lat": 38.92705683333333, "bike_id": "c395edad3d0c9c74331209d3520dbbf0", "type": "electric_scooter", "is_reserved": 0, "lon": -77.02318916666667}, {"fusion_lat": 0.0, "name": "5584a1abd990c9ad7ba702fc77599a48", "is_disabled": 0, "rental_uris": {"android": "https://dc.lft.to/lastmile_qr_scan", "ios": "https://dc.lft.to/lastmile_qr_scan"}, "fusion_lon": 0.0, "lat": 38.90082016666667, "bike_id": "5584a1abd990c9ad7ba702fc77599a48", "type": "electric_scooter", "is_reserved": 0, "lon": -77.05043033333334}, {"fusion_lat": 0.0, "name": "ca5cd9ea7e8aac91e40338a0d60f7755", "is_disabled": 0, "rental_uris": {"android": "https://dc.lft.to/lastmile_qr_scan", "ios": "https://dc.lft.to/lastmile_qr_scan"}, "fusion_lon": 0.0, "lat": 38.941351166666664, "bike_id": "ca5cd9ea7e8aac91e40338a0d60f7755", "type": "electric_scooter", "is_reserved": 0, "lon": -77.01542366666666}, {"fusion_lat": 0.0, "name": "e5b22213c5d278923ff47cac49b4e87a", "is_disabled": 0, "rental_uris": {"android": "https://dc.lft.to/lastmile_qr_scan", "ios": "https://dc.lft.to/lastmile_qr_scan"}, "fusion_lon": 0.0, "lat": 38.93284083333333, "bike_id": "e5b22213c5d278923ff47cac49b4e87a", "type": "electric_scooter", "is_reserved": 0, "lon": -77.0274815}, {"fusion_lat": 0.0, "name": "54220b78774730b7f9da47c583a437ff", "is_disabled": 0, "rental_uris": {"android": "https://dc.lft.to/lastmile_qr_scan", "ios": "https://dc.lft.to/lastmile_qr_scan"}, "fusion_lon": 0.0, "lat": 38.9563265, "bike_id": "54220b78774730b7f9da47c583a437ff", "type": "electric_scooter", "is_reserved": 0, "lon": -77.03296833333333}, {"fusion_lat": 0.0, "name": "e438fc124dda600044bba9f0d7a35a6c", "is_disabled": 0, "rental_uris": {"android": "https://dc.lft.to/lastmile_qr_scan", "ios": "https://dc.lft.to/lastmile_qr_scan"}, "fusion_lon": 0.0, "lat": 38.910183, "bike_id": "e438fc124dda600044bba9f0d7a35a6c", "type": "electric_scooter", "is_reserved": 0, "lon": -77.038538}, {"fusion_lat": 0.0, "name": "ed9334cb4720ad3f30d9784c189ddcd9", "is_disabled": 0, "rental_uris": {"android": "https://dc.lft.to/lastmile_qr_scan", "ios": "https://dc.lft.to/lastmile_qr_scan"}, "fusion_lon": 0.0, "lat": 38.950177333333336, "bike_id": "ed9334cb4720ad3f30d9784c189ddcd9", "type": "electric_scooter", "is_reserved": 0, "lon": -77.03348783333334}, {"fusion_lat": 0.0, "name": "ee70ee2303a472459699ceeb4f5ca31c", "is_disabled": 0, "rental_uris": {"android": "https://dc.lft.to/lastmile_qr_scan", "ios": "https://dc.lft.to/lastmile_qr_scan"}, "fusion_lon": 0.0, "lat": 38.882983333333335, "bike_id": "ee70ee2303a472459699ceeb4f5ca31c", "type": "electric_bike", "is_reserved": 0, "lon": -77.03023283333333}, {"fusion_lat": 0.0, "name": "b863b9640a2eb3a867b5cc24fc6163dd", "is_disabled": 0, "rental_uris": {"android": "https://dc.lft.to/lastmile_qr_scan", "ios": "https://dc.lft.to/lastmile_qr_scan"}, "fusion_lon": 0.0, "lat": 38.940939, "bike_id": "b863b9640a2eb3a867b5cc24fc6163dd", "type": "electric_scooter", "is_reserved": 0, "lon": -77.02313783333334}, {"fusion_lat": 0.0, "name": "4ba07974c4faaf18a9ba43e5936408ff", "is_disabled": 0, "rental_uris": {"android": "https://dc.lft.to/lastmile_qr_scan", "ios": "https://dc.lft.to/lastmile_qr_scan"}, "fusion_lon": 0.0, "lat": 38.939091166666664, "bike_id": "4ba07974c4faaf18a9ba43e5936408ff", "type": "electric_scooter", "is_reserved": 0, "lon": -77.033283}, {"fusion_lat": 0.0, "name": "177363bf6c04b6231faba45e4a8952e5", "is_disabled": 0, "rental_uris": {"android": "https://dc.lft.to/lastmile_qr_scan", "ios": "https://dc.lft.to/lastmile_qr_scan"}, "fusion_lon": 0.0, "lat": 38.90087716666667, "bike_id": "177363bf6c04b6231faba45e4a8952e5", "type": "electric_scooter", "is_reserved": 0, "lon": -76.98336766666667}, {"fusion_lat": 0.0, "name": "dc56b6cccf912b8c4d2cdd52af8a9cc8", "is_disabled": 0, "rental_uris": {"android": "https://dc.lft.to/lastmile_qr_scan", "ios": "https://dc.lft.to/lastmile_qr_scan"}, "fusion_lon": 0.0, "lat": 38.88451383333334, "bike_id": "dc56b6cccf912b8c4d2cdd52af8a9cc8", "type": "electric_scooter", "is_reserved": 0, "lon": -76.9938925}, {"fusion_lat": 0.0, "name": "12f9da3fd51281d86912c65ccb19b01b", "is_disabled": 0, "rental_uris": {"android": "https://dc.lft.to/lastmile_qr_scan", "ios": "https://dc.lft.to/lastmile_qr_scan"}, "fusion_lon": 0.0, "lat": 38.887572166666665, "bike_id": "12f9da3fd51281d86912c65ccb19b01b", "type": "electric_scooter", "is_reserved": 0, "lon": -76.99840866666666}, {"fusion_lat": 0.0, "name": "4260068689673189b1948341d869b8bc", "is_disabled": 0, "rental_uris": {"android": "https://dc.lft.to/lastmile_qr_scan", "ios": "https://dc.lft.to/lastmile_qr_scan"}, "fusion_lon": 0.0, "lat": 38.92507633333334, "bike_id": "4260068689673189b1948341d869b8bc", "type": "electric_bike", "is_reserved": 0, "lon": -77.05749166666666}, {"fusion_lat": 0.0, "name": "a529c1b76bcc05aed1e383426a5ebd22", "is_disabled": 0, "rental_uris": {"android": "https://dc.lft.to/lastmile_qr_scan", "ios": "https://dc.lft.to/lastmile_qr_scan"}, "fusion_lon": 0.0, "lat": 38.918713833333335, "bike_id": "a529c1b76bcc05aed1e383426a5ebd22", "type": "electric_scooter", "is_reserved": 0, "lon": -77.045114}, {"fusion_lat": 0.0, "name": "977dc3b63b1a64f055158b640ccf3a3c", "is_disabled": 0, "rental_uris": {"android": "https://dc.lft.to/lastmile_qr_scan", "ios": "https://dc.lft.to/lastmile_qr_scan"}, "fusion_lon": 0.0, "lat": 38.9004045, "bike_id": "977dc3b63b1a64f055158b640ccf3a3c", "type": "electric_scooter", "is_reserved": 0, "lon": -77.00191533333333}, {"fusion_lat": 0.0, "name": "8f29d5d7da537a6af40ebd8613c0bd28", "is_disabled": 0, "rental_uris": {"android": "https://dc.lft.to/lastmile_qr_scan", "ios": "https://dc.lft.to/lastmile_qr_scan"}, "fusion_lon": 0.0, "lat": 38.907872, "bike_id": "8f29d5d7da537a6af40ebd8613c0bd28", "type": "electric_scooter", "is_reserved": 0, "lon": -77.009698}, {"fusion_lat": 0.0, "name": "267a914de884a82432960fc3430cd7b6", "is_disabled": 0, "rental_uris": {"android": "https://dc.lft.to/lastmile_qr_scan", "ios": "https://dc.lft.to/lastmile_qr_scan"}, "fusion_lon": 0.0, "lat": 38.80674166666667, "bike_id": "267a914de884a82432960fc3430cd7b6", "type": "electric_bike", "is_reserved": 0, "lon": -77.06917966666667}, {"fusion_lat": 0.0, "name": "4a7a1810bfc5ad17fc26787bfefcf8b7", "is_disabled": 0, "rental_uris": {"android": "https://dc.lft.to/lastmile_qr_scan", "ios": "https://dc.lft.to/lastmile_qr_scan"}, "fusion_lon": 0.0, "lat": 38.920533166666665, "bike_id": "4a7a1810bfc5ad17fc26787bfefcf8b7", "type": "electric_scooter", "is_reserved": 0, "lon": -76.99880916666666}, {"fusion_lat": 0.0, "name": "923b13296c281028b11da3a6fd9600c4", "is_disabled": 0, "rental_uris": {"android": "https://dc.lft.to/lastmile_qr_scan", "ios": "https://dc.lft.to/lastmile_qr_scan"}, "fusion_lon": 0.0, "lat": 38.92252416666667, "bike_id": "923b13296c281028b11da3a6fd9600c4", "type": "electric_bike", "is_reserved": 0, "lon": -77.02210883333333}, {"fusion_lat": 0.0, "name": "65a4cc273ded005834c9230a7720d850", "is_disabled": 0, "rental_uris": {"android": "https://dc.lft.to/lastmile_qr_scan", "ios": "https://dc.lft.to/lastmile_qr_scan"}, "fusion_lon": 0.0, "lat": 38.9882595, "bike_id": "65a4cc273ded005834c9230a7720d850", "type": "electric_bike", "is_reserved": 0, "lon": -76.99640566666666}, {"fusion_lat": 0.0, "name": "36094d634df8d241038de765686350f7", "is_disabled": 0, "rental_uris": {"android": "https://dc.lft.to/lastmile_qr_scan", "ios": "https://dc.lft.to/lastmile_qr_scan"}, "fusion_lon": 0.0, "lat": 38.921194, "bike_id": "36094d634df8d241038de765686350f7", "type": "electric_scooter", "is_reserved": 0, "lon": -77.01784316666667}, {"fusion_lat": 0.0, "name": "4a770b0f7b91aa4beabdbdb1ff7653d9", "is_disabled": 0, "rental_uris": {"android": "https://dc.lft.to/lastmile_qr_scan", "ios": "https://dc.lft.to/lastmile_qr_scan"}, "fusion_lon": 0.0, "lat": 38.91785433333333, "bike_id": "4a770b0f7b91aa4beabdbdb1ff7653d9", "type": "electric_scooter", "is_reserved": 0, "lon": -77.023102}, {"fusion_lat": 0.0, "name": "407a1f3a3ab397a3652fa1da96ef0700", "is_disabled": 0, "rental_uris": {"android": "https://dc.lft.to/lastmile_qr_scan", "ios": "https://dc.lft.to/lastmile_qr_scan"}, "fusion_lon": 0.0, "lat": 38.9073105, "bike_id": "407a1f3a3ab397a3652fa1da96ef0700", "type": "electric_scooter", "is_reserved": 0, "lon": -77.01116433333334}, {"fusion_lat": 0.0, "name": "313cfbf88def237fe41af9fa47cf026e", "is_disabled": 0, "rental_uris": {"android": "https://dc.lft.to/lastmile_qr_scan", "ios": "https://dc.lft.to/lastmile_qr_scan"}, "fusion_lon": 0.0, "lat": 38.90155, "bike_id": "313cfbf88def237fe41af9fa47cf026e", "type": "electric_scooter", "is_reserved": 0, "lon": -76.9307115},