{"data": {"bikes": [{"fusion_lat": 0.0, "lon": -77.03477683333334, "is_reserved": 0, "bike_id": "2dfed51d313fecf16d88d314b09be6b8", "fusion_lon": 0.0, "rental_uris": {"android": "https://dc.lft.to/lastmile_qr_scan", "ios": "https://dc.lft.to/lastmile_qr_scan"}, "name": "2dfed51d313fecf16d88d314b09be6b8", "type": "electric_scooter", "lat": 38.906493, "is_disabled": 0}, {"fusion_lat": 0.0, "lon": -77.031749, "is_reserved": 0, "bike_id": "df9ad8a68cc98eaba9dcd7670c4d88e4", "fusion_lon": 0.0, "rental_uris": {"android": "https://dc.lft.to/lastmile_qr_scan", "ios": "https://dc.lft.to/lastmile_qr_scan"}, "name": "df9ad8a68cc98eaba9dcd7670c4d88e4", "type": "electric_scooter", "lat": 38.9180385, "is_disabled": 0}, {"fusion_lat": 0.0, "lon": -77.03231266666667, "is_reserved": 0, "bike_id": "3492c044b92536c4a4e5fd9498e7ebb2", "fusion_lon": 0.0, "rental_uris": {"android": "https://dc.lft.to/lastmile_qr_scan", "ios": "https://dc.lft.to/lastmile_qr_scan"}, "name": "3492c044b92536c4a4e5fd9498e7ebb2", "type": "electric_scooter", "lat": 38.928648833333334, "is_disabled": 0}, {"fusion_lat": 0.0, "lon": -76.937541, "is_reserved": 0, "bike_id": "b63501a6390f4317282671671f9aa3cb", "fusion_lon": 0.0, "rental_uris": {"android": "https://dc.lft.to/lastmile_qr_scan", "ios": "https://dc.lft.to/lastmile_qr_scan"}, "name": "b63501a6390f4317282671671f9aa3cb", "type": "electric_scooter", "lat": 38.890482166666665, "is_disabled": 0}, {"fusion_lat": 0.0, "lon": -77.02929583333334, "is_reserved": 0, "bike_id": "7d51e0d11f9a02c4947c9266646f528c", "fusion_lon": 0.0, "rental_uris": {"android": "https://dc.lft.to/lastmile_qr_scan", "ios": "https://dc.lft.to/lastmile_qr_scan"}, "name": "7d51e0d11f9a02c4947c9266646f528c", "type": "electric_scooter", "lat": 38.9037245, "is_disabled": 0}, {"fusion_lat": 0.0, "lon": -77.00573016666667, "is_reserved": 0, "bike_id": "e54235d140cad37d1eb3f78aa926c9c4", "fusion_lon": 0.0, "rental_uris": {"android": "https://dc.lft.to/lastmile_qr_scan", "ios": "https://dc.lft.to/lastmile_qr_scan"}, "name": "e54235d140cad37d1eb3f78aa926c9c4", "type": "electric_scooter", "lat": 38.90564333333333, "is_disabled": 0}, {"fusion_lat": 0.0, "lon": -77.04024783333334, "is_reserved": 0, "bike_id": "4a0087a16c09c808dbccc70d3670936a", "fusion_lon": 0.0, "rental_uris": {"android": "https://dc.lft.to/lastmile_qr_scan", "ios": "https://dc.lft.to/lastmile_qr_scan"}, "name": "4a0087a16c09c808dbccc70d3670936a", "type": "electric_scooter", "lat": 38.89539033333333, "is_disabled": 0}, {"fusion_lat": 0.0, "lon": -77.00627333333334, "is_reserved": 0, "bike_id": "a74d10bbed0ffdc092ed6700a84ed658", "fusion_lon": 0.0, "rental_uris": {"android": "https://dc.lft.to/lastmile_qr_scan", "ios": "https://dc.lft.to/lastmile_qr_scan"}, "name": "a74d10bbed0ffdc092ed6700a84ed658", "type": "electric_scooter", "lat": 38.83270683333333, "is_disabled": 0}, {"fusion_lat": 0.0, "lon": -76.99409983333334, "is_reserved": 0, "bike_id": "627b05ac3ff5e89be426e615f300469f", "fusion_lon": 0.0, "rental_uris": {"android": "https://dc.lft.to/lastmile_qr_scan", "ios": "https://dc.lft.to/lastmile_qr_scan"}, "name": "627b05ac3ff5e89be426e615f300469f", "type": "electric_scooter", "lat": 38.877883, "is_disabled": 0}, {"fusion_lat": 0.0, "lon": -77.07584916666667, "is_reserved": 0, "bike_id": "0105c2ed18000ec4ae1a20ce9b4aab36", "fusion_lon": 0.0, "rental_uris": {"android": "https://dc.lft.to/lastmile_qr_scan", "ios": "https://dc.lft.to/lastmile_qr_scan"}, "name": "0105c2ed18000ec4ae1a20ce9b4aab36", "type": "electric_scooter", "lat": 38.91265933333333, "is_disabled": 0}, {"fusion_lat": 0.0, "lon": -77.0371, "is_reserved": 0, "bike_id": "c5db63f3b57388eb9d810e209397ce3b", "fusion_lon": 0.0, "rental_uris": {"android": "https://dc.lft.to/lastmile_qr_scan", "ios": "https://dc.lft.to/lastmile_qr_scan"}, "name": "c5db63f3b57388eb9d810e209397ce3b", "type": "electric_scooter", "lat": 38.903664, "is_disabled": 0}, {"fusion_lat": 0.0, "lon": -77.00293616666667, "is_reserved": 0, "bike_id": "7e5039860ac7e98828b6c0a5ef15c3a1", "fusion_lon": 0.0, "rental_uris": {"android": "https://dc.lft.to/lastmile_qr_scan", "ios": "https://dc.lft.to/lastmile_qr_scan"}, "name": "7e5039860ac7e98828b6c0a5ef15c3a1", "type": "electric_scooter", "lat": 38.89494283333333, "is_disabled": 0}, {"fusion_lat": 0.0, "lon": -76.9197055, "is_reserved": 0, "bike_id": "82782fcc78cd7edef96faad9d5c04b5e", "fusion_lon": 0.0, "rental_uris": {"android": "https://dc.lft.to/lastmile_qr_scan", "ios": "https://dc.lft.to/lastmile_qr_scan"}, "name": "82782fcc78cd7edef96faad9d5c04b5e", "type": "electric_scooter", "lat": 38.90033783333333, "is_disabled": 0}, {"fusion_lat": 0.0, "lon": -77.03915, "is_reserved": 0, "bike_id": "ca954f3778ce67fc187326a6bc6d5460", "fusion_lon": 0.0, "rental_uris": {"android": "https://dc.lft.to/lastmile_qr_scan", "ios": "https://dc.lft.to/lastmile_qr_scan"}, "name": "ca954f3778ce67fc187326a6bc6d5460", "type": "electric_scooter", "lat": 38.924179, "is_disabled": 0}, {"fusion_lat": 0.0, "lon": -76.98714416666667, "is_reserved": 0, "bike_id": "dc85f55891cb033d349518857a220992", "fusion_lon": 0.0, "rental_uris": {"android": "https://dc.lft.to/lastmile_qr_scan", "ios": "https://dc.lft.to/lastmile_qr_scan"}, "name": "dc85f55891cb033d349518857a220992", "type": "electric_scooter", "lat": 38.866280333333336, "is_disabled": 0}, {"fusion_lat": 0.0, "lon": -77.00931066666666, "is_reserved": 0, "bike_id": "effbadab292ac3ac680f5c524063b2db", "fusion_lon": 0.0, "rental_uris": {"android": "https://dc.lft.to/lastmile_qr_scan", "ios": "https://dc.lft.to/lastmile_qr_scan"}, "name": "effbadab292ac3ac680f5c524063b2db", "type": "electric_scooter", "lat": 38.89989466666667, "is_disabled": 0}, {"fusion_lat": 0.0, "lon": -77.02792883333333, "is_reserved": 0, "bike_id": "7111ff0cbb458f7834901f431eae7de4", "fusion_lon": 0.0, "rental_uris": {"android": "https://dc.lft.to/lastmile_qr_scan", "ios": "https://dc.lft.to/lastmile_qr_scan"}, "name": "7111ff0cbb458f7834901f431eae7de4", "type": "electric_scooter", "lat": 38.930773333333335, "is_disabled": 0}, {"fusion_lat": 0.0, "lon": -77.02114833333333, "is_reserved": 0, "bike_id": "748a097b0c8b1d41ab7f587904221c8f", "fusion_lon": 0.0, "rental_uris": {"android": "https://dc.lft.to/lastmile_qr_scan", "ios": "https://dc.lft.to/lastmile_qr_scan"}, "name": "748a097b0c8b1d41ab7f587904221c8f", "type": "electric_scooter", "lat": 38.914169333333334, "is_disabled": 0}, {"fusion_lat": 0.0, "lon": -77.0386595, "is_reserved": 0, "bike_id": "06386b431e294058f6e08e41e397cf93", "fusion_lon": 0.0, "rental_uris": {"android": "https://dc.lft.to/lastmile_qr_scan", "ios": "https://dc.lft.to/lastmile_qr_scan"}, "name": "06386b431e294058f6e08e41e397cf93", "type": "electric_scooter", "lat": 38.90662666666667, "is_disabled": 0}, {"fusion_lat": 0.0, "lon": -77.04018833333333, "is_reserved": 0, "bike_id": "0e0bce0e798242e5d44fe0a62239ce90", "fusion_lon": 0.0, "rental_uris": {"android": "https://dc.lft.to/lastmile_qr_scan", "ios": "https://dc.lft.to/lastmile_qr_scan"}, "name": "0e0bce0e798242e5d44fe0a62239ce90", "type": "electric_scooter", "lat": 38.92238366666667, "is_disabled": 0}, {"fusion_lat": 0.0, "lon": -77.000613, "is_reserved": 0, "bike_id": "23967d5a3974efa23e826d2c7c5fb1b5", "fusion_lon": 0.0, "rental_uris": {"android": "https://dc.lft.to/lastmile_qr_scan", "ios": "https://dc.lft.to/lastmile_qr_scan"}, "name": "23967d5a3974efa23e826d2c7c5fb1b5", "type": "electric_scooter", "lat": 38.8983755, "is_disabled": 0}, {"fusion_lat": 0.0, "lon": -77.02278016666666, "is_reserved": 0, "bike_id": "44d2425241c24a1847721c19826b170d", "fusion_lon": 0.0, "rental_uris": {"android": "https://dc.lft.to/lastmile_qr_scan", "ios": "https://dc.lft.to/lastmile_qr_scan"}, "name": "44d2425241c24a1847721c19826b170d", "type": "electric_scooter", "lat": 38.89845416666667, "is_disabled": 0}, {"fusion_lat": 0.0, "lon": -77.07434233333333, "is_reserved": 0, "bike_id": "b73c1b3714aeed6a7f19da3944b0f13f", "fusion_lon": 0.0, "rental_uris": {"android": "https://dc.lft.to/lastmile_qr_scan", "ios": "https://dc.lft.to/lastmile_qr_scan"}, "name": "b73c1b3714aeed6a7f19da3944b0f13f", "type": "electric_bike", "lat": 38.999487, "is_disabled": 0}, {"fusion_lat": 0.0, "lon": -77.02608916666667, "is_reserved": 0, "bike_id": "fcc546bab176fae4bae2d5f267e907b1", "fusion_lon": 0.0, "rental_uris": {"android": "https://dc.lft.to/lastmile_qr_scan", "ios": "https://dc.lft.to/lastmile_qr_scan"}, "name": "fcc546bab176fae4bae2d5f267e907b1", "type": "electric_scooter", "lat": 38.89781133333334, "is_disabled": 0}, {"fusion_lat": 0.0, "lon": -76.9453415, "is_reserved": 0, "bike_id": "543f90d9a1a00f5d06014d70844ffb9d", "fusion_lon": 0.0, "rental_uris": {"android": "https://dc.lft.to/lastmile_qr_scan", "ios": "https://dc.lft.to/lastmile_qr_scan"}, "name": "543f90d9a1a00f5d06014d70844ffb9d", "type": "electric_bike", "lat": 38.8675475, "is_disabled": 0}, {"fusion_lat": 0.0, "lon": -77.0237155, "is_reserved": 0, "bike_id": "8b94f3f82d9048ff4320a47a6153580f", "fusion_lon": 0.0, "rental_uris": {"android": "https://dc.lft.to/lastmile_qr_scan", "ios": "https://dc.lft.to/lastmile_qr_scan"}, "name": "8b94f3f82d9048ff4320a47a6153580f", "type": "electric_scooter", "lat": 38.897715833333336, "is_disabled": 0}, {"fusion_lat": 0.0, "lon": -77.032125, "is_reserved": 0, "bike_id": "7c976c948d806412cf7226841e1cc013", "fusion_lon": 0.0, "rental_uris": {"android": "https://dc.lft.to/lastmile_qr_scan", "ios": "https://dc.lft.to/lastmile_qr_scan"}, "name": "7c976c948d806412cf7226841e1cc013", "type": "electric_scooter", "lat": 38.91648083333333, "is_disabled": 0}, {"fusion_lat": 0.0, "lon": -77.0222945, "is_reserved": 0, "bike_id": "8b1a11a03836b767f2c57b1ea22089bd", "fusion_lon": 0.0, "rental_uris": {"android": "https://dc.lft.to/lastmile_qr_scan", "ios": "https://dc.lft.to/lastmile_qr_scan"}, "name": "8b1a11a03836b767f2c57b1ea22089bd", "type": "electric_scooter", "lat": 38.892228, "is_disabled": 0}, {"fusion_lat": 0.0, "lon": -77.182881, "is_reserved": 0, "bike_id": "a09ecbc555589b4635324b6c75d3fac3", "fusion_lon": 0.0, "rental_uris": {"android": "https://dc.lft.to/lastmile_qr_scan", "ios": "https://dc.lft.to/lastmile_qr_scan"}, "name": "a09ecbc555589b4635324b6c75d3fac3", "type": "electric_bike", "lat": 38.89084533333333, "is_disabled": 0}, {"fusion_lat": 0.0, "lon": -76.98656833333334, "is_reserved": 0, "bike_id": "5a2eb355ac3e255564ee731e3ec6edda", "fusion_lon": 0.0, "rental_uris": {"android": "https://dc.lft.to/lastmile_qr_scan", "ios": "https://dc.lft.to/lastmile_qr_scan"}, "name": "5a2eb355ac3e255564ee731e3ec6edda", "type": "electric_scooter", "lat": 38.86737983333333, "is_disabled": 0}, {"fusion_lat": 0.0, "lon": -77.00970016666666, "is_reserved": 0, "bike_id": "55afd978c51b5a8afe7047faaf90a972", "fusion_lon": 0.0, "rental_uris": {"android": "https://dc.lft.to/lastmile_qr_scan", "ios": "https://dc.lft.to/lastmile_qr_scan"}, "name": "55afd978c51b5a8afe7047faaf90a972", "type": "electric_scooter", "lat": 38.90792716666667, "is_disabled": 0}, {"fusion_lat": 0.0, "lon": -77.00059183333333, "is_reserved": 0, "bike_id": "3f3f0d101e2a7b2805c88df4d1bea1f7", "fusion_lon": 0.0, "rental_uris": {"android": "https://dc.lft.to/lastmile_qr_scan", "ios": "https://dc.lft.to/lastmile_qr_scan"}, "name": "3f3f0d101e2a7b2805c88df4d1bea1f7", "type": "electric_scooter", "lat": 38.8962425, "is_disabled": 0}, {"fusion_lat": 0.0, "lon": -77.03248483333333, "is_reserved": 0, "bike_id": "c745c9a1877e9fdaa4cfbbd856e69e05", "fusion_lon": 0.0, "rental_uris": {"android": "https://dc.lft.to/lastmile_qr_scan", "ios": "https://dc.lft.to/lastmile_qr_scan"}, "name": "c745c9a1877e9fdaa4cfbbd856e69e05", "type": "electric_scooter", "lat": 38.9096085, "is_disabled": 0}, {"fusion_lat": 0.0, "lon": -77.03666866666667, "is_reserved": 0, "bike_id": "5179678265cc4f07e9fe213a316c426a", "fusion_lon": 0.0, "rental_uris": {"android": "https://dc.lft.to/lastmile_qr_scan", "ios": "https://dc.lft.to/lastmile_qr_scan"}, "name": "5179678265cc4f07e9fe213a316c426a", "type": "electric_scooter", "lat": 38.923225333333335, "is_disabled": 0}, {"fusion_lat": 0.0, "lon": -77.02010116666666, "is_reserved": 0, "bike_id": "bf91c4052ef17315c1f67e695c2f32c2", "fusion_lon": 0.0, "rental_uris": {"android": "https://dc.lft.to/lastmile_qr_scan", "ios": "https://dc.lft.to/lastmile_qr_scan"}, "name": "bf91c4052ef17315c1f67e695c2f32c2", "type": "electric_scooter", "lat": 38.90268116666667, "is_disabled": 0}, {"fusion_lat": 0.0, "lon": -77.04503833333334, "is_reserved": 0, "bike_id": "776a8b990567741db6403b3617784a3c", "fusion_lon": 0.0, "rental_uris": {"android": "https://dc.lft.to/lastmile_qr_scan", "ios": "https://dc.lft.to/lastmile_qr_scan"}, "name": "776a8b990567741db6403b3617784a3c", "type": "electric_scooter", "lat": 38.90968783333334, "is_disabled": 0}, {"fusion_lat": 0.0, "lon": -77.03229566666667, "is_reserved": 0, "bike_id": "20129be830f8880ac88d9923262be98b", "fusion_lon": 0.0, "rental_uris": {"android": "https://dc.lft.to/lastmile_qr_scan", "ios": "https://dc.lft.to/lastmile_qr_scan"}, "name": "20129be830f8880ac88d9923262be98b", "type": "electric_scooter", "lat": 38.92171033333333, "is_disabled": 0}, {"fusion_lat": 0.0, "lon": -77.05025166666667, "is_reserved": 0, "bike_id": "d50e4f3502d0fd686c7bda80c96ba0eb", "fusion_lon": 0.0, "rental_uris": {"android": "https://dc.lft.to/lastmile_qr_scan", "ios": "https://dc.lft.to/lastmile_qr_scan"}, "name": "d50e4f3502d0fd686c7bda80c96ba0eb", "type": "electric_scooter", "lat": 38.905314, "is_disabled": 0}, {"fusion_lat": 0.0, "lon": -77.04097733333333, "is_reserved": 0, "bike_id": "9a0f0f7cc3b04c5a8a1e665cc73b55e3", "fusion_lon": 0.0, "rental_uris": {"android": "https://dc.lft.to/lastmile_qr_scan", "ios": "https://dc.lft.to/lastmile_qr_scan"}, "name": "9a0f0f7cc3b04c5a8a1e665cc73b55e3", "type": "electric_scooter", "lat": 38.910562, "is_disabled": 0}, {"fusion_lat": 0.0, "lon": -77.02153516666667, "is_reserved": 0, "bike_id": "4927600dcb88f802f0c8de2bc4256e4c", "fusion_lon": 0.0, "rental_uris": {"android": "https://dc.lft.to/lastmile_qr_scan", "ios": "https://dc.lft.to/lastmile_qr_scan"}, "name": "4927600dcb88f802f0c8de2bc4256e4c", "type": "electric_scooter", "lat": 38.926074666666665, "is_disabled": 0}, {"fusion_lat": 0.0, "lon": -77.02485483333334, "is_reserved": 0, "bike_id": "8c6bf37e6c646b98474e4992a98adfc6", "fusion_lon": 0.0, "rental_uris": {"android": "https://dc.lft.to/lastmile_qr_scan", "ios": "https://dc.lft.to/lastmile_qr_scan"}, "name": "8c6bf37e6c646b98474e4992a98adfc6", "type": "electric_scooter", "lat": 38.938644833333335, "is_disabled": 0}, {"fusion_lat": 0.0, "lon": -77.02600916666667, "is_reserved": 0, "bike_id": "06fdd4f446456413cf7a4067385adb64", "fusion_lon": 0.0, "rental_uris": {"android": "https://dc.lft.to/lastmile_qr_scan", "ios": "https://dc.lft.to/lastmile_qr_scan"}, "name": "06fdd4f446456413cf7a4067385adb64", "type": "electric_scooter", "lat": 38.9827935, "is_disabled": 0}, {"fusion_lat": 0.0, "lon": -77.00240216666667, "is_reserved": 0, "bike_id": "da06f4463b71dfef275d2bf635055f71", "fusion_lon": 0.0, "rental_uris": {"android": "https://dc.lft.to/lastmile_qr_scan", "ios": "https://dc.lft.to/lastmile_qr_scan"}, "name": "da06f4463b71dfef275d2bf635055f71", "type": "electric_scooter", "lat": 38.95724083333333, "is_disabled": 0}, {"fusion_lat": 0.0, "lon": -77.02688416666666, "is_reserved": 0, "bike_id": "098a028e2f41e79ab8476cf065aa4fa2", "fusion_lon": 0.0, "rental_uris": {"android": "https://dc.lft.to/lastmile_qr_scan", "ios": "https://dc.lft.to/lastmile_qr_scan"}, "name": "098a028e2f41e79ab8476cf065aa4fa2", "type": "electric_scooter", "lat": 38.89813266666667, "is_disabled": 0}, {"fusion_lat": 0.0, "lon": -77.03867333333334, "is_reserved": 0, "bike_id": "195bcbabf142d541f5001e39b6315e10", "fusion_lon": 0.0, "rental_uris": {"android": "https://dc.lft.to/lastmile_qr_scan", "ios": "https://dc.lft.to/lastmile_qr_scan"}, "name": "195bcbabf142d541f5001e39b6315e10", "type": "electric_scooter", "lat": 38.9324205, "is_disabled": 0}, {"fusion_lat": 0.0, "lon": -76.96925233333333, "is_reserved": 0, "bike_id": "a6ecb07ec31085a81a45d75177a75de5", "fusion_lon": 0.0, "rental_uris": {"android": "https://dc.lft.to/lastmile_qr_scan", "ios": "https://dc.lft.to/lastmile_qr_scan"}, "name": "a6ecb07ec31085a81a45d75177a75de5", "type": "electric_bike", "lat": 38.95121183333333, "is_disabled": 0}, {"fusion_lat": 0.0, "lon": -77.032171, "is_reserved": 0, "bike_id": "e2c921cc4f9a316ea0a11c978b47eb0c", "fusion_lon": 0.0, "rental_uris": {"android": "https://dc.lft.to/lastmile_qr_scan", "ios": "https://dc.lft.to/lastmile_qr_scan"}, "name": "e2c921cc4f9a316ea0a11c978b47eb0c", "type": "electric_scooter", "lat": 38.91776466666666, "is_disabled": 0}, {"fusion_lat": 0.0, "lon": -77.02374916666666, "is_reserved": 0, "bike_id": "1fffaf7f029f8aff5c70fd354801a6c6", "fusion_lon": 0.0, "rental_uris": {"android": "https://dc.lft.to/lastmile_qr_scan", "ios": "https://dc.lft.to/lastmile_qr_scan"}, "name": "1fffaf7f029f8aff5c70fd354801a6c6", "type": "electric_scooter", "lat": 38.90201916666667, "is_disabled": 0}, {"fusion_lat": 0.0, "lon": -76.99539766666666, "is_reserved": 0, "bike_id": "4a94644a2ef010d0fd59b66781ec1412", "fusion_lon": 0.0, "rental_uris": {"android": "https://dc.lft.to/lastmile_qr_scan", "ios": "https://dc.lft.to/lastmile_qr_scan"}, "name": "4a94644a2ef010d0fd59b66781ec1412", "type": "electric_scooter", "lat": 38.862688166666665, "is_disabled": 0}, {"fusion_lat": 0.0, "lon": -76.99033433333334, "is_reserved": 0, "bike_id": "6d10a707d806236f47680f5924c25083", "fusion_lon": 0.0, "rental_uris": {"android": "https://dc.lft.to/lastmile_qr_scan", "ios": "https://dc.lft.to/lastmile_qr_scan"}, "name": "6d10a707d806236f47680f5924c25083", "type": "electric_scooter", "lat": 38.898555, "is_disabled": 0}, {"fusion_lat": 0.0, "lon": -77.02982133333333, "is_reserved": 0, "bike_id": "f55350f1098c9d2efea830f367b45f54", "fusion_lon": 0.0, "rental_uris": {"android": "https://dc.lft.to/lastmile_qr_scan", "ios": "https://dc.lft.to/lastmile_qr_scan"}, "name": "f55350f1098c9d2efea830f367b45f54", "type": "electric_scooter", "lat": 38.92202416666667, "is_disabled": 0}, {"fusion_lat": 0.0, "lon": -77.017852, "is_reserved": 0, "bike_id": "d8f14eaca3b57cacb3314140d4be12ec", "fusion_lon": 0.0, "rental_uris": {"android": "https://dc.lft.to/lastmile_qr_scan", "ios": "https://dc.lft.to/lastmile_qr_scan"}, "name": "d8f14eaca3b57cacb3314140d4be12ec", "type": "electric_scooter", "lat": 38.90425033333333, "is_disabled": 0}, {"fusion_lat": 0.0, "lon": -77.227978, "is_reserved": 0, "bike_id": "e2e5f63e1f7b4fc84303409800389fb7", "fusion_lon": 0.0, "rental_uris": {"android": "https://dc.lft.to/lastmile_qr_scan", "ios": "https://dc.lft.to/lastmile_qr_scan"}, "name": "e2e5f63e1f7b4fc84303409800389fb7", "type": "electric_bike", "lat": 38.910140166666665, "is_disabled": 0}, {"fusion_lat": 0.0, "lon": -77.03335016666666, "is_reserved": 0, "bike_id": "d91325d61c3c76842453a2cc78a79214", "fusion_lon": 0.0, "rental_uris": {"android": "https://dc.lft.to/lastmile_qr_scan", "ios": "https://dc.lft.to/lastmile_qr_scan"}, "name": "d91325d61c3c76842453a2cc78a79214", "type": "electric_scooter", "lat": 38.92161266666667, "is_disabled": 0}, {"fusion_lat": 0.0, "lon": -77.07690316666667, "is_reserved": 0, "bike_id": "3e2bec821b87359569507a9747057d6c", "fusion_lon": 0.0, "rental_uris": {"android": "https://dc.lft.to/lastmile_qr_scan", "ios": "https://dc.lft.to/lastmile_qr_scan"}, "name": "3e2bec821b87359569507a9747057d6c", "type": "electric_bike", "lat": 38.89507533333333, "is_disabled": 0}, {"fusion_lat": 0.0, "lon": -76.96783166666667, "is_reserved": 0, "bike_id": "5129a8e021dd3cc5dae3034160ce6bf1", "fusion_lon": 0.0, "rental_uris": {"android": "https://dc.lft.to/lastmile_qr_scan", "ios": "https://dc.lft.to/lastmile_qr_scan"}, "name": "5129a8e021dd3cc5dae3034160ce6bf1", "type": "electric_scooter", "lat": 38.873459, "is_disabled": 0}, {"fusion_lat": 0.0, "lon": -77.05109583333333, "is_reserved": 0, "bike_id": "197df6e38a902ff50292010b768e5b9e", "fusion_lon": 0.0, "rental_uris": {"android": "https://dc.lft.to/lastmile_qr_scan", "ios": "https://dc.lft.to/lastmile_qr_scan"}, "name": "197df6e38a902ff50292010b768e5b9e", "type": "electric_bike", "lat": 39.036711, "is_disabled": 0}, {"fusion_lat": 0.0, "lon": -76.99817683333333, "is_reserved": 0, "bike_id": "152710d9fbcf010a426afe6ff41477d9", "fusion_lon": 0.0, "rental_uris": {"android": "https://dc.lft.to/lastmile_qr_scan", "ios": "https://dc.lft.to/lastmile_qr_scan"}, "name": "152710d9fbcf010a426afe6ff41477d9", "type": "electric_scooter", "lat": 38.9072615, "is_disabled": 0}, {"fusion_lat": 0.0, "lon": -77.04999283333333, "is_reserved": 0, "bike_id": "4526ac6dadb4d183b090bba7a883275b", "fusion_lon": 0.0, "rental_uris": {"android": "https://dc.lft.to/lastmile_qr_scan", "ios": "https://dc.lft.to/lastmile_qr_scan"}, "name": "4526ac6dadb4d183b090bba7a883275b", "type": "electric_scooter", "lat": 38.905229, "is_disabled": 0}, {"fusion_lat": 0.0, "lon": -77.02983866666666, "is_reserved": 0, "bike_id": "79b0f6a847266df691a63d149833b9ff", "fusion_lon": 0.0, "rental_uris": {"android": "https://dc.lft.to/lastmile_qr_scan", "ios": "https://dc.lft.to/lastmile_qr_scan"}, "name": "79b0f6a847266df691a63d149833b9ff", "type": "electric_scooter", "lat": 38.93286333333333, "is_disabled": 0}, {"fusion_lat": 0.0, "lon": -77.000519, "is_reserved": 0, "bike_id": "ea47bc0f3c091ab13476c36dcd313de3", "fusion_lon": 0.0, "rental_uris": {"android": "https://dc.lft.to/lastmile_qr_scan", "ios": "https://dc.lft.to/lastmile_qr_scan"}, "name": "ea47bc0f3c091ab13476c36dcd313de3", "type": "electric_scooter", "lat": 38.92466066666667, "is_disabled": 0}, {"fusion_lat": 0.0, "lon": -76.99861733333333, "is_reserved": 0, "bike_id": "53271a79a8d3ed085befcda1ce53b032", "fusion_lon": 0.0, "rental_uris": {"android": "https://dc.lft.to/lastmile_qr_scan", "ios": "https://dc.lft.to/lastmile_qr_scan"}, "name": "53271a79a8d3ed085befcda1ce53b032", "type": "electric_scooter", "lat": 38.886353, "is_disabled": 0}, {"fusion_lat": 0.0, "lon": -77.02849416666666, "is_reserved": 0, "bike_id": "ca2f3993b9dc5343c00fb612fb926eb8", "fusion_lon": 0.0, "rental_uris": {"android": "https://dc.lft.to/lastmile_qr_scan", "ios": "https://dc.lft.to/lastmile_qr_scan"}, "name": "ca2f3993b9dc5343c00fb612fb926eb8", "type": "electric_scooter", "lat": 38.887481666666666, "is_disabled": 0}, {"fusion_lat": 0.0, "lon": -77.0502175, "is_reserved": 0, "bike_id": "ac049322749ccd339cdb6e208b7b25b3", "fusion_lon": 0.0, "rental_uris": {"android": "https://dc.lft.to/lastmile_qr_scan", "ios": "https://dc.lft.to/lastmile_qr_scan"}, "name": "ac049322749ccd339cdb6e208b7b25b3", "type": "electric_scooter", "lat": 38.90119416666667, "is_disabled": 0}, {"fusion_lat": 0.0, "lon": -77.04677233333334, "is_reserved": 0, "bike_id": "d20496ad8656fff0c988d3ae1e398927", "fusion_lon": 0.0, "rental_uris": {"android": "https://dc.lft.to/lastmile_qr_scan", "ios": "https://dc.lft.to/lastmile_qr_scan"}, "name": "d20496ad8656fff0c988d3ae1e398927", "type": "electric_bike", "lat": 38.8945855, "is_disabled": 0}, {"fusion_lat": 0.0, "lon": -77.0288365, "is_reserved": 0, "bike_id": "c7059e529f343a5f704ba0a47b66ab7b", "fusion_lon": 0.0, "rental_uris": {"android": "https://dc.lft.to/lastmile_qr_scan", "ios": "https://dc.lft.to/lastmile_qr_scan"}, "name": "c7059e529f343a5f704ba0a47b66ab7b", "type": "electric_scooter", "lat": 38.9127195, "is_disabled": 0}, {"fusion_lat": 0.0, "lon": -77.03878216666666, "is_reserved": 0, "bike_id": "40311e1927da17c3ab327c77174bbc36", "fusion_lon": 0.0, "rental_uris": {"android": "https://dc.lft.to/lastmile_qr_scan", "ios": "https://dc.lft.to/lastmile_qr_scan"}, "name": "40311e1927da17c3ab327c77174bbc36", "type": "electric_scooter", "lat": 38.892030166666665, "is_disabled": 0}, {"fusion_lat": 0.0, "lon": -77.030955, "is_reserved": 0, "bike_id": "42999903432f5193e70dd9cdec172d3c", "fusion_lon": 0.0, "rental_uris": {"android": "https://dc.lft.to/lastmile_qr_scan", "ios": "https://dc.lft.to/lastmile_qr_scan"}, "name": "42999903432f5193e70dd9cdec172d3c", "type": "electric_scooter", "lat": 38.923835833333335, "is_disabled": 0}, {"fusion_lat": 0.0, "lon": -77.076042, "is_reserved": 0, "bike_id": "dcb0beacfa4dbfdcc565ab38ab78940e", "fusion_lon": 0.0, "rental_uris": {"android": "https://dc.lft.to/lastmile_qr_scan", "ios": "https://dc.lft.to/lastmile_qr_scan"}, "name": "dcb0beacfa4dbfdcc565ab38ab78940e", "type": "electric_scooter", "lat": 38.92060633333333, "is_disabled": 0}, {"fusion_lat": 0.0, "lon": -77.02741633333333, "is_reserved": 0, "bike_id": "2481df4adca89a436c1222e90c9c05c5", "fusion_lon": 0.0, "rental_uris": {"android": "https://dc.lft.to/lastmile_qr_scan", "ios": "https://dc.lft.to/lastmile_qr_scan"}, "name": "2481df4adca89a436c1222e90c9c05c5", "type": "electric_scooter", "lat": 38.9238455, "is_disabled": 0}, {"fusion_lat": 0.0, "lon": -76.997064, "is_reserved": 0, "bike_id": "a42b7b23ffcc6556b65bde7a7436c96e", "fusion_lon": 0.0, "rental_uris": {"android": "https://dc.lft.to/lastmile_qr_scan", "ios": "https://dc.lft.to/lastmile_qr_scan"}, "name": "a42b7b23ffcc6556b65bde7a7436c96e", "type": "electric_scooter", "lat": 38.84435633333333, "is_disabled": 0}, {"fusion_lat": 0.0, "lon": -76.9760205, "is_reserved": 0, "bike_id": "a773c19602cb498fe284186caa1bfc15", "fusion_lon": 0.0, "rental_uris": {"android": "https://dc.lft.to/lastmile_qr_scan", "ios": "https://dc.lft.to/lastmile_qr_scan"}, "name": "a773c19602cb498fe284186caa1bfc15", "type": "electric_scooter", "lat": 38.897530333333336, "is_disabled": 0}, {"fusion_lat": 0.0, "lon": -76.98764383333334, "is_reserved": 0, "bike_id": "eb57f0515d39d91cee6d52a71dc462bb", "fusion_lon": 0.0, "rental_uris": {"android": "https://dc.lft.to/lastmile_qr_scan", "ios": "https://dc.lft.to/lastmile_qr_scan"}, "name": "eb57f0515d39d91cee6d52a71dc462bb", "type": "electric_scooter", "lat": 38.900287166666665, "is_disabled": 0}, {"fusion_lat": 0.0, "lon": -77.00337766666667, "is_reserved": 0, "bike_id": "182faf430c3526c2607ac2216e1cdb72", "fusion_lon": 0.0, "rental_uris": {"android": "https://dc.lft.to/lastmile_qr_scan", "ios": "https://dc.lft.to/lastmile_qr_scan"}, "name": "182faf430c3526c2607ac2216e1cdb72", "type": "electric_scooter", "lat": 38.88988166666667, "is_disabled": 0}, {"fusion_lat": 0.0, "lon": -76.9980615, "is_reserved": 0, "bike_id": "6d529f06e03fb1e8b1d704190ba26116", "fusion_lon": 0.0, "rental_uris": {"android": "https://dc.lft.to/lastmile_qr_scan", "ios": "https://dc.lft.to/lastmile_qr_scan"}, "name": "6d529f06e03fb1e8b1d704190ba26116", "type": "electric_scooter", "lat": 38.885660666666666, "is_disabled": 0}, {"fusion_lat": 0.0, "lon": -77.0442395, "is_reserved": 0, "bike_id": "d403c73cff745a675b600a3502807cdb", "fusion_lon": 0.0, "rental_uris": {"android": "https://dc.lft.to/lastmile_qr_scan", "ios": "https://dc.lft.to/lastmile_qr_scan"}, "name": "d403c73cff745a675b600a3502807cdb", "type": "electric_bike", "lat": 38.9319375, "is_disabled": 0}, {"fusion_lat": 0.0, "lon": -77.04814316666666, "is_reserved": 0, "bike_id": "8d9bcd4d2d800e52a8c4979a5609571a", "fusion_lon": 0.0, "rental_uris": {"android": "https://dc.lft.to/lastmile_qr_scan", "ios": "https://dc.lft.to/lastmile_qr_scan"}, "name": "8d9bcd4d2d800e52a8c4979a5609571a", "type": "electric_scooter", "lat": 38.91051266666667, "is_disabled": 0}, {"fusion_lat": 0.0, "lon": -77.04173033333333, "is_reserved": 0, "bike_id": "56c6d32df4326ae9e9bb428ddafc0cff", "fusion_lon": 0.0, "rental_uris": {"android": "https://dc.lft.to/lastmile_qr_scan", "ios": "https://dc.lft.to/lastmile_qr_scan"}, "name": "56c6d32df4326ae9e9bb428ddafc0cff", "type": "electric_scooter", "lat": 38.9199305, "is_disabled": 0}, {"fusion_lat": 0.0, "lon": -77.02056233333333, "is_reserved": 0, "bike_id": "5e04789e0139aa15d1f2d80580561aa5", "fusion_lon": 0.0, "rental_uris": {"android": "https://dc.lft.to/lastmile_qr_scan", "ios": "https://dc.lft.to/lastmile_qr_scan"}, "name": "5e04789e0139aa15d1f2d80580561aa5", "type": "electric_bike", "lat": 38.95758083333333, "is_disabled": 0}, {"fusion_lat": 0.0, "lon": -77.02741133333333, "is_reserved": 0, "bike_id": "cebdf7a7c750f4048d1bcfd54fc5188f", "fusion_lon": 0.0, "rental_uris": {"android": "https://dc.lft.to/lastmile_qr_scan", "ios": "https://dc.lft.to/lastmile_qr_scan"}, "name": "cebdf7a7c750f4048d1bcfd54fc5188f", "type": "electric_scooter", "lat": 38.927716, "is_disabled": 0}, {"fusion_lat": 0.0, "lon": -77.00579066666667, "is_reserved": 0, "bike_id": "6428118597811dbb0d478bc648a47807", "fusion_lon": 0.0, "rental_uris": {"android": "https://dc.lft.to/lastmile_qr_scan", "ios": "https://dc.lft.to/lastmile_qr_scan"}, "name": "6428118597811dbb0d478bc648a47807", "type": "electric_scooter", "lat": 38.875471, "is_disabled": 0}, {"fusion_lat": 0.0, "lon": -77.00211683333333, "is_reserved": 0, "bike_id": "948e127dd42b4b654dbe26b16c77150e", "fusion_lon": 0.0, "rental_uris": {"android": "https://dc.lft.to/lastmile_qr_scan", "ios": "https://dc.lft.to/lastmile_qr_scan"}, "name": "948e127dd42b4b654dbe26b16c77150e", "type": "electric_scooter", "lat": 38.90051033333334, "is_disabled": 0}, {"fusion_lat": 0.0, "lon": -76.9948745, "is_reserved": 0, "bike_id": "da1893fee6f7d6f749ba6b52d86a24fb", "fusion_lon": 0.0, "rental_uris": {"android": "https://dc.lft.to/lastmile_qr_scan", "ios": "https://dc.lft.to/lastmile_qr_scan"}, "name": "da1893fee6f7d6f749ba6b52d86a24fb", "type": "electric_scooter", "lat": 38.881577166666666, "is_disabled": 0}, {"fusion_lat": 0.0, "lon": -76.99570033333333, "is_reserved": 0, "bike_id": "60f95551aeb87bb4e84e330692118b17", "fusion_lon": 0.0, "rental_uris": {"android": "https://dc.lft.to/lastmile_qr_scan", "ios": "https://dc.lft.to/lastmile_qr_scan"}, "name": "60f95551aeb87bb4e84e330692118b17", "type": "electric_scooter", "lat": 38.884274, "is_disabled": 0}, {"fusion_lat": 0.0, "lon": -77.01979616666667, "is_reserved": 0, "bike_id": "610315ca6ce8fa0ef86092ff7997211e", "fusion_lon": 0.0, "rental_uris": {"android": "https://dc.lft.to/lastmile_qr_scan", "ios": "https://dc.lft.to/lastmile_qr_scan"}, "name": "610315ca6ce8fa0ef86092ff7997211e", "type": "electric_scooter", "lat": 38.895713, "is_disabled": 0}, {"fusion_lat": 0.0, "lon": -77.019494, "is_reserved": 0, "bike_id": "de70b58869fc48e6726e44ccc8b66a3d", "fusion_lon": 0.0, "rental_uris": {"android": "https://dc.lft.to/lastmile_qr_scan", "ios": "https://dc.lft.to/lastmile_qr_scan"}, "name": "de70b58869fc48e6726e44ccc8b66a3d", "type": "electric_scooter", "lat": 38.924179, "is_disabled": 0}, {"fusion_lat": 0.0, "lon": -77.021944, "is_reserved": 0, "bike_id": "cf3048ee918bbd832988b5868d66324c", "fusion_lon": 0.0, "rental_uris": {"android": "https://dc.lft.to/lastmile_qr_scan", "ios": "https://dc.lft.to/lastmile_qr_scan"}, "name": "cf3048ee918bbd832988b5868d66324c", "type": "electric_scooter", "lat": 38.92050283333333, "is_disabled": 0}, {"fusion_lat": 0.0, "lon": -77.03263833333334, "is_reserved": 0, "bike_id": "59c3d90422b04c6213f6aad633ff7de5", "fusion_lon": 0.0, "rental_uris": {"android": "https://dc.lft.to/lastmile_qr_scan", "ios": "https://dc.lft.to/lastmile_qr_scan"}, "name": "59c3d90422b04c6213f6aad633ff7de5", "type": "electric_scooter", "lat": 38.90277016666667, "is_disabled": 0}, {"fusion_lat": 0.0, "lon": -77.00928266666666, "is_reserved": 0, "bike_id": "e26f891380ea69ea38b2ab41e69bded4", "fusion_lon": 0.0, "rental_uris": {"android": "https://dc.lft.to/lastmile_qr_scan", "ios": "https://dc.lft.to/lastmile_qr_scan"}, "name": "e26f891380ea69ea38b2ab41e69bded4", "type": "electric_scooter", "lat": 38.89609683333333, "is_disabled": 0}, {"fusion_lat": 0.0, "lon": -77.01198316666667, "is_reserved": 0, "bike_id": "07e2046b054691fc5b2f67656290c29f", "fusion_lon": 0.0, "rental_uris": {"android": "https://dc.lft.to/lastmile_qr_scan", "ios": "https://dc.lft.to/lastmile_qr_scan"}, "name": "07e2046b054691fc5b2f67656290c29f", "type": "electric_scooter", "lat": 38.893186666666665, "is_disabled": 0}, {"fusion_lat": 0.0, "lon": -76.9373585, "is_reserved": 0, "bike_id": "6e791d84a4b73eea231d1f151b20866d", "fusion_lon": 0.0, "rental_uris": {"android": "https://dc.lft.to/lastmile_qr_scan", "ios": "https://dc.lft.to/lastmile_qr_scan"}, "name": "6e791d84a4b73eea231d1f151b20866d", "type": "electric_scooter", "lat": 38.89016733333333, "is_disabled": 0}, {"fusion_lat": 0.0, "lon": -77.04438783333333, "is_reserved": 0, "bike_id": "c120cd9d6d914343a6e2ec8d926383a8", "fusion_lon": 0.0, "rental_uris": {"android": "https://dc.lft.to/lastmile_qr_scan", "ios": "https://dc.lft.to/lastmile_qr_scan"}, "name": "c120cd9d6d914343a6e2ec8d926383a8", "type": "electric_scooter", "lat": 38.921405666666665, "is_disabled": 0}, {"fusion_lat": 0.0, "lon": -76.997824, "is_reserved": 0, "bike_id": "c37b473df06647188991e6ee896b5b01", "fusion_lon": 0.0, "rental_uris": {"android": "https://dc.lft.to/lastmile_qr_scan", "ios": "https://dc.lft.to/lastmile_qr_scan"}, "name": "c37b473df06647188991e6ee896b5b01", "type": "electric_scooter", "lat": 38.91060733333333, "is_disabled": 0}, {"fusion_lat": 0.0, "lon": -77.03449416666666, "is_reserved": 0, "bike_id": "e8fbbbb501243ae9c27ba7454d4b23a9", "fusion_lon": 0.0, "rental_uris": {"android": "https://dc.lft.to/lastmile_qr_scan", "ios": "https://dc.lft.to/lastmile_qr_scan"}, "name": "e8fbbbb501243ae9c27ba7454d4b23a9", "type": "electric_scooter", "lat": 38.925425, "is_disabled": 0}, {"fusion_lat": 0.0, "lon": -77.01127383333333, "is_reserved": 0, "bike_id": "ba4487997f7477714a2cc41242c9c90f", "fusion_lon": 0.0, "rental_uris": {"android": "https://dc.lft.to/lastmile_qr_scan", "ios": "https://dc.lft.to/lastmile_qr_scan"}, "name": "ba4487997f7477714a2cc41242c9c90f", "type": "electric_scooter", "lat": 38.91596066666666, "is_disabled": 0}, {"fusion_lat": 0.0, "lon": -77.00726033333333, "is_reserved": 0, "bike_id": "fdf54561c9283b281e61cba9df88a363", "fusion_lon": 0.0, "rental_uris": {"android": "https://dc.lft.to/lastmile_qr_scan", "ios": "https://dc.lft.to/lastmile_qr_scan"}, "name": "fdf54561c9283b281e61cba9df88a363", "type": "electric_scooter", "lat": 38.88498766666667, "is_disabled": 0}, {"fusion_lat": 0.0, "lon": -76.99539383333334, "is_reserved": 0, "bike_id": "b2e212790abe0621df16efca31c773f2", "fusion_lon": 0.0, "rental_uris": {"android": "https://dc.lft.to/lastmile_qr_scan", "ios": "https://dc.lft.to/lastmile_qr_scan"}, "name": "b2e212790abe0621df16efca31c773f2", "type": "electric_scooter", "lat": 38.8620495, "is_disabled": 0}, {"fusion_lat": 0.0, "lon": -77.02935766666667, "is_reserved": 0, "bike_id": "d0f793080e04cd6e5adaf18814b82fd0", "fusion_lon": 0.0, "rental_uris": {"android": "https://dc.lft.to/lastmile_qr_scan", "ios": "https://dc.lft.to/lastmile_qr_scan"}, "name": "d0f793080e04cd6e5adaf18814b82fd0", "type": "electric_scooter", "lat": 38.89992433333333, "is_disabled": 0}, {"fusion_lat": 0.0, "lon": -77.0779135, "is_reserved": 0, "bike_id": "f05911d3cc3e43e28bdf360ccf6e1b57", "fusion_lon": 0.0, "rental_uris": {"android": "https://dc.lft.to/lastmile_qr_scan", "ios": "https://dc.lft.to/lastmile_qr_scan"}, "name": "f05911d3cc3e43e28bdf360ccf6e1b57", "type": "electric_bike", "lat": 38.99606983333334, "is_disabled": 0}, {"fusion_lat": 0.0, "lon": -76.97009683333333, "is_reserved": 0, "bike_id": "a1cb231d8e65a26501dda0e7ff0b585f", "fusion_lon": 0.0, "rental_uris": {"android": "https://dc.lft.to/lastmile_qr_scan", "ios": "https://dc.lft.to/lastmile_qr_scan"}, "name": "a1cb231d8e65a26501dda0e7ff0b585f", "type": "electric_bike", "lat": 38.86371966666667, "is_disabled": 0}, {"fusion_lat": 0.0, "lon": -77.036398, "is_reserved": 0, "bike_id": "5af920da7a37badd1b2eeef706b048c8", "fusion_lon": 0.0, "rental_uris": {"android": "https://dc.lft.to/lastmile_qr_scan", "ios": "https://dc.lft.to/lastmile_qr_scan"}, "name": "5af920da7a37badd1b2eeef706b048c8", "type": "electric_scooter", "lat": 38.90372966666666, "is_disabled": 0}, {"fusion_lat": 0.0, "lon": -76.9970065, "is_reserved": 0, "bike_id": "2ee11b6d30a9066a2436e3d58a22df53", "fusion_lon": 0.0, "rental_uris": {"android": "https://dc.lft.to/lastmile_qr_scan", "ios": "https://dc.lft.to/lastmile_qr_scan"}, "name": "2ee11b6d30a9066a2436e3d58a22df53", "type": "electric_scooter", "lat": 38.908004, "is_disabled": 0}, {"fusion_lat": 0.0, "lon": -77.04035833333333, "is_reserved": 0, "bike_id": "49d55c0a9fff06c1cb2f3e1b2a3c84b2", "fusion_lon": 0.0, "rental_uris": {"android": "https://dc.lft.to/lastmile_qr_scan", "ios": "https://dc.lft.to/lastmile_qr_scan"}, "name": "49d55c0a9fff06c1cb2f3e1b2a3c84b2", "type": "electric_scooter", "lat": 38.911142, "is_disabled": 0}, {"fusion_lat": 0.0, "lon": -77.04308883333333, "is_reserved": 0, "bike_id": "31c56f3e9d609ca8fea1c1f5dd7f8c0b", "fusion_lon": 0.0, "rental_uris": {"android": "https://dc.lft.to/lastmile_qr_scan", "ios": "https://dc.lft.to/lastmile_qr_scan"}, "name": "31c56f3e9d609ca8fea1c1f5dd7f8c0b", "type": "electric_scooter", "lat": 38.923374333333335, "is_disabled": 0}, {"fusion_lat": 0.0, "lon": -77.06131683333334, "is_reserved": 0, "bike_id": "c93fd76a136373c8d879cf9a1fae7bd0", "fusion_lon": 0.0, "rental_uris": {"android": "https://dc.lft.to/lastmile_qr_scan", "ios": "https://dc.lft.to/lastmile_qr_scan"}, "name": "c93fd76a136373c8d879cf9a1fae7bd0", "type": "electric_scooter", "lat": 38.94086566666667, "is_disabled": 0}, {"fusion_lat": 0.0, "lon": -77.040216, "is_reserved": 0, "bike_id": "1d8c4225e14893db803baa7afe30fcb7", "fusion_lon": 0.0, "rental_uris": {"android": "https://dc.lft.to/lastmile_qr_scan", "ios": "https://dc.lft.to/lastmile_qr_scan"}, "name": "1d8c4225e14893db803baa7afe30fcb7", "type": "electric_scooter", "lat": 38.92453883333334, "is_disabled": 0}, {"fusion_lat": 0.0, "lon": -77.027831, "is_reserved": 0, "bike_id": "fc4ecaeaa081fc6f04b53cb452f15d3c", "fusion_lon": 0.0, "rental_uris": {"android": "https://dc.lft.to/lastmile_qr_scan", "ios": "https://dc.lft.to/lastmile_qr_scan"}, "name": "fc4ecaeaa081fc6f04b53cb452f15d3c", "type": "electric_scooter", "lat": 38.926778, "is_disabled": 0}, {"fusion_lat": 0.0, "lon": -77.07347183333333, "is_reserved": 0, "bike_id": "5973eac64071523d2b5477ec7b7e72ba", "fusion_lon": 0.0, "rental_uris": {"android": "https://dc.lft.to/lastmile_qr_scan", "ios": "https://dc.lft.to/lastmile_qr_scan"}, "name": "5973eac64071523d2b5477ec7b7e72ba", "type": "electric_scooter", "lat": 38.91101116666667, "is_disabled": 0}, {"fusion_lat": 0.0, "lon": -77.06046183333333, "is_reserved": 0, "bike_id": "be4fe997d6e88256a60235d2b24e274d", "fusion_lon": 0.0, "rental_uris": {"android": "https://dc.lft.to/lastmile_qr_scan", "ios": "https://dc.lft.to/lastmile_qr_scan"}, "name": "be4fe997d6e88256a60235d2b24e274d", "type": "electric_scooter", "lat": 38.93915616666666, "is_disabled": 0}, {"fusion_lat": 0.0, "lon": -77.04346833333334, "is_reserved": 0, "bike_id": "fe578745f7f233cb32c4df7e16e8b9ad", "fusion_lon": 0.0, "rental_uris": {"android": "https://dc.lft.to/lastmile_qr_scan", "ios": "https://dc.lft.to/lastmile_qr_scan"}, "name": "fe578745f7f233cb32c4df7e16e8b9ad", "type": "electric_scooter", "lat": 38.904341333333335, "is_disabled": 0}, {"fusion_lat": 0.0, "lon": -77.007242, "is_reserved": 0, "bike_id": "da1e551dbeb360f7889191a738e4bc7a", "fusion_lon": 0.0, "rental_uris": {"android": "https://dc.lft.to/lastmile_qr_scan", "ios": "https://dc.lft.to/lastmile_qr_scan"}, "name": "da1e551dbeb360f7889191a738e4bc7a", "type": "electric_scooter", "lat": 38.8786265, "is_disabled": 0}, {"fusion_lat": 0.0, "lon": -76.99467066666666, "is_reserved": 0, "bike_id": "ef54312b9c61395c0ec549f9a2b2e772", "fusion_lon": 0.0, "rental_uris": {"android": "https://dc.lft.to/lastmile_qr_scan", "ios": "https://dc.lft.to/lastmile_qr_scan"}, "name": "ef54312b9c61395c0ec549f9a2b2e772", "type": "electric_scooter", "lat": 38.86223016666667, "is_disabled": 0}, {"fusion_lat": 0.0, "lon": -77.02970683333334, "is_reserved": 0, "bike_id": "a68642eb246674c5424b66b69a858814", "fusion_lon": 0.0, "rental_uris": {"android": "https://dc.lft.to/lastmile_qr_scan", "ios": "https://dc.lft.to/lastmile_qr_scan"}, "name": "a68642eb246674c5424b66b69a858814", "type": "electric_scooter", "lat": 38.910603333333334, "is_disabled": 0}, {"fusion_lat": 0.0, "lon": -76.98146733333333, "is_reserved": 0, "bike_id": "3bb8000ed693e5bd22a19ed8bbe26a7f", "fusion_lon": 0.0, "rental_uris": {"android": "https://dc.lft.to/lastmile_qr_scan", "ios": "https://dc.lft.to/lastmile_qr_scan"}, "name": "3bb8000ed693e5bd22a19ed8bbe26a7f", "type": "electric_scooter", "lat": 38.9056915, "is_disabled": 0}, {"fusion_lat": 0.0, "lon": -77.01748533333334, "is_reserved": 0, "bike_id": "477a4df2d18c172f65f03800bee8eac8", "fusion_lon": 0.0, "rental_uris": {"android": "https://dc.lft.to/lastmile_qr_scan", "ios": "https://dc.lft.to/lastmile_qr_scan"}, "name": "477a4df2d18c172f65f03800bee8eac8", "type": "electric_scooter", "lat": 38.872642, "is_disabled": 0}, {"fusion_lat": 0.0, "lon": -77.01614733333334, "is_reserved": 0, "bike_id": "af021640c12ffcebe1a4f817cb11cd7a", "fusion_lon": 0.0, "rental_uris": {"android": "https://dc.lft.to/lastmile_qr_scan", "ios": "https://dc.lft.to/lastmile_qr_scan"}, "name": "af021640c12ffcebe1a4f817cb11cd7a", "type": "electric_scooter", "lat": 38.883408, "is_disabled": 0}, {"fusion_lat": 0.0, "lon": -77.04200833333333, "is_reserved": 0, "bike_id": "5e9b5d5281d5384a8c7abf028a8156b8", "fusion_lon": 0.0, "rental_uris": {"android": "https://dc.lft.to/lastmile_qr_scan", "ios": "https://dc.lft.to/lastmile_qr_scan"}, "name": "5e9b5d5281d5384a8c7abf028a8156b8", "type": "electric_scooter", "lat": 38.9196595, "is_disabled": 0}, {"fusion_lat": 0.0, "lon": -77.0269955, "is_reserved": 0, "bike_id": "42d25a7a41713d07ef6895f6d6011220", "fusion_lon": 0.0, "rental_uris": {"android": "https://dc.lft.to/lastmile_qr_scan", "ios": "https://dc.lft.to/lastmile_qr_scan"}, "name": "42d25a7a41713d07ef6895f6d6011220", "type": "electric_scooter", "lat": 38.908374, "is_disabled": 0}, {"fusion_lat": 0.0, "lon": -76.99759116666667, "is_reserved": 0, "bike_id": "943a62e359b97ddf1afe0da5c33a2991", "fusion_lon": 0.0, "rental_uris": {"android": "https://dc.lft.to/lastmile_qr_scan", "ios": "https://dc.lft.to/lastmile_qr_scan"}, "name": "943a62e359b97ddf1afe0da5c33a2991", "type": "electric_scooter", "lat": 38.90836916666667, "is_disabled": 0}, {"fusion_lat": 0.0, "lon": -77.02578933333334, "is_reserved": 0, "bike_id": "ff60f83c6cfb0a743943f3fede5c86e5", "fusion_lon": 0.0, "rental_uris": {"android": "https://dc.lft.to/lastmile_qr_scan", "ios": "https://dc.lft.to/lastmile_qr_scan"}, "name": "ff60f83c6cfb0a743943f3fede5c86e5", "type": "electric_scooter", "lat": 38.92525033333333, "is_disabled": 0}, {"fusion_lat": 0.0, "lon": -77.02369616666667, "is_reserved": 0, "bike_id": "92887be3c67f4bc1a8a189e9c1b58057", "fusion_lon": 0.0, "rental_uris": {"android": "https://dc.lft.to/lastmile_qr_scan", "ios": "https://dc.lft.to/lastmile_qr_scan"}, "name": "92887be3c67f4bc1a8a189e9c1b58057", "type": "electric_scooter", "lat": 38.893988, "is_disabled": 0}, {"fusion_lat": 0.0, "lon": -77.04410433333334, "is_reserved": 0, "bike_id": "336dbdd380d4cf4886c4a5335e9d12bf", "fusion_lon": 0.0, "rental_uris": {"android": "https://dc.lft.to/lastmile_qr_scan", "ios": "https://dc.lft.to/lastmile_qr_scan"}, "name": "336dbdd380d4cf4886c4a5335e9d12bf", "type": "electric_scooter", "lat": 38.895515333333336, "is_disabled": 0}, {"fusion_lat": 0.0, "lon": -77.02414683333333, "is_reserved": 0, "bike_id": "3161cdd36e52f508c04eb654baff5d49", "fusion_lon": 0.0, "rental_uris": {"android": "https://dc.lft.to/lastmile_qr_scan", "ios": "https://dc.lft.to/lastmile_qr_scan"}, "name": "3161cdd36e52f508c04eb654baff5d49", "type": "electric_scooter", "lat": 38.93695833333334, "is_disabled": 0}, {"fusion_lat": 0.0, "lon": -76.99529266666667, "is_reserved": 0, "bike_id": "e2cf989d42da5a094a417b70eb3c9997", "fusion_lon": 0.0, "rental_uris": {"android": "https://dc.lft.to/lastmile_qr_scan", "ios": "https://dc.lft.to/lastmile_qr_scan"}, "name": "e2cf989d42da5a094a417b70eb3c9997", "type": "electric_scooter", "lat": 38.88374133333333, "is_disabled": 0}, {"fusion_lat": 0.0, "lon": -77.03911966666666, "is_reserved": 0, "bike_id": "d092685262c7bd46fcb2b827e9bdd881", "fusion_lon": 0.0, "rental_uris": {"android": "https://dc.lft.to/lastmile_qr_scan", "ios": "https://dc.lft.to/lastmile_qr_scan"}, "name": "d092685262c7bd46fcb2b827e9bdd881", "type": "electric_scooter", "lat": 38.9231405, "is_disabled": 0}, {"fusion_lat": 0.0, "lon": -77.02207183333333, "is_reserved": 0, "bike_id": "302f065dd99c98a63233d0b8cdb0e67c", "fusion_lon": 0.0, "rental_uris": {"android": "https://dc.lft.to/lastmile_qr_scan", "ios": "https://dc.lft.to/lastmile_qr_scan"}, "name": "302f065dd99c98a63233d0b8cdb0e67c", "type": "electric_scooter", "lat": 38.88722583333333, "is_disabled": 0}, {"fusion_lat": 0.0, "lon": -77.03438583333333, "is_reserved": 0, "bike_id": "2a96797b30045ded0f0384bbaaebf208", "fusion_lon": 0.0, "rental_uris": {"android": "https://dc.lft.to/lastmile_qr_scan", "ios": "https://dc.lft.to/lastmile_qr_scan"}, "name": "2a96797b30045ded0f0384bbaaebf208", "type": "electric_scooter", "lat": 38.9057095, "is_disabled": 0}, {"fusion_lat": 0.0, "lon": -77.0129955, "is_reserved": 0, "bike_id": "364a7cba8412c2107011b4d93b3a80bf", "fusion_lon": 0.0, "rental_uris": {"android": "https://dc.lft.to/lastmile_qr_scan", "ios": "https://dc.lft.to/lastmile_qr_scan"}, "name": "364a7cba8412c2107011b4d93b3a80bf", "type": "electric_scooter", "lat": 38.9300095, "is_disabled": 0}, {"fusion_lat": 0.0, "lon": -77.0110815, "is_reserved": 0, "bike_id": "125859a4c80955434b6b823d15f2e632", "fusion_lon": 0.0, "rental_uris": {"android": "https://dc.lft.to/lastmile_qr_scan", "ios": "https://dc.lft.to/lastmile_qr_scan"}, "name": "125859a4c80955434b6b823d15f2e632", "type": "electric_scooter", "lat": 38.903522833333334, "is_disabled": 0}, {"fusion_lat": 0.0, "lon": -77.04659483333333, "is_reserved": 0, "bike_id": "0985f3c62f22ca64467c20c1a913dba4", "fusion_lon": 0.0, "rental_uris": {"android": "https://dc.lft.to/lastmile_qr_scan", "ios": "https://dc.lft.to/lastmile_qr_scan"}, "name": "0985f3c62f22ca64467c20c1a913dba4", "type": "electric_scooter", "lat": 38.90015116666667, "is_disabled": 0}, {"fusion_lat": 0.0, "lon": -77.038259, "is_reserved": 0, "bike_id": "814467868f6a24a155be9b726bf7dfe0", "fusion_lon": 0.0, "rental_uris": {"android": "https://dc.lft.to/lastmile_qr_scan", "ios": "https://dc.lft.to/lastmile_qr_scan"}, "name": "814467868f6a24a155be9b726bf7dfe0", "type": "electric_scooter", "lat": 38.903797833333336, "is_disabled": 0}, {"fusion_lat": 0.0, "lon": -77.0465895, "is_reserved": 0, "bike_id": "e992abfddb6c90b3bc5ddfb7deb613f5", "fusion_lon": 0.0, "rental_uris": {"android": "https://dc.lft.to/lastmile_qr_scan", "ios": "https://dc.lft.to/lastmile_qr_scan"}, "name": "e992abfddb6c90b3bc5ddfb7deb613f5", "type": "electric_scooter", "lat": 38.90436366666667, "is_disabled": 0}, {"fusion_lat": 0.0, "lon": -77.02286166666667, "is_reserved": 0, "bike_id": "e6f7185be30ceacd59e658af9f1e309d", "fusion_lon": 0.0, "rental_uris": {"android": "https://dc.lft.to/lastmile_qr_scan", "ios": "https://dc.lft.to/lastmile_qr_scan"}, "name": "e6f7185be30ceacd59e658af9f1e309d", "type": "electric_scooter", "lat": 38.91985533333333, "is_disabled": 0}, {"fusion_lat": 0.0, "lon": -77.029517, "is_reserved": 0, "bike_id": "3ce44e7c839f1f4b2e6686d5ee068e70", "fusion_lon": 0.0, "rental_uris": {"android": "https://dc.lft.to/lastmile_qr_scan", "ios": "https://dc.lft.to/lastmile_qr_scan"}, "name": "3ce44e7c839f1f4b2e6686d5ee068e70", "type": "electric_scooter", "lat": 38.9049585, "is_disabled": 0}, {"fusion_lat": 0.0, "lon": -77.01969466666667, "is_reserved": 0, "bike_id": "a901c4c09047c89ffaca69296646e23e", "fusion_lon": 0.0, "rental_uris": {"android": "https://dc.lft.to/lastmile_qr_scan", "ios": "https://dc.lft.to/lastmile_qr_scan"}, "name": "a901c4c09047c89ffaca69296646e23e", "type": "electric_scooter", "lat": 38.87851916666666, "is_disabled": 0}, {"fusion_lat": 0.0, "lon": -76.99610383333334, "is_reserved": 0, "bike_id": "a36e28bfae43792dd7f5faa49bde56ac", "fusion_lon": 0.0, "rental_uris": {"android": "https://dc.lft.to/lastmile_qr_scan", "ios": "https://dc.lft.to/lastmile_qr_scan"}, "name": "a36e28bfae43792dd7f5faa49bde56ac", "type": "electric_scooter", "lat": 38.886187166666666, "is_disabled": 0}, {"fusion_lat": 0.0, "lon": -76.99809416666666, "is_reserved": 0, "bike_id": "908fbcd9e88433be3ea4a48e4516fed8", "fusion_lon": 0.0, "rental_uris": {"android": "https://dc.lft.to/lastmile_qr_scan", "ios": "https://dc.lft.to/lastmile_qr_scan"}, "name": "908fbcd9e88433be3ea4a48e4516fed8", "type": "electric_scooter", "lat": 38.90029716666667, "is_disabled": 0}, {"fusion_lat": 0.0, "lon": -77.02252166666666, "is_reserved": 0, "bike_id": "09346ec588328e652b83e8cbabb54b6b", "fusion_lon": 0.0, "rental_uris": {"android": "https://dc.lft.to/lastmile_qr_scan", "ios": "https://dc.lft.to/lastmile_qr_scan"}, "name": "09346ec588328e652b83e8cbabb54b6b", "type": "electric_scooter", "lat": 38.89395566666666, "is_disabled": 0}, {"fusion_lat": 0.0, "lon": -76.9837315, "is_reserved": 0, "bike_id": "ae0a642907104f747027cf0f26a96573", "fusion_lon": 0.0, "rental_uris": {"android": "https://dc.lft.to/lastmile_qr_scan", "ios": "https://dc.lft.to/lastmile_qr_scan"}, "name": "ae0a642907104f747027cf0f26a96573", "type": "electric_scooter", "lat": 38.906552, "is_disabled": 0}, {"fusion_lat": 0.0, "lon": -77.00350766666666, "is_reserved": 0, "bike_id": "6046abff2cb7a40ae4b499bc93eff4a6", "fusion_lon": 0.0, "rental_uris": {"android": "https://dc.lft.to/lastmile_qr_scan", "ios": "https://dc.lft.to/lastmile_qr_scan"}, "name": "6046abff2cb7a40ae4b499bc93eff4a6", "type": "electric_scooter", "lat": 38.88706, "is_disabled": 0}, {"fusion_lat": 0.0, "lon": -77.04376666666667, "is_reserved": 0, "bike_id": "b3ddff6d427afc454ec883daa62dbd7d", "fusion_lon": 0.0, "rental_uris": {"android": "https://dc.lft.to/lastmile_qr_scan", "ios": "https://dc.lft.to/lastmile_qr_scan"}, "name": "b3ddff6d427afc454ec883daa62dbd7d", "type": "electric_scooter", "lat": 38.89223716666667, "is_disabled": 0}, {"fusion_lat": 0.0, "lon": -77.00203316666666, "is_reserved": 0, "bike_id": "4b9c69a0f0af6fb2a3b8ebd18d4dd9ab", "fusion_lon": 0.0, "rental_uris": {"android": "https://dc.lft.to/lastmile_qr_scan", "ios": "https://dc.lft.to/lastmile_qr_scan"}, "name": "4b9c69a0f0af6fb2a3b8ebd18d4dd9ab", "type": "electric_scooter", "lat": 38.902398166666664, "is_disabled": 0}, {"fusion_lat": 0.0, "lon": -76.98714833333334, "is_reserved": 0, "bike_id": "19ca6a58f33c701afa6d0e5e77530ee5", "fusion_lon": 0.0, "rental_uris": {"android": "https://dc.lft.to/lastmile_qr_scan", "ios": "https://dc.lft.to/lastmile_qr_scan"}, "name": "19ca6a58f33c701afa6d0e5e77530ee5", "type": "electric_scooter", "lat": 38.866259666666664, "is_disabled": 0}, {"fusion_lat": 0.0, "lon": -76.95184816666666, "is_reserved": 0, "bike_id": "bebc64692ce6fa23187d001c34ca5352", "fusion_lon": 0.0, "rental_uris": {"android": "https://dc.lft.to/lastmile_qr_scan", "ios": "https://dc.lft.to/lastmile_qr_scan"}, "name": "bebc64692ce6fa23187d001c34ca5352", "type": "electric_scooter", "lat": 38.907342666666665, "is_disabled": 0}, {"fusion_lat": 0.0, "lon": -76.98950566666667, "is_reserved": 0, "bike_id": "4e11502f542c5a7dc04a8026ce33c49a", "fusion_lon": 0.0, "rental_uris": {"android": "https://dc.lft.to/lastmile_qr_scan", "ios": "https://dc.lft.to/lastmile_qr_scan"}, "name": "4e11502f542c5a7dc04a8026ce33c49a", "type": "electric_scooter", "lat": 38.856912, "is_disabled": 0}, {"fusion_lat": 0.0, "lon": -77.046585, "is_reserved": 0, "bike_id": "82b7da431bcafe59fd112217ef73ac3b", "fusion_lon": 0.0, "rental_uris": {"android": "https://dc.lft.to/lastmile_qr_scan", "ios": "https://dc.lft.to/lastmile_qr_scan"}, "name": "82b7da431bcafe59fd112217ef73ac3b", "type": "electric_scooter", "lat": 38.903302, "is_disabled": 0}, {"fusion_lat": 0.0, "lon": -77.01360716666667, "is_reserved": 0, "bike_id": "1caa756856c579538c6819cc70caa3e7", "fusion_lon": 0.0, "rental_uris": {"android": "https://dc.lft.to/lastmile_qr_scan", "ios": "https://dc.lft.to/lastmile_qr_scan"}, "name": "1caa756856c579538c6819cc70caa3e7", "type": "electric_scooter", "lat": 38.9290175, "is_disabled": 0}, {"fusion_lat": 0.0, "lon": -77.00620916666666, "is_reserved": 0, "bike_id": "5e369d0df407e1851eb1b71516d797ec", "fusion_lon": 0.0, "rental_uris": {"android": "https://dc.lft.to/lastmile_qr_scan", "ios": "https://dc.lft.to/lastmile_qr_scan"}, "name": "5e369d0df407e1851eb1b71516d797ec", "type": "electric_scooter", "lat": 38.871742166666664, "is_disabled": 0}, {"fusion_lat": 0.0, "lon": -77.02328833333333, "is_reserved": 0, "bike_id": "bb46b024aeb7eff21ad3819a436e6d11", "fusion_lon": 0.0, "rental_uris": {"android": "https://dc.lft.to/lastmile_qr_scan", "ios": "https://dc.lft.to/lastmile_qr_scan"}, "name": "bb46b024aeb7eff21ad3819a436e6d11", "type": "electric_scooter", "lat": 38.92711216666667, "is_disabled": 0}, {"fusion_lat": 0.0, "lon": -76.9373205, "is_reserved": 0, "bike_id": "7fef20e467a4028646f3d3060752d1a1", "fusion_lon": 0.0, "rental_uris": {"android": "https://dc.lft.to/lastmile_qr_scan", "ios": "https://dc.lft.to/lastmile_qr_scan"}, "name": "7fef20e467a4028646f3d3060752d1a1", "type": "electric_scooter", "lat": 38.8901575, "is_disabled": 0}, {"fusion_lat": 0.0, "lon": -77.0152535, "is_reserved": 0, "bike_id": "e87209b75c83c86f7c59ae378eb5ef24", "fusion_lon": 0.0, "rental_uris": {"android": "https://dc.lft.to/lastmile_qr_scan", "ios": "https://dc.lft.to/lastmile_qr_scan"}, "name": "e87209b75c83c86f7c59ae378eb5ef24", "type": "electric_scooter", "lat": 38.8924505, "is_disabled": 0}, {"fusion_lat": 0.0, "lon": -77.0269375, "is_reserved": 0, "bike_id": "af4db36704f619ceb56e35f9ab742cb2", "fusion_lon": 0.0, "rental_uris": {"android": "https://dc.lft.to/lastmile_qr_scan", "ios": "https://dc.lft.to/lastmile_qr_scan"}, "name": "af4db36704f619ceb56e35f9ab742cb2", "type": "electric_scooter", "lat": 38.90253166666667, "is_disabled": 0}, {"fusion_lat": 0.0, "lon": -77.00715933333333, "is_reserved": 0, "bike_id": "8a2eae3627236580cca6ac1e5a272879", "fusion_lon": 0.0, "rental_uris": {"android": "https://dc.lft.to/lastmile_qr_scan", "ios": "https://dc.lft.to/lastmile_qr_scan"}, "name": "8a2eae3627236580cca6ac1e5a272879", "type": "electric_scooter", "lat": 38.897793166666666, "is_disabled": 0}, {"fusion_lat": 0.0, "lon": -77.00599766666667, "is_reserved": 0, "bike_id": "75dea9b78f6f0a70c4fa752185dfa0ea", "fusion_lon": 0.0, "rental_uris": {"android": "https://dc.lft.to/lastmile_qr_scan", "ios": "https://dc.lft.to/lastmile_qr_scan"}, "name": "75dea9b78f6f0a70c4fa752185dfa0ea", "type": "electric_scooter", "lat": 38.885205, "is_disabled": 0}, {"fusion_lat": 0.0, "lon": -77.04468366666667, "is_reserved": 0, "bike_id": "754b5f0d86092faf8714325e5693eff5", "fusion_lon": 0.0, "rental_uris": {"android": "https://dc.lft.to/lastmile_qr_scan", "ios": "https://dc.lft.to/lastmile_qr_scan"}, "name": "754b5f0d86092faf8714325e5693eff5", "type": "electric_scooter", "lat": 38.9095895, "is_disabled": 0}, {"fusion_lat": 0.0, "lon": -77.0228465, "is_reserved": 0, "bike_id": "2d466c261e6dd8b633d828b173c3a307", "fusion_lon": 0.0, "rental_uris": {"android": "https://dc.lft.to/lastmile_qr_scan", "ios": "https://dc.lft.to/lastmile_qr_scan"}, "name": "2d466c261e6dd8b633d828b173c3a307", "type": "electric_scooter", "lat": 38.91417, "is_disabled": 0}, {"fusion_lat": 0.0, "lon": -77.07477866666666, "is_reserved": 0, "bike_id": "cb408de8d301cb1b59842ceced5889b8", "fusion_lon": 0.0, "rental_uris": {"android": "https://dc.lft.to/lastmile_qr_scan", "ios": "https://dc.lft.to/lastmile_qr_scan"}, "name": "cb408de8d301cb1b59842ceced5889b8", "type": "electric_scooter", "lat": 38.9632585, "is_disabled": 0}, {"fusion_lat": 0.0, "lon": -76.89540216666667, "is_reserved": 0, "bike_id": "2d32e72453fcbb0775b42ccfcf0a702f", "fusion_lon": 0.0, "rental_uris": {"android": "https://dc.lft.to/lastmile_qr_scan", "ios": "https://dc.lft.to/lastmile_qr_scan"}, "name": "2d32e72453fcbb0775b42ccfcf0a702f", "type": "electric_bike", "lat": 38.945495666666666, "is_disabled": 0}, {"fusion_lat": 0.0, "lon": -77.02728333333333, "is_reserved": 0, "bike_id": "499dbb28ac9d6df5bd1358c5b93d92ea", "fusion_lon": 0.0, "rental_uris": {"android": "https://dc.lft.to/lastmile_qr_scan", "ios": "https://dc.lft.to/lastmile_qr_scan"}, "name": "499dbb28ac9d6df5bd1358c5b93d92ea", "type": "electric_scooter", "lat": 38.940875166666665, "is_disabled": 0}, {"fusion_lat": 0.0, "lon": -77.0686435, "is_reserved": 0, "bike_id": "d481307b7327a96c0fe4d999f007fbd4", "fusion_lon": 0.0, "rental_uris": {"android": "https://dc.lft.to/lastmile_qr_scan", "ios": "https://dc.lft.to/lastmile_qr_scan"}, "name": "d481307b7327a96c0fe4d999f007fbd4", "type": "electric_bike", "lat": 38.805797, "is_disabled": 0}, {"fusion_lat": 0.0, "lon": -76.97415816666667, "is_reserved": 0, "bike_id": "c3ac52f19d41da2251840d48977ec213", "fusion_lon": 0.0, "rental_uris": {"android": "https://dc.lft.to/lastmile_qr_scan", "ios": "https://dc.lft.to/lastmile_qr_scan"}, "name": "c3ac52f19d41da2251840d48977ec213", "type": "electric_bike", "lat": 38.8641505, "is_disabled": 0}, {"fusion_lat": 0.0, "lon": -77.12736116666666, "is_reserved": 0, "bike_id": "e9d383c7a53594a0a245a718ed033039", "fusion_lon": 0.0, "rental_uris": {"android": "https://dc.lft.to/lastmile_qr_scan", "ios": "https://dc.lft.to/lastmile_qr_scan"}, "name": "e9d383c7a53594a0a245a718ed033039", "type": "electric_bike", "lat": 38.8956505, "is_disabled": 0}, {"fusion_lat": 0.0, "lon": -77.042394, "is_reserved": 0, "bike_id": "4069014fae02a070b16d05469481c30b", "fusion_lon": 0.0, "rental_uris": {"android": "https://dc.lft.to/lastmile_qr_scan", "ios": "https://dc.lft.to/lastmile_qr_scan"}, "name": "4069014fae02a070b16d05469481c30b", "type": "electric_scooter", "lat": 38.92184983333333, "is_disabled": 0}, {"fusion_lat": 0.0, "lon": -76.9947765, "is_reserved": 0, "bike_id": "da6122104ac170d8be102d532b113db2", "fusion_lon": 0.0, "rental_uris": {"android": "https://dc.lft.to/lastmile_qr_scan", "ios": "https://dc.lft.to/lastmile_qr_scan"}, "name": "da6122104ac170d8be102d532b113db2", "type": "electric_scooter", "lat": 38.86218216666666, "is_disabled": 0}, {"fusion_lat": 0.0, "lon": -77.0440495, "is_reserved": 0, "bike_id": "fe0cf900f663d8e28cb2f655a5f82bb4", "fusion_lon": 0.0, "rental_uris": {"android": "https://dc.lft.to/lastmile_qr_scan", "ios": "https://dc.lft.to/lastmile_qr_scan"}, "name": "fe0cf900f663d8e28cb2f655a5f82bb4", "type": "electric_scooter", "lat": 38.902235166666664, "is_disabled": 0}, {"fusion_lat": 0.0, "lon": -77.01650583333333, "is_reserved": 0, "bike_id": "29c3b5246c6296bcd74a36164cf79bd2", "fusion_lon": 0.0, "rental_uris": {"android": "https://dc.lft.to/lastmile_qr_scan", "ios": "https://dc.lft.to/lastmile_qr_scan"}, "name": "29c3b5246c6296bcd74a36164cf79bd2", "type": "electric_scooter", "lat": 38.8811285, "is_disabled": 0}, {"fusion_lat": 0.0, "lon": -77.02716383333333, "is_reserved": 0, "bike_id": "c6f40ba306ef6ddd950a59ca4d97ede3", "fusion_lon": 0.0, "rental_uris": {"android": "https://dc.lft.to/lastmile_qr_scan", "ios": "https://dc.lft.to/lastmile_qr_scan"}, "name": "c6f40ba306ef6ddd950a59ca4d97ede3", "type": "electric_scooter", "lat": 38.89733183333333, "is_disabled": 0}, {"fusion_lat": 0.0, "lon": -76.99934383333333, "is_reserved": 0, "bike_id": "884b9e5e9e982a12e5317856b8779e46", "fusion_lon": 0.0, "rental_uris": {"android": "https://dc.lft.to/lastmile_qr_scan", "ios": "https://dc.lft.to/lastmile_qr_scan"}, "name": "884b9e5e9e982a12e5317856b8779e46", "type": "electric_scooter", "lat": 38.84300833333333, "is_disabled": 0}, {"fusion_lat": 0.0, "lon": -76.97206016666667, "is_reserved": 0, "bike_id": "72095fdbfe96c58f47e5632ac4d7d51e", "fusion_lon": 0.0, "rental_uris": {"android": "https://dc.lft.to/lastmile_qr_scan", "ios": "https://dc.lft.to/lastmile_qr_scan"}, "name": "72095fdbfe96c58f47e5632ac4d7d51e", "type": "electric_bike", "lat": 38.892947666666664, "is_disabled": 0}, {"fusion_lat": 0.0, "lon": -77.139274, "is_reserved": 0, "bike_id": "33105bcde5ef70de391e959f382fbd02", "fusion_lon": 0.0, "rental_uris": {"android": "https://dc.lft.to/lastmile_qr_scan", "ios": "https://dc.lft.to/lastmile_qr_scan"}, "name": "33105bcde5ef70de391e959f382fbd02", "type": "electric_bike", "lat": 38.87298583333333, "is_disabled": 0}, {"fusion_lat": 0.0, "lon": -76.99902883333333, "is_reserved": 0, "bike_id": "439e93482338019afcb738ffea7e5746", "fusion_lon": 0.0, "rental_uris": {"android": "https://dc.lft.to/lastmile_qr_scan", "ios": "https://dc.lft.to/lastmile_qr_scan"}, "name": "439e93482338019afcb738ffea7e5746", "type": "electric_scooter", "lat": 38.948177, "is_disabled": 0}, {"fusion_lat": 0.0, "lon": -77.03448033333333, "is_reserved": 0, "bike_id": "e61f2b30f74cf68636281e85148c4935", "fusion_lon": 0.0, "rental_uris": {"android": "https://dc.lft.to/lastmile_qr_scan", "ios": "https://dc.lft.to/lastmile_qr_scan"}, "name": "e61f2b30f74cf68636281e85148c4935", "type": "electric_scooter", "lat": 38.90573083333334, "is_disabled": 0}, {"fusion_lat": 0.0, "lon": -77.0216085, "is_reserved": 0, "bike_id": "e4feac730b5b143d91362945506ed1d3", "fusion_lon": 0.0, "rental_uris": {"android": "https://dc.lft.to/lastmile_qr_scan", "ios": "https://dc.lft.to/lastmile_qr_scan"}, "name": "e4feac730b5b143d91362945506ed1d3", "type": "electric_scooter", "lat": 38.92616433333333, "is_disabled": 0}, {"fusion_lat": 0.0, "lon": -76.93078233333334, "is_reserved": 0, "bike_id": "fad75626bb3df410007ca425d6826522", "fusion_lon": 0.0, "rental_uris": {"android": "https://dc.lft.to/lastmile_qr_scan", "ios": "https://dc.lft.to/lastmile_qr_scan"}, "name": "fad75626bb3df410007ca425d6826522", "type": "electric_scooter", "lat": 38.90168083333333, "is_disabled": 0}, {"fusion_lat": 0.0, "lon": -77.03694116666667, "is_reserved": 0, "bike_id": "f95168184d423d70f60d09248eeb1dcc", "fusion_lon": 0.0, "rental_uris": {"android": "https://dc.lft.to/lastmile_qr_scan", "ios": "https://dc.lft.to/lastmile_qr_scan"}, "name": "f95168184d423d70f60d09248eeb1dcc", "type": "electric_scooter", "lat": 38.9261585, "is_disabled": 0}, {"fusion_lat": 0.0, "lon": -77.02126366666667, "is_reserved": 0, "bike_id": "29c9b6017e86657e14b6771b83241bf1", "fusion_lon": 0.0, "rental_uris": {"android": "https://dc.lft.to/lastmile_qr_scan", "ios": "https://dc.lft.to/lastmile_qr_scan"}, "name": "29c9b6017e86657e14b6771b83241bf1", "type": "electric_scooter", "lat": 38.896294166666664, "is_disabled": 0}, {"fusion_lat": 0.0, "lon": -76.9785855, "is_reserved": 0, "bike_id": "acf03a01d7a639a19238ef4376614834", "fusion_lon": 0.0, "rental_uris": {"android": "https://dc.lft.to/lastmile_qr_scan", "ios": "https://dc.lft.to/lastmile_qr_scan"}, "name": "acf03a01d7a639a19238ef4376614834", "type": "electric_scooter", "lat": 38.87072083333334, "is_disabled": 0}, {"fusion_lat": 0.0, "lon": -77.00495516666666, "is_reserved": 0, "bike_id": "60b88b162badfabcb362ff019c0329e9", "fusion_lon": 0.0, "rental_uris": {"android": "https://dc.lft.to/lastmile_qr_scan", "ios": "https://dc.lft.to/lastmile_qr_scan"}, "name": "60b88b162badfabcb362ff019c0329e9", "type": "electric_scooter", "lat": 38.90573066666666, "is_disabled": 0}, {"fusion_lat": 0.0, "lon": -77.053075, "is_reserved": 0, "bike_id": "a6326894e127e71b69a61f578605bd2f", "fusion_lon": 0.0, "rental_uris": {"android": "https://dc.lft.to/lastmile_qr_scan", "ios": "https://dc.lft.to/lastmile_qr_scan"}, "name": "a6326894e127e71b69a61f578605bd2f", "type": "electric_scooter", "lat": 38.8985315, "is_disabled": 0}, {"fusion_lat": 0.0, "lon": -77.02950316666667, "is_reserved": 0, "bike_id": "1add46fdeb1da7e1c660908dff01ce00", "fusion_lon": 0.0, "rental_uris": {"android": "https://dc.lft.to/lastmile_qr_scan", "ios": "https://dc.lft.to/lastmile_qr_scan"}, "name": "1add46fdeb1da7e1c660908dff01ce00", "type": "electric_scooter", "lat": 38.921761000000004, "is_disabled": 0}, {"fusion_lat": 0.0, "lon": -77.02801766666667, "is_reserved": 0, "bike_id": "477fe207d8bf39735470d22f1b4b8b90", "fusion_lon": 0.0, "rental_uris": {"android": "https://dc.lft.to/lastmile_qr_scan", "ios": "https://dc.lft.to/lastmile_qr_scan"}, "name": "477fe207d8bf39735470d22f1b4b8b90", "type": "electric_scooter", "lat": 38.89231733333333, "is_disabled": 0}, {"fusion_lat": 0.0, "lon": -77.0290915, "is_reserved": 0, "bike_id": "ec6ff06864027cf28424453f443a6262", "fusion_lon": 0.0, "rental_uris": {"android": "https://dc.lft.to/lastmile_qr_scan", "ios": "https://dc.lft.to/lastmile_qr_scan"}, "name": "ec6ff06864027cf28424453f443a6262", "type": "electric_scooter", "lat": 38.9403835, "is_disabled": 0}, {"fusion_lat": 0.0, "lon": -77.03506166666666, "is_reserved": 0, "bike_id": "6f01965a49120cdf3aec167d298614ca", "fusion_lon": 0.0, "rental_uris": {"android": "https://dc.lft.to/lastmile_qr_scan", "ios": "https://dc.lft.to/lastmile_qr_scan"}, "name": "6f01965a49120cdf3aec167d298614ca", "type": "electric_scooter", "lat": 38.91883283333333, "is_disabled": 0}, {"fusion_lat": 0.0, "lon": -77.01226333333334, "is_reserved": 0, "bike_id": "9fbcf4fe8b770a85734d2dec777a73f9", "fusion_lon": 0.0, "rental_uris": {"android": "https://dc.lft.to/lastmile_qr_scan", "ios": "https://dc.lft.to/lastmile_qr_scan"}, "name": "9fbcf4fe8b770a85734d2dec777a73f9", "type": "electric_scooter", "lat": 38.91441016666667, "is_disabled": 0}, {"fusion_lat": 0.0, "lon": -77.02900716666667, "is_reserved": 0, "bike_id": "ceba220d79e8c10c1009d26d59b118b4", "fusion_lon": 0.0, "rental_uris": {"android": "https://dc.lft.to/lastmile_qr_scan", "ios": "https://dc.lft.to/lastmile_qr_scan"}, "name": "ceba220d79e8c10c1009d26d59b118b4", "type": "electric_scooter", "lat": 38.96132216666667, "is_disabled": 0}, {"fusion_lat": 0.0, "lon": -77.04338816666667, "is_reserved": 0, "bike_id": "3cb6e54be3949bf4b0250743dd3125a7", "fusion_lon": 0.0, "rental_uris": {"android": "https://dc.lft.to/lastmile_qr_scan", "ios": "https://dc.lft.to/lastmile_qr_scan"}, "name": "3cb6e54be3949bf4b0250743dd3125a7", "type": "electric_scooter", "lat": 38.90756066666667, "is_disabled": 0}, {"fusion_lat": 0.0, "lon": -77.0621255, "is_reserved": 0, "bike_id": "21e6406c4e0dce594133ec346dbc8c41", "fusion_lon": 0.0, "rental_uris": {"android": "https://dc.lft.to/lastmile_qr_scan", "ios": "https://dc.lft.to/lastmile_qr_scan"}, "name": "21e6406c4e0dce594133ec346dbc8c41", "type": "electric_bike", "lat": 38.920433833333334, "is_disabled": 0}, {"fusion_lat": 0.0, "lon": -76.9990305, "is_reserved": 0, "bike_id": "0fc43af833b8862ac2ccd58473d1d0fd", "fusion_lon": 0.0, "rental_uris": {"android": "https://dc.lft.to/lastmile_qr_scan", "ios": "https://dc.lft.to/lastmile_qr_scan"}, "name": "0fc43af833b8862ac2ccd58473d1d0fd", "type": "electric_scooter", "lat": 38.92459266666667, "is_disabled": 0}, {"fusion_lat": 0.0, "lon": -76.96562666666667, "is_reserved": 0, "bike_id": "136102e8b89c98c74f58ec28fe9634aa", "fusion_lon": 0.0, "rental_uris": {"android": "https://dc.lft.to/lastmile_qr_scan", "ios": "https://dc.lft.to/lastmile_qr_scan"}, "name": "136102e8b89c98c74f58ec28fe9634aa", "type": "electric_bike", "lat": 38.87380366666667, "is_disabled": 0}, {"fusion_lat": 0.0, "lon": -76.98625183333333, "is_reserved": 0, "bike_id": "ca1446645bcbb1466120ec1b7bb4ddbc", "fusion_lon": 0.0, "rental_uris": {"android": "https://dc.lft.to/lastmile_qr_scan", "ios": "https://dc.lft.to/lastmile_qr_scan"}, "name": "ca1446645bcbb1466120ec1b7bb4ddbc", "type": "electric_scooter", "lat": 38.90116716666667, "is_disabled": 0}, {"fusion_lat": 0.0, "lon": -77.03378983333333, "is_reserved": 0, "bike_id": "52dfe3ddf4a2b1e6135796c2d9adf9ca", "fusion_lon": 0.0, "rental_uris": {"android": "https://dc.lft.to/lastmile_qr_scan", "ios": "https://dc.lft.to/lastmile_qr_scan"}, "name": "52dfe3ddf4a2b1e6135796c2d9adf9ca", "type": "electric_scooter", "lat": 38.89915283333333, "is_disabled": 0}, {"fusion_lat": 0.0, "lon": -77.03227466666667, "is_reserved": 0, "bike_id": "956892ec00de9c1b145f98c11f72c46c", "fusion_lon": 0.0, "rental_uris": {"android": "https://dc.lft.to/lastmile_qr_scan", "ios": "https://dc.lft.to/lastmile_qr_scan"}, "name": "956892ec00de9c1b145f98c11f72c46c", "type": "electric_scooter", "lat": 38.89664916666667, "is_disabled": 0}, {"fusion_lat": 0.0, "lon": -77.032352, "is_reserved": 0, "bike_id": "3ac384d58be2ad354b7ded55fd9ba73a", "fusion_lon": 0.0, "rental_uris": {"android": "https://dc.lft.to/lastmile_qr_scan", "ios": "https://dc.lft.to/lastmile_qr_scan"}, "name": "3ac384d58be2ad354b7ded55fd9ba73a", "type": "electric_scooter", "lat": 38.91554083333333, "is_disabled": 0}, {"fusion_lat": 0.0, "lon": -76.99778433333333, "is_reserved": 0, "bike_id": "224f1dee7e5bffe7632e01b17f4d81df", "fusion_lon": 0.0, "rental_uris": {"android": "https://dc.lft.to/lastmile_qr_scan", "ios": "https://dc.lft.to/lastmile_qr_scan"}, "name": "224f1dee7e5bffe7632e01b17f4d81df", "type": "electric_scooter", "lat": 38.8443195, "is_disabled": 0}, {"fusion_lat": 0.0, "lon": -77.02594716666667, "is_reserved": 0, "bike_id": "9b531ee482b13986d98f2e2f880602b7", "fusion_lon": 0.0, "rental_uris": {"android": "https://dc.lft.to/lastmile_qr_scan", "ios": "https://dc.lft.to/lastmile_qr_scan"}, "name": "9b531ee482b13986d98f2e2f880602b7", "type": "electric_scooter", "lat": 38.9639865, "is_disabled": 0}, {"fusion_lat": 0.0, "lon": -77.03173966666667, "is_reserved": 0, "bike_id": "789fcf71067509e35aa545fc704f9100", "fusion_lon": 0.0, "rental_uris": {"android": "https://dc.lft.to/lastmile_qr_scan", "ios": "https://dc.lft.to/lastmile_qr_scan"}, "name": "789fcf71067509e35aa545fc704f9100", "type": "electric_scooter", "lat": 38.919220833333334, "is_disabled": 0}, {"fusion_lat": 0.0, "lon": -77.09064083333334, "is_reserved": 0, "bike_id": "0598c8bac2916af367f68a96ae8022bc", "fusion_lon": 0.0, "rental_uris": {"android": "https://dc.lft.to/lastmile_qr_scan", "ios": "https://dc.lft.to/lastmile_qr_scan"}, "name": "0598c8bac2916af367f68a96ae8022bc", "type": "electric_bike", "lat": 38.86266783333333, "is_disabled": 0}, {"fusion_lat": 0.0, "lon": -76.9438085, "is_reserved": 0, "bike_id": "c93c6751fcea4174e8fabcad1cec1f86", "fusion_lon": 0.0, "rental_uris": {"android": "https://dc.lft.to/lastmile_qr_scan", "ios": "https://dc.lft.to/lastmile_qr_scan"}, "name": "c93c6751fcea4174e8fabcad1cec1f86", "type": "electric_scooter", "lat": 38.89329433333333, "is_disabled": 0}, {"fusion_lat": 0.0, "lon": -76.97826816666667, "is_reserved": 0, "bike_id": "5339fa46ac8df8326be4f93d8a697917", "fusion_lon": 0.0, "rental_uris": {"android": "https://dc.lft.to/lastmile_qr_scan", "ios": "https://dc.lft.to/lastmile_qr_scan"}, "name": "5339fa46ac8df8326be4f93d8a697917", "type": "electric_bike", "lat": 38.84370366666667, "is_disabled": 0}, {"fusion_lat": 0.0, "lon": -76.97423916666666, "is_reserved": 0, "bike_id": "827eaaaa13eb14101dbc4fe770b373ad", "fusion_lon": 0.0, "rental_uris": {"android": "https://dc.lft.to/lastmile_qr_scan", "ios": "https://dc.lft.to/lastmile_qr_scan"}, "name": "827eaaaa13eb14101dbc4fe770b373ad", "type": "electric_scooter", "lat": 38.904049, "is_disabled": 0}, {"fusion_lat": 0.0, "lon": -76.9375515, "is_reserved": 0, "bike_id": "632dc8b645f4a923767dcd7826640525", "fusion_lon": 0.0, "rental_uris": {"android": "https://dc.lft.to/lastmile_qr_scan", "ios": "https://dc.lft.to/lastmile_qr_scan"}, "name": "632dc8b645f4a923767dcd7826640525", "type": "electric_scooter", "lat": 38.8904725, "is_disabled": 0}, {"fusion_lat": 0.0, "lon": -77.00009433333334, "is_reserved": 0, "bike_id": "5cc0c3c9d1c373549e934a60664535be", "fusion_lon": 0.0, "rental_uris": {"android": "https://dc.lft.to/lastmile_qr_scan", "ios": "https://dc.lft.to/lastmile_qr_scan"}, "name": "5cc0c3c9d1c373549e934a60664535be", "type": "electric_scooter", "lat": 38.893051, "is_disabled": 0}, {"fusion_lat": 0.0, "lon": -77.043542, "is_reserved": 0, "bike_id": "b846c9ad989ebb10ca779980219c0647", "fusion_lon": 0.0, "rental_uris": {"android": "https://dc.lft.to/lastmile_qr_scan", "ios": "https://dc.lft.to/lastmile_qr_scan"}, "name": "b846c9ad989ebb10ca779980219c0647", "type": "electric_scooter", "lat": 38.90730166666667, "is_disabled": 0}, {"fusion_lat": 0.0, "lon": -76.976249, "is_reserved": 0, "bike_id": "9f83f343d15ba7ce76d11ab8651a0591", "fusion_lon": 0.0, "rental_uris": {"android": "https://dc.lft.to/lastmile_qr_scan", "ios": "https://dc.lft.to/lastmile_qr_scan"}, "name": "9f83f343d15ba7ce76d11ab8651a0591", "type": "electric_scooter", "lat": 38.905731, "is_disabled": 0}, {"fusion_lat": 0.0, "lon": -77.0750635, "is_reserved": 0, "bike_id": "ad9ded27e5a5107d909351eb897d90ed", "fusion_lon": 0.0, "rental_uris": {"android": "https://dc.lft.to/lastmile_qr_scan", "ios": "https://dc.lft.to/lastmile_qr_scan"}, "name": "ad9ded27e5a5107d909351eb897d90ed", "type": "electric_scooter", "lat": 38.894780833333336, "is_disabled": 0}, {"fusion_lat": 0.0, "lon": -77.03260033333333, "is_reserved": 0, "bike_id": "d421fa5246554737b2590371ef9daea6", "fusion_lon": 0.0, "rental_uris": {"android": "https://dc.lft.to/lastmile_qr_scan", "ios": "https://dc.lft.to/lastmile_qr_scan"}, "name": "d421fa5246554737b2590371ef9daea6", "type": "electric_scooter", "lat": 38.902844, "is_disabled": 0}, {"fusion_lat": 0.0, "lon": -77.02592433333334, "is_reserved": 0, "bike_id": "71720738607a01fda8f829621f5c21b7", "fusion_lon": 0.0, "rental_uris": {"android": "https://dc.lft.to/lastmile_qr_scan", "ios": "https://dc.lft.to/lastmile_qr_scan"}, "name": "71720738607a01fda8f829621f5c21b7", "type": "electric_scooter", "lat": 38.907517, "is_disabled": 0}, {"fusion_lat": 0.0, "lon": -77.03328783333333, "is_reserved": 0, "bike_id": "bb158ab12665bda770908c3da4e2e5de", "fusion_lon": 0.0, "rental_uris": {"android": "https://dc.lft.to/lastmile_qr_scan", "ios": "https://dc.lft.to/lastmile_qr_scan"}, "name": "bb158ab12665bda770908c3da4e2e5de", "type": "electric_scooter", "lat": 38.89846216666667, "is_disabled": 0}, {"fusion_lat": 0.0, "lon": -77.1252585, "is_reserved": 0, "bike_id": "1add997c791cba5f25e4f95ad81837e2", "fusion_lon": 0.0, "rental_uris": {"android": "https://dc.lft.to/lastmile_qr_scan", "ios": "https://dc.lft.to/lastmile_qr_scan"}, "name": "1add997c791cba5f25e4f95ad81837e2", "type": "electric_bike", "lat": 39.05638233333333, "is_disabled": 0}, {"fusion_lat": 0.0, "lon": -77.05110483333333, "is_reserved": 0, "bike_id": "41cf2758e890ad4f960028da3458ff41", "fusion_lon": 0.0, "rental_uris": {"android": "https://dc.lft.to/lastmile_qr_scan", "ios": "https://dc.lft.to/lastmile_qr_scan"}, "name": "41cf2758e890ad4f960028da3458ff41", "type": "electric_scooter", "lat": 38.92341666666667, "is_disabled": 0}, {"fusion_lat": 0.0, "lon": -77.02163483333334, "is_reserved": 0, "bike_id": "7d938244a886b6d17b2bbdb0db628085", "fusion_lon": 0.0, "rental_uris": {"android": "https://dc.lft.to/lastmile_qr_scan", "ios": "https://dc.lft.to/lastmile_qr_scan"}, "name": "7d938244a886b6d17b2bbdb0db628085", "type": "electric_scooter", "lat": 38.926134833333336, "is_disabled": 0}, {"fusion_lat": 0.0, "lon": -77.03242666666667, "is_reserved": 0, "bike_id": "15e4b1d89a9257771fe5db8b268cd99b", "fusion_lon": 0.0, "rental_uris": {"android": "https://dc.lft.to/lastmile_qr_scan", "ios": "https://dc.lft.to/lastmile_qr_scan"}, "name": "15e4b1d89a9257771fe5db8b268cd99b", "type": "electric_scooter", "lat": 38.909741, "is_disabled": 0}, {"fusion_lat": 0.0, "lon": -76.98547183333334, "is_reserved": 0, "bike_id": "4e3f87fa6140a3096dd1f8214e02a8c0", "fusion_lon": 0.0, "rental_uris": {"android": "https://dc.lft.to/lastmile_qr_scan", "ios": "https://dc.lft.to/lastmile_qr_scan"}, "name": "4e3f87fa6140a3096dd1f8214e02a8c0", "type": "electric_scooter", "lat": 38.9102955, "is_disabled": 0}, {"fusion_lat": 0.0, "lon": -77.04995033333333, "is_reserved": 0, "bike_id": "ccc30039b4b6131537af13f117948454", "fusion_lon": 0.0, "rental_uris": {"android": "https://dc.lft.to/lastmile_qr_scan", "ios": "https://dc.lft.to/lastmile_qr_scan"}, "name": "ccc30039b4b6131537af13f117948454", "type": "electric_scooter", "lat": 38.897278, "is_disabled": 0}, {"fusion_lat": 0.0, "lon": -76.991508, "is_reserved": 0, "bike_id": "84e2632973678e3f487ed8f72c0683d1", "fusion_lon": 0.0, "rental_uris": {"android": "https://dc.lft.to/lastmile_qr_scan", "ios": "https://dc.lft.to/lastmile_qr_scan"}, "name": "84e2632973678e3f487ed8f72c0683d1", "type": "electric_scooter", "lat": 38.90125483333333, "is_disabled": 0}, {"fusion_lat": 0.0, "lon": -77.02391766666666, "is_reserved": 0, "bike_id": "dac3e1c8725d6077e46b7f4c2fd4d0e9", "fusion_lon": 0.0, "rental_uris": {"android": "https://dc.lft.to/lastmile_qr_scan", "ios": "https://dc.lft.to/lastmile_qr_scan"}, "name": "dac3e1c8725d6077e46b7f4c2fd4d0e9", "type": "electric_scooter", "lat": 38.91529516666667, "is_disabled": 0}, {"fusion_lat": 0.0, "lon": -77.0331085, "is_reserved": 0, "bike_id": "cc7862978ae8181bde62ea2ea08976fe", "fusion_lon": 0.0, "rental_uris": {"android": "https://dc.lft.to/lastmile_qr_scan", "ios": "https://dc.lft.to/lastmile_qr_scan"}, "name": "cc7862978ae8181bde62ea2ea08976fe", "type": "electric_scooter", "lat": 38.956175, "is_disabled": 0}, {"fusion_lat": 0.0, "lon": -76.98957566666667, "is_reserved": 0, "bike_id": "60f57ca5ed3149c9deaf2b72bdc8532e", "fusion_lon": 0.0, "rental_uris": {"android": "https://dc.lft.to/lastmile_qr_scan", "ios": "https://dc.lft.to/lastmile_qr_scan"}, "name": "60f57ca5ed3149c9deaf2b72bdc8532e", "type": "electric_scooter", "lat": 38.90028316666667, "is_disabled": 0}, {"fusion_lat": 0.0, "lon": -77.04323816666667, "is_reserved": 0, "bike_id": "c5db17ce8f98e05b77082b950002636d", "fusion_lon": 0.0, "rental_uris": {"android": "https://dc.lft.to/lastmile_qr_scan", "ios": "https://dc.lft.to/lastmile_qr_scan"}, "name": "c5db17ce8f98e05b77082b950002636d", "type": "electric_scooter", "lat": 38.89224633333333, "is_disabled": 0}, {"fusion_lat": 0.0, "lon": -77.07698716666667, "is_reserved": 0, "bike_id": "0918377370bdd6deeaffc0f253bb4409", "fusion_lon": 0.0, "rental_uris": {"android": "https://dc.lft.to/lastmile_qr_scan", "ios": "https://dc.lft.to/lastmile_qr_scan"}, "name": "0918377370bdd6deeaffc0f253bb4409", "type": "electric_bike", "lat": 38.840943333333335, "is_disabled": 0}, {"fusion_lat": 0.0, "lon": -77.04348416666667, "is_reserved": 0, "bike_id": "4287a70cf80cace6537c6311efa6ef89", "fusion_lon": 0.0, "rental_uris": {"android": "https://dc.lft.to/lastmile_qr_scan", "ios": "https://dc.lft.to/lastmile_qr_scan"}, "name": "4287a70cf80cace6537c6311efa6ef89", "type": "electric_scooter", "lat": 38.903442, "is_disabled": 0}, {"fusion_lat": 0.0, "lon": -77.03004266666667, "is_reserved": 0, "bike_id": "fc2bbb54e73417068e393f5dfd3dcc8e", "fusion_lon": 0.0, "rental_uris": {"android": "https://dc.lft.to/lastmile_qr_scan", "ios": "https://dc.lft.to/lastmile_qr_scan"}, "name": "fc2bbb54e73417068e393f5dfd3dcc8e", "type": "electric_scooter", "lat": 38.92040933333333, "is_disabled": 0}, {"fusion_lat": 0.0, "lon": -76.99936283333334, "is_reserved": 0, "bike_id": "8489ce04143922d07bce9e1638789b03", "fusion_lon": 0.0, "rental_uris": {"android": "https://dc.lft.to/lastmile_qr_scan", "ios": "https://dc.lft.to/lastmile_qr_scan"}, "name": "8489ce04143922d07bce9e1638789b03", "type": "electric_scooter", "lat": 38.9075785, "is_disabled": 0}, {"fusion_lat": 0.0, "lon": -77.04342333333334, "is_reserved": 0, "bike_id": "19034826e444da0f0426f2286eddbc81", "fusion_lon": 0.0, "rental_uris": {"android": "https://dc.lft.to/lastmile_qr_scan", "ios": "https://dc.lft.to/lastmile_qr_scan"}, "name": "19034826e444da0f0426f2286eddbc81", "type": "electric_scooter", "lat": 38.907565, "is_disabled": 0}, {"fusion_lat": 0.0, "lon": -76.97640333333334, "is_reserved": 0, "bike_id": "16621fcfdf56c5c0f86b112af1f6063f", "fusion_lon": 0.0, "rental_uris": {"android": "https://dc.lft.to/lastmile_qr_scan", "ios": "https://dc.lft.to/lastmile_qr_scan"}, "name": "16621fcfdf56c5c0f86b112af1f6063f", "type": "electric_scooter", "lat": 38.8646225, "is_disabled": 0}, {"fusion_lat": 0.0, "lon": -76.995102, "is_reserved": 0, "bike_id": "9ef9e5c988539e32dfaea70dc57862f9", "fusion_lon": 0.0, "rental_uris": {"android": "https://dc.lft.to/lastmile_qr_scan", "ios": "https://dc.lft.to/lastmile_qr_scan"}, "name": "9ef9e5c988539e32dfaea70dc57862f9", "type": "electric_scooter", "lat": 38.897301, "is_disabled": 0}, {"fusion_lat": 0.0, "lon": -77.03174116666666, "is_reserved": 0, "bike_id": "d131a6bea4bb131eacaa682bfcd00d40", "fusion_lon": 0.0, "rental_uris": {"android": "https://dc.lft.to/lastmile_qr_scan", "ios": "https://dc.lft.to/lastmile_qr_scan"}, "name": "d131a6bea4bb131eacaa682bfcd00d40", "type": "electric_scooter", "lat": 38.918077833333335, "is_disabled": 0}, {"fusion_lat": 0.0, "lon": -77.00928116666667, "is_reserved": 0, "bike_id": "15357d46899e17202e7f49b965410df7", "fusion_lon": 0.0, "rental_uris": {"android": "https://dc.lft.to/lastmile_qr_scan", "ios": "https://dc.lft.to/lastmile_qr_scan"}, "name": "15357d46899e17202e7f49b965410df7", "type": "electric_scooter", "lat": 38.89612566666667, "is_disabled": 0}, {"fusion_lat": 0.0, "lon": -77.03703833333333, "is_reserved": 0, "bike_id": "b52fe7715b0d69930668b49656434fb2", "fusion_lon": 0.0, "rental_uris": {"android": "https://dc.lft.to/lastmile_qr_scan", "ios": "https://dc.lft.to/lastmile_qr_scan"}, "name": "b52fe7715b0d69930668b49656434fb2", "type": "electric_scooter", "lat": 38.926376, "is_disabled": 0}, {"fusion_lat": 0.0, "lon": -77.0437755, "is_reserved": 0, "bike_id": "0eada8dfbfcb36ac1886e3a9c5885320", "fusion_lon": 0.0, "rental_uris": {"android": "https://dc.lft.to/lastmile_qr_scan", "ios": "https://dc.lft.to/lastmile_qr_scan"}, "name": "0eada8dfbfcb36ac1886e3a9c5885320", "type": "electric_scooter", "lat": 38.91123483333333, "is_disabled": 0}, {"fusion_lat": 0.0, "lon": -76.995069, "is_reserved": 0, "bike_id": "2458a6831a8e10737dff38fbaf19ef78", "fusion_lon": 0.0, "rental_uris": {"android": "https://dc.lft.to/lastmile_qr_scan", "ios": "https://dc.lft.to/lastmile_qr_scan"}, "name": "2458a6831a8e10737dff38fbaf19ef78", "type": "electric_scooter", "lat": 38.88264083333333, "is_disabled": 0}, {"fusion_lat": 0.0, "lon": -77.05319383333334, "is_reserved": 0, "bike_id": "cb4c9b808336f1a4049eae92fad071cf", "fusion_lon": 0.0, "rental_uris": {"android": "https://dc.lft.to/lastmile_qr_scan", "ios": "https://dc.lft.to/lastmile_qr_scan"}, "name": "cb4c9b808336f1a4049eae92fad071cf", "type": "electric_scooter", "lat": 38.915576, "is_disabled": 0}, {"fusion_lat": 0.0, "lon": -77.0486695, "is_reserved": 0, "bike_id": "35145edd6008893a974e14b917788de7", "fusion_lon": 0.0, "rental_uris": {"android": "https://dc.lft.to/lastmile_qr_scan", "ios": "https://dc.lft.to/lastmile_qr_scan"}, "name": "35145edd6008893a974e14b917788de7", "type": "electric_scooter", "lat": 38.89224883333333, "is_disabled": 0}, {"fusion_lat": 0.0, "lon": -77.00574, "is_reserved": 0, "bike_id": "ac984c9e2e2e02f3b99998d2169fbe81", "fusion_lon": 0.0, "rental_uris": {"android": "https://dc.lft.to/lastmile_qr_scan", "ios": "https://dc.lft.to/lastmile_qr_scan"}, "name": "ac984c9e2e2e02f3b99998d2169fbe81", "type": "electric_scooter", "lat": 38.905730166666665, "is_disabled": 0}, {"fusion_lat": 0.0, "lon": -77.03076733333333, "is_reserved": 0, "bike_id": "f205459b81bf6ae7234fa7630606e014", "fusion_lon": 0.0, "rental_uris": {"android": "https://dc.lft.to/lastmile_qr_scan", "ios": "https://dc.lft.to/lastmile_qr_scan"}, "name": "f205459b81bf6ae7234fa7630606e014", "type": "electric_scooter", "lat": 38.917443, "is_disabled": 0}, {"fusion_lat": 0.0, "lon": -77.02236866666667, "is_reserved": 0, "bike_id": "c69e160255e51db53f2fd480bf9688f4", "fusion_lon": 0.0, "rental_uris": {"android": "https://dc.lft.to/lastmile_qr_scan", "ios": "https://dc.lft.to/lastmile_qr_scan"}, "name": "c69e160255e51db53f2fd480bf9688f4", "type": "electric_bike", "lat": 38.956827, "is_disabled": 0}, {"fusion_lat": 0.0, "lon": -77.05037366666667, "is_reserved": 0, "bike_id": "f1de4b8ef8d47762eeff10bfafd11cd5", "fusion_lon": 0.0, "rental_uris": {"android": "https://dc.lft.to/lastmile_qr_scan", "ios": "https://dc.lft.to/lastmile_qr_scan"}, "name": "f1de4b8ef8d47762eeff10bfafd11cd5", "type": "electric_scooter", "lat": 38.92373283333333, "is_disabled": 0}, {"fusion_lat": 0.0, "lon": -77.00583083333333, "is_reserved": 0, "bike_id": "79e555abe24f5f350dadd5b5c2fa7366", "fusion_lon": 0.0, "rental_uris": {"android": "https://dc.lft.to/lastmile_qr_scan", "ios": "https://dc.lft.to/lastmile_qr_scan"}, "name": "79e555abe24f5f350dadd5b5c2fa7366", "type": "electric_scooter", "lat": 38.905602, "is_disabled": 0}, {"fusion_lat": 0.0, "lon": -76.99387416666667, "is_reserved": 0, "bike_id": "960ff8455ab791d76f260cec688c55da", "fusion_lon": 0.0, "rental_uris": {"android": "https://dc.lft.to/lastmile_qr_scan", "ios": "https://dc.lft.to/lastmile_qr_scan"}, "name": "960ff8455ab791d76f260cec688c55da", "type": "electric_scooter", "lat": 38.89730633333333, "is_disabled": 0}, {"fusion_lat": 0.0, "lon": -76.99829533333333, "is_reserved": 0, "bike_id": "b39a21d7dc85035ab374f786f98f758c", "fusion_lon": 0.0, "rental_uris": {"android": "https://dc.lft.to/lastmile_qr_scan", "ios": "https://dc.lft.to/lastmile_qr_scan"}, "name": "b39a21d7dc85035ab374f786f98f758c", "type": "electric_scooter", "lat": 38.90859833333333, "is_disabled": 0}, {"fusion_lat": 0.0, "lon": -76.92754183333334, "is_reserved": 0, "bike_id": "f34b60a4b639b06cf8bd61533431c1e6", "fusion_lon": 0.0, "rental_uris": {"android": "https://dc.lft.to/lastmile_qr_scan", "ios": "https://dc.lft.to/lastmile_qr_scan"}, "name": "f34b60a4b639b06cf8bd61533431c1e6", "type": "electric_scooter", "lat": 38.880671, "is_disabled": 0}, {"fusion_lat": 0.0, "lon": -77.02384416666666, "is_reserved": 0, "bike_id": "c04f0476dfdaf1a612b6270d0c939ac4", "fusion_lon": 0.0, "rental_uris": {"android": "https://dc.lft.to/lastmile_qr_scan", "ios": "https://dc.lft.to/lastmile_qr_scan"}, "name": "c04f0476dfdaf1a612b6270d0c939ac4", "type": "electric_scooter", "lat": 38.907431333333335, "is_disabled": 0}, {"fusion_lat": 0.0, "lon": -77.10328333333334, "is_reserved": 0, "bike_id": "77040cbd1e60f9d8fe702f2ad0f8b901", "fusion_lon": 0.0, "rental_uris": {"android": "https://dc.lft.to/lastmile_qr_scan", "ios": "https://dc.lft.to/lastmile_qr_scan"}, "name": "77040cbd1e60f9d8fe702f2ad0f8b901", "type": "electric_bike", "lat": 38.874208333333335, "is_disabled": 0}, {"fusion_lat": 0.0, "lon": -77.00390216666666, "is_reserved": 0, "bike_id": "aa0a02c7c5ab382b7f935927ed94eb63", "fusion_lon": 0.0, "rental_uris": {"android": "https://dc.lft.to/lastmile_qr_scan", "ios": "https://dc.lft.to/lastmile_qr_scan"}, "name": "aa0a02c7c5ab382b7f935927ed94eb63", "type": "electric_scooter", "lat": 38.90573, "is_disabled": 0}, {"fusion_lat": 0.0, "lon": -77.0078335, "is_reserved": 0, "bike_id": "f1e60b5a02ca406f62d24ec2c9e13683", "fusion_lon": 0.0, "rental_uris": {"android": "https://dc.lft.to/lastmile_qr_scan", "ios": "https://dc.lft.to/lastmile_qr_scan"}, "name": "f1e60b5a02ca406f62d24ec2c9e13683", "type": "electric_scooter", "lat": 38.906559666666666, "is_disabled": 0}, {"fusion_lat": 0.0, "lon": -76.9877765, "is_reserved": 0, "bike_id": "92ee80c8e0ef8ef0405ee4173f42aaa3", "fusion_lon": 0.0, "rental_uris": {"android": "https://dc.lft.to/lastmile_qr_scan", "ios": "https://dc.lft.to/lastmile_qr_scan"}, "name": "92ee80c8e0ef8ef0405ee4173f42aaa3", "type": "electric_scooter", "lat": 38.84468416666667, "is_disabled": 0}, {"fusion_lat": 0.0, "lon": -77.03480483333334, "is_reserved": 0, "bike_id": "a572ac93d6c55d6b46592c2ee362c38b", "fusion_lon": 0.0, "rental_uris": {"android": "https://dc.lft.to/lastmile_qr_scan", "ios": "https://dc.lft.to/lastmile_qr_scan"}, "name": "a572ac93d6c55d6b46592c2ee362c38b", "type": "electric_scooter", "lat": 38.92480316666666, "is_disabled": 0}, {"fusion_lat": 0.0, "lon": -77.04356083333333, "is_reserved": 0, "bike_id": "2862f7105f38dcef491ea9e8769f9c4b", "fusion_lon": 0.0, "rental_uris": {"android": "https://dc.lft.to/lastmile_qr_scan", "ios": "https://dc.lft.to/lastmile_qr_scan"}, "name": "2862f7105f38dcef491ea9e8769f9c4b", "type": "electric_scooter", "lat": 38.90731233333333, "is_disabled": 0}, {"fusion_lat": 0.0, "lon": -77.01623916666667, "is_reserved": 0, "bike_id": "96d71565d3f22171e9b9301ced163069", "fusion_lon": 0.0, "rental_uris": {"android": "https://dc.lft.to/lastmile_qr_scan", "ios": "https://dc.lft.to/lastmile_qr_scan"}, "name": "96d71565d3f22171e9b9301ced163069", "type": "electric_scooter", "lat": 38.89946233333333, "is_disabled": 0}, {"fusion_lat": 0.0, "lon": -77.03408183333333, "is_reserved": 0, "bike_id": "b43a38366b6f616aa756aa27ce816754", "fusion_lon": 0.0, "rental_uris": {"android": "https://dc.lft.to/lastmile_qr_scan", "ios": "https://dc.lft.to/lastmile_qr_scan"}, "name": "b43a38366b6f616aa756aa27ce816754", "type": "electric_scooter", "lat": 38.9231185, "is_disabled": 0}, {"fusion_lat": 0.0, "lon": -77.02397183333333, "is_reserved": 0, "bike_id": "a6bcc65f3c7008cdf462a107c60547f2", "fusion_lon": 0.0, "rental_uris": {"android": "https://dc.lft.to/lastmile_qr_scan", "ios": "https://dc.lft.to/lastmile_qr_scan"}, "name": "a6bcc65f3c7008cdf462a107c60547f2", "type": "electric_scooter", "lat": 38.9570925, "is_disabled": 0}, {"fusion_lat": 0.0, "lon": -77.01306616666666, "is_reserved": 0, "bike_id": "e6871377a3f9bbd8e98d7dc3dc878b74", "fusion_lon": 0.0, "rental_uris": {"android": "https://dc.lft.to/lastmile_qr_scan", "ios": "https://dc.lft.to/lastmile_qr_scan"}, "name": "e6871377a3f9bbd8e98d7dc3dc878b74", "type": "electric_scooter", "lat": 38.91035333333333, "is_disabled": 0}, {"fusion_lat": 0.0, "lon": -77.03015983333333, "is_reserved": 0, "bike_id": "5726142332d3729e8b4eeb77179af200", "fusion_lon": 0.0, "rental_uris": {"android": "https://dc.lft.to/lastmile_qr_scan", "ios": "https://dc.lft.to/lastmile_qr_scan"}, "name": "5726142332d3729e8b4eeb77179af200", "type": "electric_scooter", "lat": 38.91565666666666, "is_disabled": 0}, {"fusion_lat": 0.0, "lon": -77.02117316666667, "is_reserved": 0, "bike_id": "c9d52df084ccbeed2d5c19d5491b93d5", "fusion_lon": 0.0, "rental_uris": {"android": "https://dc.lft.to/lastmile_qr_scan", "ios": "https://dc.lft.to/lastmile_qr_scan"}, "name": "c9d52df084ccbeed2d5c19d5491b93d5", "type": "electric_scooter", "lat": 38.8946365, "is_disabled": 0}, {"fusion_lat": 0.0, "lon": -77.00122083333333, "is_reserved": 0, "bike_id": "07c6df65edfe4c9c707d304bd735abf2", "fusion_lon": 0.0, "rental_uris": {"android": "https://dc.lft.to/lastmile_qr_scan", "ios": "https://dc.lft.to/lastmile_qr_scan"}, "name": "07c6df65edfe4c9c707d304bd735abf2", "type": "electric_scooter", "lat": 38.905071666666664, "is_disabled": 0}, {"fusion_lat": 0.0, "lon": -76.99859316666667, "is_reserved": 0, "bike_id": "a32dbfe2d11827be0e818f9f1d1fce1d", "fusion_lon": 0.0, "rental_uris": {"android": "https://dc.lft.to/lastmile_qr_scan", "ios": "https://dc.lft.to/lastmile_qr_scan"}, "name": "a32dbfe2d11827be0e818f9f1d1fce1d", "type": "electric_scooter", "lat": 38.894167, "is_disabled": 0}, {"fusion_lat": 0.0, "lon": -76.99013383333333, "is_reserved": 0, "bike_id": "737b5c056234a00f31cb828c46881225", "fusion_lon": 0.0, "rental_uris": {"android": "https://dc.lft.to/lastmile_qr_scan", "ios": "https://dc.lft.to/lastmile_qr_scan"}, "name": "737b5c056234a00f31cb828c46881225", "type": "electric_scooter", "lat": 38.946042166666665, "is_disabled": 0}, {"fusion_lat": 0.0, "lon": -76.94621383333333, "is_reserved": 0, "bike_id": "6390ec3781d87ca8c998219f5f84cde6", "fusion_lon": 0.0, "rental_uris": {"android": "https://dc.lft.to/lastmile_qr_scan", "ios": "https://dc.lft.to/lastmile_qr_scan"}, "name": "6390ec3781d87ca8c998219f5f84cde6", "type": "electric_bike", "lat": 38.83235, "is_disabled": 0}, {"fusion_lat": 0.0, "lon": -77.024562, "is_reserved": 0, "bike_id": "3aa19eb685459e9eef344edef22143dc", "fusion_lon": 0.0, "rental_uris": {"android": "https://dc.lft.to/lastmile_qr_scan", "ios": "https://dc.lft.to/lastmile_qr_scan"}, "name": "3aa19eb685459e9eef344edef22143dc", "type": "electric_scooter", "lat": 38.89740616666667, "is_disabled": 0}, {"fusion_lat": 0.0, "lon": -77.0432515, "is_reserved": 0, "bike_id": "08d43c77cbdff6391b5f90c218c8228f", "fusion_lon": 0.0, "rental_uris": {"android": "https://dc.lft.to/lastmile_qr_scan", "ios": "https://dc.lft.to/lastmile_qr_scan"}, "name": "08d43c77cbdff6391b5f90c218c8228f", "type": "electric_scooter", "lat": 38.89223, "is_disabled": 0}, {"fusion_lat": 0.0, "lon": -77.03038266666667, "is_reserved": 0, "bike_id": "cf7800daa3612877a4a4c460fd7e4df2", "fusion_lon": 0.0, "rental_uris": {"android": "https://dc.lft.to/lastmile_qr_scan", "ios": "https://dc.lft.to/lastmile_qr_scan"}, "name": "cf7800daa3612877a4a4c460fd7e4df2", "type": "electric_scooter", "lat": 38.898246, "is_disabled": 0}, {"fusion_lat": 0.0, "lon": -76.93763116666666, "is_reserved": 0, "bike_id": "fc1c85e75461e4e11fe5967e70fc6f22", "fusion_lon": 0.0, "rental_uris": {"android": "https://dc.lft.to/lastmile_qr_scan", "ios": "https://dc.lft.to/lastmile_qr_scan"}, "name": "fc1c85e75461e4e11fe5967e70fc6f22", "type": "electric_scooter", "lat": 38.878608, "is_disabled": 0}, {"fusion_lat": 0.0, "lon": -77.04982633333333, "is_reserved": 0, "bike_id": "8ddd42a57cfb2a31d33d6dfeb38ade74", "fusion_lon": 0.0, "rental_uris": {"android": "https://dc.lft.to/lastmile_qr_scan", "ios": "https://dc.lft.to/lastmile_qr_scan"}, "name": "8ddd42a57cfb2a31d33d6dfeb38ade74", "type": "electric_bike", "lat": 39.06297983333333, "is_disabled": 0}, {"fusion_lat": 0.0, "lon": -76.942515, "is_reserved": 0, "bike_id": "dcd78aa82fdb6a29956ae102f39d5ba2", "fusion_lon": 0.0, "rental_uris": {"android": "https://dc.lft.to/lastmile_qr_scan", "ios": "https://dc.lft.to/lastmile_qr_scan"}, "name": "dcd78aa82fdb6a29956ae102f39d5ba2", "type": "electric_scooter", "lat": 38.8967, "is_disabled": 0}, {"fusion_lat": 0.0, "lon": -77.0329485, "is_reserved": 0, "bike_id": "c2e1d8929dc48a2f6e161b42cbcf2980", "fusion_lon": 0.0, "rental_uris": {"android": "https://dc.lft.to/lastmile_qr_scan", "ios": "https://dc.lft.to/lastmile_qr_scan"}, "name": "c2e1d8929dc48a2f6e161b42cbcf2980", "type": "electric_scooter", "lat": 38.956363333333336, "is_disabled": 0}, {"fusion_lat": 0.0, "lon": -77.042674, "is_reserved": 0, "bike_id": "ea13f02b9d13ad90040a087ea3162bd2", "fusion_lon": 0.0, "rental_uris": {"android": "https://dc.lft.to/lastmile_qr_scan", "ios": "https://dc.lft.to/lastmile_qr_scan"}, "name": "ea13f02b9d13ad90040a087ea3162bd2", "type": "electric_scooter", "lat": 38.9133945, "is_disabled": 0}, {"fusion_lat": 0.0, "lon": -77.00615516666667, "is_reserved": 0, "bike_id": "3fce97ad4837c042d4b163f91c976907", "fusion_lon": 0.0, "rental_uris": {"android": "https://dc.lft.to/lastmile_qr_scan", "ios": "https://dc.lft.to/lastmile_qr_scan"}, "name": "3fce97ad4837c042d4b163f91c976907", "type": "electric_scooter", "lat": 38.90857916666667, "is_disabled": 0}, {"fusion_lat": 0.0, "lon": -77.0447765, "is_reserved": 0, "bike_id": "d7dd28ab4be8344b5df12f4da69b4c3b", "fusion_lon": 0.0, "rental_uris": {"android": "https://dc.lft.to/lastmile_qr_scan", "ios": "https://dc.lft.to/lastmile_qr_scan"}, "name": "d7dd28ab4be8344b5df12f4da69b4c3b", "type": "electric_scooter", "lat": 38.903742333333334, "is_disabled": 0}, {"fusion_lat": 0.0, "lon": -77.04245283333333, "is_reserved": 0, "bike_id": "88e2b338c033021df822ecdc227d5397", "fusion_lon": 0.0, "rental_uris": {"android": "https://dc.lft.to/lastmile_qr_scan", "ios": "https://dc.lft.to/lastmile_qr_scan"}, "name": "88e2b338c033021df822ecdc227d5397", "type": "electric_scooter", "lat": 38.92235866666667, "is_disabled": 0}, {"fusion_lat": 0.0, "lon": -77.03218183333334, "is_reserved": 0, "bike_id": "0bab95477596bd25470959e46283cc74", "fusion_lon": 0.0, "rental_uris": {"android": "https://dc.lft.to/lastmile_qr_scan", "ios": "https://dc.lft.to/lastmile_qr_scan"}, "name": "0bab95477596bd25470959e46283cc74", "type": "electric_scooter", "lat": 38.8922795, "is_disabled": 0}, {"fusion_lat": 0.0, "lon": -77.034714, "is_reserved": 0, "bike_id": "ff9a1d4410e6eb0adfb8e783e35938e6", "fusion_lon": 0.0, "rental_uris": {"android": "https://dc.lft.to/lastmile_qr_scan", "ios": "https://dc.lft.to/lastmile_qr_scan"}, "name": "ff9a1d4410e6eb0adfb8e783e35938e6", "type": "electric_scooter", "lat": 38.92064583333333, "is_disabled": 0}, {"fusion_lat": 0.0, "lon": -76.93262483333334, "is_reserved": 0, "bike_id": "91f7120aadc5cd683a2b52913a36d699", "fusion_lon": 0.0, "rental_uris": {"android": "https://dc.lft.to/lastmile_qr_scan", "ios": "https://dc.lft.to/lastmile_qr_scan"}, "name": "91f7120aadc5cd683a2b52913a36d699", "type": "electric_scooter", "lat": 38.898906, "is_disabled": 0}, {"fusion_lat": 0.0, "lon": -76.9912445, "is_reserved": 0, "bike_id": "134d8122333e64a62838bce775b972e6", "fusion_lon": 0.0, "rental_uris": {"android": "https://dc.lft.to/lastmile_qr_scan", "ios": "https://dc.lft.to/lastmile_qr_scan"}, "name": "134d8122333e64a62838bce775b972e6", "type": "electric_scooter", "lat": 38.86205116666667, "is_disabled": 0}, {"fusion_lat": 0.0, "lon": -76.99467933333334, "is_reserved": 0, "bike_id": "d79ca6ff6ecbda4dc18a6e20059368f3", "fusion_lon": 0.0, "rental_uris": {"android": "https://dc.lft.to/lastmile_qr_scan", "ios": "https://dc.lft.to/lastmile_qr_scan"}, "name": "d79ca6ff6ecbda4dc18a6e20059368f3", "type": "electric_scooter", "lat": 38.862250333333336, "is_disabled": 0}, {"fusion_lat": 0.0, "lon": -77.028356, "is_reserved": 0, "bike_id": "277c885ac41f19a3e4e9a9963f9e1182", "fusion_lon": 0.0, "rental_uris": {"android": "https://dc.lft.to/lastmile_qr_scan", "ios": "https://dc.lft.to/lastmile_qr_scan"}, "name": "277c885ac41f19a3e4e9a9963f9e1182", "type": "electric_scooter", "lat": 38.92860566666667, "is_disabled": 0}, {"fusion_lat": 0.0, "lon": -77.0514715, "is_reserved": 0, "bike_id": "0c42a5383af34f117fa8d1392ada8d4c", "fusion_lon": 0.0, "rental_uris": {"android": "https://dc.lft.to/lastmile_qr_scan", "ios": "https://dc.lft.to/lastmile_qr_scan"}, "name": "0c42a5383af34f117fa8d1392ada8d4c", "type": "electric_scooter", "lat": 38.90547933333333, "is_disabled": 0}, {"fusion_lat": 0.0, "lon": -77.04108533333333, "is_reserved": 0, "bike_id": "43aefedd6068095117c05777471f3af3", "fusion_lon": 0.0, "rental_uris": {"android": "https://dc.lft.to/lastmile_qr_scan", "ios": "https://dc.lft.to/lastmile_qr_scan"}, "name": "43aefedd6068095117c05777471f3af3", "type": "electric_scooter", "lat": 38.91263166666667, "is_disabled": 0}, {"fusion_lat": 0.0, "lon": -77.04029066666666, "is_reserved": 0, "bike_id": "f86ab5b701f1e7b38639c2e6bff62552", "fusion_lon": 0.0, "rental_uris": {"android": "https://dc.lft.to/lastmile_qr_scan", "ios": "https://dc.lft.to/lastmile_qr_scan"}, "name": "f86ab5b701f1e7b38639c2e6bff62552", "type": "electric_scooter", "lat": 38.900226333333336, "is_disabled": 0}, {"fusion_lat": 0.0, "lon": -77.026747, "is_reserved": 0, "bike_id": "ce599b39411ff3a0f6a265d5535b65ce", "fusion_lon": 0.0, "rental_uris": {"android": "https://dc.lft.to/lastmile_qr_scan", "ios": "https://dc.lft.to/lastmile_qr_scan"}, "name": "ce599b39411ff3a0f6a265d5535b65ce", "type": "electric_scooter", "lat": 38.9843425, "is_disabled": 0}, {"fusion_lat": 0.0, "lon": -76.98429616666667, "is_reserved": 0, "bike_id": "6434dcc05973fa3ede4d6d9f038149d2", "fusion_lon": 0.0, "rental_uris": {"android": "https://dc.lft.to/lastmile_qr_scan", "ios": "https://dc.lft.to/lastmile_qr_scan"}, "name": "6434dcc05973fa3ede4d6d9f038149d2", "type": "electric_bike", "lat": 38.855197, "is_disabled": 0}, {"fusion_lat": 0.0, "lon": -77.04345433333333, "is_reserved": 0, "bike_id": "ee347741d470221b7ee79652b7d3ac83", "fusion_lon": 0.0, "rental_uris": {"android": "https://dc.lft.to/lastmile_qr_scan", "ios": "https://dc.lft.to/lastmile_qr_scan"}, "name": "ee347741d470221b7ee79652b7d3ac83", "type": "electric_scooter", "lat": 38.904329833333335, "is_disabled": 0}, {"fusion_lat": 0.0, "lon": -77.01210433333334, "is_reserved": 0, "bike_id": "1c1da3129450efbbd2bac376cf446482", "fusion_lon": 0.0, "rental_uris": {"android": "https://dc.lft.to/lastmile_qr_scan", "ios": "https://dc.lft.to/lastmile_qr_scan"}, "name": "1c1da3129450efbbd2bac376cf446482", "type": "electric_scooter", "lat": 38.918346166666666, "is_disabled": 0},