{"data": {"bikes": [{"rental_uris": {"ios": "https://dc.lft.to/lastmile_qr_scan", "android": "https://dc.lft.to/lastmile_qr_scan"}, "is_reserved": 0, "fusion_lat": 0.0, "type": "electric_scooter", "bike_id": "279db527d8acb7ce63893c8098f0b17f", "is_disabled": 0, "lon": -77.0505075, "fusion_lon": 0.0, "name": "279db527d8acb7ce63893c8098f0b17f", "lat": 38.923675333333335}, {"rental_uris": {"ios": "https://dc.lft.to/lastmile_qr_scan", "android": "https://dc.lft.to/lastmile_qr_scan"}, "is_reserved": 0, "fusion_lat": 0.0, "type": "electric_scooter", "bike_id": "f20ae8ae835a67072629f3822a873ff1", "is_disabled": 0, "lon": -77.04042533333333, "fusion_lon": 0.0, "name": "f20ae8ae835a67072629f3822a873ff1", "lat": 38.90372}, {"rental_uris": {"ios": "https://dc.lft.to/lastmile_qr_scan", "android": "https://dc.lft.to/lastmile_qr_scan"}, "is_reserved": 0, "fusion_lat": 0.0, "type": "electric_bike", "bike_id": "743e94fb01ab38fb904eff704efdc548", "is_disabled": 0, "lon": -77.129357, "fusion_lon": 0.0, "name": "743e94fb01ab38fb904eff704efdc548", "lat": 38.865212}, {"rental_uris": {"ios": "https://dc.lft.to/lastmile_qr_scan", "android": "https://dc.lft.to/lastmile_qr_scan"}, "is_reserved": 0, "fusion_lat": 0.0, "type": "electric_scooter", "bike_id": "510536639e832625b98b2ff7d08d63a3", "is_disabled": 0, "lon": -77.04839716666666, "fusion_lon": 0.0, "name": "510536639e832625b98b2ff7d08d63a3", "lat": 38.912689666666665}, {"rental_uris": {"ios": "https://dc.lft.to/lastmile_qr_scan", "android": "https://dc.lft.to/lastmile_qr_scan"}, "is_reserved": 0, "fusion_lat": 0.0, "type": "electric_scooter", "bike_id": "3f530aad2a1616a951e80a0b531303cd", "is_disabled": 0, "lon": -77.01759383333334, "fusion_lon": 0.0, "name": "3f530aad2a1616a951e80a0b531303cd", "lat": 38.876726}, {"rental_uris": {"ios": "https://dc.lft.to/lastmile_qr_scan", "android": "https://dc.lft.to/lastmile_qr_scan"}, "is_reserved": 0, "fusion_lat": 0.0, "type": "electric_scooter", "bike_id": "00dae7b5b6535ac5e93b92eb98421a22", "is_disabled": 0, "lon": -76.9259395, "fusion_lon": 0.0, "name": "00dae7b5b6535ac5e93b92eb98421a22", "lat": 38.893606166666665}, {"rental_uris": {"ios": "https://dc.lft.to/lastmile_qr_scan", "android": "https://dc.lft.to/lastmile_qr_scan"}, "is_reserved": 0, "fusion_lat": 0.0, "type": "electric_scooter", "bike_id": "e6864a327e8724fcbf975cc6078a3531", "is_disabled": 0, "lon": -77.02580733333333, "fusion_lon": 0.0, "name": "e6864a327e8724fcbf975cc6078a3531", "lat": 38.89598}, {"rental_uris": {"ios": "https://dc.lft.to/lastmile_qr_scan", "android": "https://dc.lft.to/lastmile_qr_scan"}, "is_reserved": 0, "fusion_lat": 0.0, "type": "electric_scooter", "bike_id": "c899e84df84e17077ed913d9a44f78bd", "is_disabled": 0, "lon": -77.0233515, "fusion_lon": 0.0, "name": "c899e84df84e17077ed913d9a44f78bd", "lat": 38.91837783333333}, {"rental_uris": {"ios": "https://dc.lft.to/lastmile_qr_scan", "android": "https://dc.lft.to/lastmile_qr_scan"}, "is_reserved": 0, "fusion_lat": 0.0, "type": "electric_scooter", "bike_id": "0601768047e5a6445dd8447bb39a7935", "is_disabled": 0, "lon": -77.02281433333333, "fusion_lon": 0.0, "name": "0601768047e5a6445dd8447bb39a7935", "lat": 38.914044833333335}, {"rental_uris": {"ios": "https://dc.lft.to/lastmile_qr_scan", "android": "https://dc.lft.to/lastmile_qr_scan"}, "is_reserved": 0, "fusion_lat": 0.0, "type": "electric_scooter", "bike_id": "4efdb72e135d30b95abeeef1839e0112", "is_disabled": 0, "lon": -77.048354, "fusion_lon": 0.0, "name": "4efdb72e135d30b95abeeef1839e0112", "lat": 38.91487016666667}, {"rental_uris": {"ios": "https://dc.lft.to/lastmile_qr_scan", "android": "https://dc.lft.to/lastmile_qr_scan"}, "is_reserved": 0, "fusion_lat": 0.0, "type": "electric_scooter", "bike_id": "02116fe493faeaa0582ae5d04b4f31a3", "is_disabled": 0, "lon": -76.985372, "fusion_lon": 0.0, "name": "02116fe493faeaa0582ae5d04b4f31a3", "lat": 38.90953366666667}, {"rental_uris": {"ios": "https://dc.lft.to/lastmile_qr_scan", "android": "https://dc.lft.to/lastmile_qr_scan"}, "is_reserved": 0, "fusion_lat": 0.0, "type": "electric_scooter", "bike_id": "4dce0d2a5c4bdc087c0ab9e3770ff3d0", "is_disabled": 0, "lon": -77.06657333333334, "fusion_lon": 0.0, "name": "4dce0d2a5c4bdc087c0ab9e3770ff3d0", "lat": 38.9519485}, {"rental_uris": {"ios": "https://dc.lft.to/lastmile_qr_scan", "android": "https://dc.lft.to/lastmile_qr_scan"}, "is_reserved": 0, "fusion_lat": 0.0, "type": "electric_scooter", "bike_id": "9d376495991d535e75b666c273d1957d", "is_disabled": 0, "lon": -77.00797516666667, "fusion_lon": 0.0, "name": "9d376495991d535e75b666c273d1957d", "lat": 38.897187833333334}, {"rental_uris": {"ios": "https://dc.lft.to/lastmile_qr_scan", "android": "https://dc.lft.to/lastmile_qr_scan"}, "is_reserved": 0, "fusion_lat": 0.0, "type": "electric_scooter", "bike_id": "dc7da87a0a0f9eef3ce60fa566f3fb39", "is_disabled": 0, "lon": -77.00798466666667, "fusion_lon": 0.0, "name": "dc7da87a0a0f9eef3ce60fa566f3fb39", "lat": 38.9127455}, {"rental_uris": {"ios": "https://dc.lft.to/lastmile_qr_scan", "android": "https://dc.lft.to/lastmile_qr_scan"}, "is_reserved": 0, "fusion_lat": 0.0, "type": "electric_scooter", "bike_id": "1d67d1d389c2965a9c5df7e99de5a90a", "is_disabled": 0, "lon": -77.043375, "fusion_lon": 0.0, "name": "1d67d1d389c2965a9c5df7e99de5a90a", "lat": 38.922220833333334}, {"rental_uris": {"ios": "https://dc.lft.to/lastmile_qr_scan", "android": "https://dc.lft.to/lastmile_qr_scan"}, "is_reserved": 0, "fusion_lat": 0.0, "type": "electric_scooter", "bike_id": "fceb62e8a5623cc9b5e8e3be47b88af0", "is_disabled": 0, "lon": -77.027044, "fusion_lon": 0.0, "name": "fceb62e8a5623cc9b5e8e3be47b88af0", "lat": 38.9027025}, {"rental_uris": {"ios": "https://dc.lft.to/lastmile_qr_scan", "android": "https://dc.lft.to/lastmile_qr_scan"}, "is_reserved": 0, "fusion_lat": 0.0, "type": "electric_scooter", "bike_id": "ba0be8a8713eec1263131291cb80daf8", "is_disabled": 0, "lon": -77.02603683333334, "fusion_lon": 0.0, "name": "ba0be8a8713eec1263131291cb80daf8", "lat": 38.9280105}, {"rental_uris": {"ios": "https://dc.lft.to/lastmile_qr_scan", "android": "https://dc.lft.to/lastmile_qr_scan"}, "is_reserved": 0, "fusion_lat": 0.0, "type": "electric_scooter", "bike_id": "4b3da419006ee5f8e1d10f9840e081ca", "is_disabled": 0, "lon": -77.04377283333334, "fusion_lon": 0.0, "name": "4b3da419006ee5f8e1d10f9840e081ca", "lat": 38.892242833333334}, {"rental_uris": {"ios": "https://dc.lft.to/lastmile_qr_scan", "android": "https://dc.lft.to/lastmile_qr_scan"}, "is_reserved": 0, "fusion_lat": 0.0, "type": "electric_scooter", "bike_id": "a81f41c4671fbd5cacb3ef25ed9520c2", "is_disabled": 0, "lon": -77.05128233333333, "fusion_lon": 0.0, "name": "a81f41c4671fbd5cacb3ef25ed9520c2", "lat": 38.92522966666667}, {"rental_uris": {"ios": "https://dc.lft.to/lastmile_qr_scan", "android": "https://dc.lft.to/lastmile_qr_scan"}, "is_reserved": 0, "fusion_lat": 0.0, "type": "electric_scooter", "bike_id": "29a7580e9f723d32dd56e72f6047d75e", "is_disabled": 0, "lon": -76.94638116666667, "fusion_lon": 0.0, "name": "29a7580e9f723d32dd56e72f6047d75e", "lat": 38.898666}, {"rental_uris": {"ios": "https://dc.lft.to/lastmile_qr_scan", "android": "https://dc.lft.to/lastmile_qr_scan"}, "is_reserved": 0, "fusion_lat": 0.0, "type": "electric_scooter", "bike_id": "13f296142fdcd05534866a56e0aa427d", "is_disabled": 0, "lon": -77.02979483333333, "fusion_lon": 0.0, "name": "13f296142fdcd05534866a56e0aa427d", "lat": 38.89674766666667}, {"rental_uris": {"ios": "https://dc.lft.to/lastmile_qr_scan", "android": "https://dc.lft.to/lastmile_qr_scan"}, "is_reserved": 0, "fusion_lat": 0.0, "type": "electric_scooter", "bike_id": "9a502f37ff370bc4b8f704e4169752b4", "is_disabled": 0, "lon": -76.91755783333333, "fusion_lon": 0.0, "name": "9a502f37ff370bc4b8f704e4169752b4", "lat": 38.888399666666665}, {"rental_uris": {"ios": "https://dc.lft.to/lastmile_qr_scan", "android": "https://dc.lft.to/lastmile_qr_scan"}, "is_reserved": 0, "fusion_lat": 0.0, "type": "electric_bike", "bike_id": "a41a16814b20a70aa9a524f78e428e30", "is_disabled": 0, "lon": -77.03283733333333, "fusion_lon": 0.0, "name": "a41a16814b20a70aa9a524f78e428e30", "lat": 38.9409145}, {"rental_uris": {"ios": "https://dc.lft.to/lastmile_qr_scan", "android": "https://dc.lft.to/lastmile_qr_scan"}, "is_reserved": 0, "fusion_lat": 0.0, "type": "electric_scooter", "bike_id": "2a140f9c8822b4950823d34413868a65", "is_disabled": 0, "lon": -77.05968716666666, "fusion_lon": 0.0, "name": "2a140f9c8822b4950823d34413868a65", "lat": 38.9283845}, {"rental_uris": {"ios": "https://dc.lft.to/lastmile_qr_scan", "android": "https://dc.lft.to/lastmile_qr_scan"}, "is_reserved": 0, "fusion_lat": 0.0, "type": "electric_scooter", "bike_id": "cc48b54c30ca5b388566d74e78df29d2", "is_disabled": 0, "lon": -77.03121383333334, "fusion_lon": 0.0, "name": "cc48b54c30ca5b388566d74e78df29d2", "lat": 38.9203005}, {"rental_uris": {"ios": "https://dc.lft.to/lastmile_qr_scan", "android": "https://dc.lft.to/lastmile_qr_scan"}, "is_reserved": 0, "fusion_lat": 0.0, "type": "electric_bike", "bike_id": "846c8a312c0f25c0e326c28677af2090", "is_disabled": 0, "lon": -77.0769415, "fusion_lon": 0.0, "name": "846c8a312c0f25c0e326c28677af2090", "lat": 38.994216}, {"rental_uris": {"ios": "https://dc.lft.to/lastmile_qr_scan", "android": "https://dc.lft.to/lastmile_qr_scan"}, "is_reserved": 0, "fusion_lat": 0.0, "type": "electric_scooter", "bike_id": "1ff61cc4033ccb71c7a57b9b017d3c96", "is_disabled": 0, "lon": -77.04001983333333, "fusion_lon": 0.0, "name": "1ff61cc4033ccb71c7a57b9b017d3c96", "lat": 38.934260333333334}, {"rental_uris": {"ios": "https://dc.lft.to/lastmile_qr_scan", "android": "https://dc.lft.to/lastmile_qr_scan"}, "is_reserved": 0, "fusion_lat": 0.0, "type": "electric_scooter", "bike_id": "d826c6675131dfde8a34e3081bc48fe6", "is_disabled": 0, "lon": -77.0019015, "fusion_lon": 0.0, "name": "d826c6675131dfde8a34e3081bc48fe6", "lat": 38.8221815}, {"rental_uris": {"ios": "https://dc.lft.to/lastmile_qr_scan", "android": "https://dc.lft.to/lastmile_qr_scan"}, "is_reserved": 0, "fusion_lat": 0.0, "type": "electric_scooter", "bike_id": "262421a2fb130e0a9ef10de77aa92689", "is_disabled": 0, "lon": -77.00387816666667, "fusion_lon": 0.0, "name": "262421a2fb130e0a9ef10de77aa92689", "lat": 38.879386333333336}, {"rental_uris": {"ios": "https://dc.lft.to/lastmile_qr_scan", "android": "https://dc.lft.to/lastmile_qr_scan"}, "is_reserved": 0, "fusion_lat": 0.0, "type": "electric_scooter", "bike_id": "27d85ca3e8b5c3fdd83687a44a5039a3", "is_disabled": 0, "lon": -77.0362755, "fusion_lon": 0.0, "name": "27d85ca3e8b5c3fdd83687a44a5039a3", "lat": 38.90682783333333}, {"rental_uris": {"ios": "https://dc.lft.to/lastmile_qr_scan", "android": "https://dc.lft.to/lastmile_qr_scan"}, "is_reserved": 0, "fusion_lat": 0.0, "type": "electric_scooter", "bike_id": "404ddbc0b6318a872e20e96f6019f436", "is_disabled": 0, "lon": -76.98440283333333, "fusion_lon": 0.0, "name": "404ddbc0b6318a872e20e96f6019f436", "lat": 38.899893}, {"rental_uris": {"ios": "https://dc.lft.to/lastmile_qr_scan", "android": "https://dc.lft.to/lastmile_qr_scan"}, "is_reserved": 0, "fusion_lat": 0.0, "type": "electric_scooter", "bike_id": "9d1be31bb06e902d66ba86db94fa994f", "is_disabled": 0, "lon": -77.03183933333334, "fusion_lon": 0.0, "name": "9d1be31bb06e902d66ba86db94fa994f", "lat": 38.916209}, {"rental_uris": {"ios": "https://dc.lft.to/lastmile_qr_scan", "android": "https://dc.lft.to/lastmile_qr_scan"}, "is_reserved": 0, "fusion_lat": 0.0, "type": "electric_scooter", "bike_id": "d75806ddd8b814c5d03448b5bf30ad04", "is_disabled": 0, "lon": -77.03370966666667, "fusion_lon": 0.0, "name": "d75806ddd8b814c5d03448b5bf30ad04", "lat": 38.924423}, {"rental_uris": {"ios": "https://dc.lft.to/lastmile_qr_scan", "android": "https://dc.lft.to/lastmile_qr_scan"}, "is_reserved": 0, "fusion_lat": 0.0, "type": "electric_scooter", "bike_id": "27d4c84d6d2f789d2558c1e91d996073", "is_disabled": 0, "lon": -77.0224005, "fusion_lon": 0.0, "name": "27d4c84d6d2f789d2558c1e91d996073", "lat": 38.92429466666667}, {"rental_uris": {"ios": "https://dc.lft.to/lastmile_qr_scan", "android": "https://dc.lft.to/lastmile_qr_scan"}, "is_reserved": 0, "fusion_lat": 0.0, "type": "electric_scooter", "bike_id": "dfb4979fe9d223f1d0b00a2cf41241e4", "is_disabled": 0, "lon": -77.00964566666667, "fusion_lon": 0.0, "name": "dfb4979fe9d223f1d0b00a2cf41241e4", "lat": 38.8745985}, {"rental_uris": {"ios": "https://dc.lft.to/lastmile_qr_scan", "android": "https://dc.lft.to/lastmile_qr_scan"}, "is_reserved": 0, "fusion_lat": 0.0, "type": "electric_scooter", "bike_id": "59a28bb0c369a5662121d2d66dc7799d", "is_disabled": 0, "lon": -76.985029, "fusion_lon": 0.0, "name": "59a28bb0c369a5662121d2d66dc7799d", "lat": 38.86062733333333}, {"rental_uris": {"ios": "https://dc.lft.to/lastmile_qr_scan", "android": "https://dc.lft.to/lastmile_qr_scan"}, "is_reserved": 0, "fusion_lat": 0.0, "type": "electric_scooter", "bike_id": "b70e0c3f2fa9af2e397a7c866426f8f6", "is_disabled": 0, "lon": -77.02805066666667, "fusion_lon": 0.0, "name": "b70e0c3f2fa9af2e397a7c866426f8f6", "lat": 38.90908666666667}, {"rental_uris": {"ios": "https://dc.lft.to/lastmile_qr_scan", "android": "https://dc.lft.to/lastmile_qr_scan"}, "is_reserved": 0, "fusion_lat": 0.0, "type": "electric_scooter", "bike_id": "94abdb3cf56d6c44333080a37dca61a0", "is_disabled": 0, "lon": -77.01732266666667, "fusion_lon": 0.0, "name": "94abdb3cf56d6c44333080a37dca61a0", "lat": 38.88740583333333}, {"rental_uris": {"ios": "https://dc.lft.to/lastmile_qr_scan", "android": "https://dc.lft.to/lastmile_qr_scan"}, "is_reserved": 0, "fusion_lat": 0.0, "type": "electric_scooter", "bike_id": "91b2462ec57e64d6157ace11edb52cc4", "is_disabled": 0, "lon": -77.025456, "fusion_lon": 0.0, "name": "91b2462ec57e64d6157ace11edb52cc4", "lat": 38.912526166666666}, {"rental_uris": {"ios": "https://dc.lft.to/lastmile_qr_scan", "android": "https://dc.lft.to/lastmile_qr_scan"}, "is_reserved": 0, "fusion_lat": 0.0, "type": "electric_scooter", "bike_id": "e6c56c4ba6eac491fd784f48b41ef850", "is_disabled": 0, "lon": -77.06025266666667, "fusion_lon": 0.0, "name": "e6c56c4ba6eac491fd784f48b41ef850", "lat": 38.90352733333334}, {"rental_uris": {"ios": "https://dc.lft.to/lastmile_qr_scan", "android": "https://dc.lft.to/lastmile_qr_scan"}, "is_reserved": 0, "fusion_lat": 0.0, "type": "electric_scooter", "bike_id": "91f1e897b85f0468039c9122a460df70", "is_disabled": 0, "lon": -77.0360505, "fusion_lon": 0.0, "name": "91f1e897b85f0468039c9122a460df70", "lat": 38.9285465}, {"rental_uris": {"ios": "https://dc.lft.to/lastmile_qr_scan", "android": "https://dc.lft.to/lastmile_qr_scan"}, "is_reserved": 0, "fusion_lat": 0.0, "type": "electric_scooter", "bike_id": "76e552f9a88d273100debb355bbb34fb", "is_disabled": 0, "lon": -77.0363725, "fusion_lon": 0.0, "name": "76e552f9a88d273100debb355bbb34fb", "lat": 38.936621333333335}, {"rental_uris": {"ios": "https://dc.lft.to/lastmile_qr_scan", "android": "https://dc.lft.to/lastmile_qr_scan"}, "is_reserved": 0, "fusion_lat": 0.0, "type": "electric_bike", "bike_id": "cfaba72b29c73a3de8fdd7542d1e6b53", "is_disabled": 0, "lon": -76.98204616666666, "fusion_lon": 0.0, "name": "cfaba72b29c73a3de8fdd7542d1e6b53", "lat": 38.985045}, {"rental_uris": {"ios": "https://dc.lft.to/lastmile_qr_scan", "android": "https://dc.lft.to/lastmile_qr_scan"}, "is_reserved": 0, "fusion_lat": 0.0, "type": "electric_scooter", "bike_id": "e8d576ddc85d393555a69c988ba4b052", "is_disabled": 0, "lon": -77.00727983333333, "fusion_lon": 0.0, "name": "e8d576ddc85d393555a69c988ba4b052", "lat": 38.884938166666664}, {"rental_uris": {"ios": "https://dc.lft.to/lastmile_qr_scan", "android": "https://dc.lft.to/lastmile_qr_scan"}, "is_reserved": 0, "fusion_lat": 0.0, "type": "electric_scooter", "bike_id": "2925f892bc39e3e12818f913c8059c90", "is_disabled": 0, "lon": -77.06358216666666, "fusion_lon": 0.0, "name": "2925f892bc39e3e12818f913c8059c90", "lat": 38.943795333333334}, {"rental_uris": {"ios": "https://dc.lft.to/lastmile_qr_scan", "android": "https://dc.lft.to/lastmile_qr_scan"}, "is_reserved": 0, "fusion_lat": 0.0, "type": "electric_scooter", "bike_id": "fb608242e299d83b9bb106f71d9bf9a2", "is_disabled": 0, "lon": -77.02196283333333, "fusion_lon": 0.0, "name": "fb608242e299d83b9bb106f71d9bf9a2", "lat": 38.911345833333336}, {"rental_uris": {"ios": "https://dc.lft.to/lastmile_qr_scan", "android": "https://dc.lft.to/lastmile_qr_scan"}, "is_reserved": 0, "fusion_lat": 0.0, "type": "electric_scooter", "bike_id": "85476d73bdfe1f0402569bdd720460b5", "is_disabled": 0, "lon": -77.03361833333334, "fusion_lon": 0.0, "name": "85476d73bdfe1f0402569bdd720460b5", "lat": 38.92877883333333}, {"rental_uris": {"ios": "https://dc.lft.to/lastmile_qr_scan", "android": "https://dc.lft.to/lastmile_qr_scan"}, "is_reserved": 0, "fusion_lat": 0.0, "type": "electric_scooter", "bike_id": "b1cfd478c7194647cbadbdbae6543a87", "is_disabled": 0, "lon": -77.06418, "fusion_lon": 0.0, "name": "b1cfd478c7194647cbadbdbae6543a87", "lat": 38.91429333333333}, {"rental_uris": {"ios": "https://dc.lft.to/lastmile_qr_scan", "android": "https://dc.lft.to/lastmile_qr_scan"}, "is_reserved": 0, "fusion_lat": 0.0, "type": "electric_scooter", "bike_id": "be9eb624c2ee7ee8f575bc7938594686", "is_disabled": 0, "lon": -77.00715216666667, "fusion_lon": 0.0, "name": "be9eb624c2ee7ee8f575bc7938594686", "lat": 38.88484533333333}, {"rental_uris": {"ios": "https://dc.lft.to/lastmile_qr_scan", "android": "https://dc.lft.to/lastmile_qr_scan"}, "is_reserved": 0, "fusion_lat": 0.0, "type": "electric_scooter", "bike_id": "d14217de1ced02a26f2012154b1b5815", "is_disabled": 0, "lon": -77.03081666666667, "fusion_lon": 0.0, "name": "d14217de1ced02a26f2012154b1b5815", "lat": 38.907598}, {"rental_uris": {"ios": "https://dc.lft.to/lastmile_qr_scan", "android": "https://dc.lft.to/lastmile_qr_scan"}, "is_reserved": 0, "fusion_lat": 0.0, "type": "electric_scooter", "bike_id": "44012bb5e7874cc8e76977793302bed1", "is_disabled": 0, "lon": -77.026518, "fusion_lon": 0.0, "name": "44012bb5e7874cc8e76977793302bed1", "lat": 38.9025925}, {"rental_uris": {"ios": "https://dc.lft.to/lastmile_qr_scan", "android": "https://dc.lft.to/lastmile_qr_scan"}, "is_reserved": 0, "fusion_lat": 0.0, "type": "electric_scooter", "bike_id": "75a26f8ec9744e8ae6b8a2e1b1c9a1eb", "is_disabled": 0, "lon": -77.09714466666667, "fusion_lon": 0.0, "name": "75a26f8ec9744e8ae6b8a2e1b1c9a1eb", "lat": 38.95102933333333}, {"rental_uris": {"ios": "https://dc.lft.to/lastmile_qr_scan", "android": "https://dc.lft.to/lastmile_qr_scan"}, "is_reserved": 0, "fusion_lat": 0.0, "type": "electric_scooter", "bike_id": "ae949041425b8e600d4f63a3fd0519c6", "is_disabled": 0, "lon": -76.996006, "fusion_lon": 0.0, "name": "ae949041425b8e600d4f63a3fd0519c6", "lat": 38.88427183333334}, {"rental_uris": {"ios": "https://dc.lft.to/lastmile_qr_scan", "android": "https://dc.lft.to/lastmile_qr_scan"}, "is_reserved": 0, "fusion_lat": 0.0, "type": "electric_scooter", "bike_id": "72db465007dcc5050d0c8aea07ade96b", "is_disabled": 0, "lon": -77.06038666666667, "fusion_lon": 0.0, "name": "72db465007dcc5050d0c8aea07ade96b", "lat": 38.90532566666667}, {"rental_uris": {"ios": "https://dc.lft.to/lastmile_qr_scan", "android": "https://dc.lft.to/lastmile_qr_scan"}, "is_reserved": 0, "fusion_lat": 0.0, "type": "electric_bike", "bike_id": "d168cc911a3f4e74f51e7c5c1911d48c", "is_disabled": 0, "lon": -77.00305466666667, "fusion_lon": 0.0, "name": "d168cc911a3f4e74f51e7c5c1911d48c", "lat": 38.833632}, {"rental_uris": {"ios": "https://dc.lft.to/lastmile_qr_scan", "android": "https://dc.lft.to/lastmile_qr_scan"}, "is_reserved": 0, "fusion_lat": 0.0, "type": "electric_scooter", "bike_id": "276f8fa94c2316d9a14990d507c520b5", "is_disabled": 0, "lon": -76.99881616666667, "fusion_lon": 0.0, "name": "276f8fa94c2316d9a14990d507c520b5", "lat": 38.909563}, {"rental_uris": {"ios": "https://dc.lft.to/lastmile_qr_scan", "android": "https://dc.lft.to/lastmile_qr_scan"}, "is_reserved": 0, "fusion_lat": 0.0, "type": "electric_scooter", "bike_id": "9111dbd17cbd7538f3d859fc353be932", "is_disabled": 0, "lon": -77.05787533333333, "fusion_lon": 0.0, "name": "9111dbd17cbd7538f3d859fc353be932", "lat": 38.9051715}, {"rental_uris": {"ios": "https://dc.lft.to/lastmile_qr_scan", "android": "https://dc.lft.to/lastmile_qr_scan"}, "is_reserved": 0, "fusion_lat": 0.0, "type": "electric_scooter", "bike_id": "fb74dce14936f832410c90ef352f22bf", "is_disabled": 0, "lon": -77.0299145, "fusion_lon": 0.0, "name": "fb74dce14936f832410c90ef352f22bf", "lat": 38.908589666666664}, {"rental_uris": {"ios": "https://dc.lft.to/lastmile_qr_scan", "android": "https://dc.lft.to/lastmile_qr_scan"}, "is_reserved": 0, "fusion_lat": 0.0, "type": "electric_scooter", "bike_id": "c1c44d61a5fe89f0739fd6900839b328", "is_disabled": 0, "lon": -77.01916283333334, "fusion_lon": 0.0, "name": "c1c44d61a5fe89f0739fd6900839b328", "lat": 38.902561166666665}, {"rental_uris": {"ios": "https://dc.lft.to/lastmile_qr_scan", "android": "https://dc.lft.to/lastmile_qr_scan"}, "is_reserved": 0, "fusion_lat": 0.0, "type": "electric_scooter", "bike_id": "ec86200d09decbd793e54dfa1c4225c0", "is_disabled": 0, "lon": -77.04430383333333, "fusion_lon": 0.0, "name": "ec86200d09decbd793e54dfa1c4225c0", "lat": 38.921206166666664}, {"rental_uris": {"ios": "https://dc.lft.to/lastmile_qr_scan", "android": "https://dc.lft.to/lastmile_qr_scan"}, "is_reserved": 0, "fusion_lat": 0.0, "type": "electric_scooter", "bike_id": "dd6ed297403b57c5e60d4c21349659de", "is_disabled": 0, "lon": -77.0395825, "fusion_lon": 0.0, "name": "dd6ed297403b57c5e60d4c21349659de", "lat": 38.895560333333336}, {"rental_uris": {"ios": "https://dc.lft.to/lastmile_qr_scan", "android": "https://dc.lft.to/lastmile_qr_scan"}, "is_reserved": 0, "fusion_lat": 0.0, "type": "electric_scooter", "bike_id": "d54756ff501f61bfd1cd5e9d896664b9", "is_disabled": 0, "lon": -77.0219295, "fusion_lon": 0.0, "name": "d54756ff501f61bfd1cd5e9d896664b9", "lat": 38.92091933333333}, {"rental_uris": {"ios": "https://dc.lft.to/lastmile_qr_scan", "android": "https://dc.lft.to/lastmile_qr_scan"}, "is_reserved": 0, "fusion_lat": 0.0, "type": "electric_scooter", "bike_id": "072253a9599f757b67c92753928600ce", "is_disabled": 0, "lon": -77.055967, "fusion_lon": 0.0, "name": "072253a9599f757b67c92753928600ce", "lat": 38.905334}, {"rental_uris": {"ios": "https://dc.lft.to/lastmile_qr_scan", "android": "https://dc.lft.to/lastmile_qr_scan"}, "is_reserved": 0, "fusion_lat": 0.0, "type": "electric_scooter", "bike_id": "a519e40569297e7eb3ae19f936841c63", "is_disabled": 0, "lon": -77.02136466666667, "fusion_lon": 0.0, "name": "a519e40569297e7eb3ae19f936841c63", "lat": 38.927523666666666}, {"rental_uris": {"ios": "https://dc.lft.to/lastmile_qr_scan", "android": "https://dc.lft.to/lastmile_qr_scan"}, "is_reserved": 0, "fusion_lat": 0.0, "type": "electric_scooter", "bike_id": "6ad4ae1595783fbb3f397efdb2930462", "is_disabled": 0, "lon": -77.0632875, "fusion_lon": 0.0, "name": "6ad4ae1595783fbb3f397efdb2930462", "lat": 38.90399433333333}, {"rental_uris": {"ios": "https://dc.lft.to/lastmile_qr_scan", "android": "https://dc.lft.to/lastmile_qr_scan"}, "is_reserved": 0, "fusion_lat": 0.0, "type": "electric_scooter", "bike_id": "fe958eab871c9faa77acf855c52c69a8", "is_disabled": 0, "lon": -77.02902733333333, "fusion_lon": 0.0, "name": "fe958eab871c9faa77acf855c52c69a8", "lat": 38.9172405}, {"rental_uris": {"ios": "https://dc.lft.to/lastmile_qr_scan", "android": "https://dc.lft.to/lastmile_qr_scan"}, "is_reserved": 0, "fusion_lat": 0.0, "type": "electric_scooter", "bike_id": "53075b278a6997eeb819aa459c4b0e4d", "is_disabled": 0, "lon": -77.04698783333333, "fusion_lon": 0.0, "name": "53075b278a6997eeb819aa459c4b0e4d", "lat": 38.921771666666665}, {"rental_uris": {"ios": "https://dc.lft.to/lastmile_qr_scan", "android": "https://dc.lft.to/lastmile_qr_scan"}, "is_reserved": 0, "fusion_lat": 0.0, "type": "electric_scooter", "bike_id": "4e6f8d92d489b2d640731a13a261c781", "is_disabled": 0, "lon": -77.03520633333333, "fusion_lon": 0.0, "name": "4e6f8d92d489b2d640731a13a261c781", "lat": 38.92532166666667}, {"rental_uris": {"ios": "https://dc.lft.to/lastmile_qr_scan", "android": "https://dc.lft.to/lastmile_qr_scan"}, "is_reserved": 0, "fusion_lat": 0.0, "type": "electric_scooter", "bike_id": "b4ac17565d527ee2bc92d7340442face", "is_disabled": 0, "lon": -77.020388, "fusion_lon": 0.0, "name": "b4ac17565d527ee2bc92d7340442face", "lat": 38.92412516666667}, {"rental_uris": {"ios": "https://dc.lft.to/lastmile_qr_scan", "android": "https://dc.lft.to/lastmile_qr_scan"}, "is_reserved": 0, "fusion_lat": 0.0, "type": "electric_scooter", "bike_id": "780318613bb65c0b775cf5d8b5d28c25", "is_disabled": 0, "lon": -77.00540916666667, "fusion_lon": 0.0, "name": "780318613bb65c0b775cf5d8b5d28c25", "lat": 38.876383833333335}, {"rental_uris": {"ios": "https://dc.lft.to/lastmile_qr_scan", "android": "https://dc.lft.to/lastmile_qr_scan"}, "is_reserved": 0, "fusion_lat": 0.0, "type": "electric_scooter", "bike_id": "f99221c174b66e05abb578ce68596ff1", "is_disabled": 0, "lon": -77.0424645, "fusion_lon": 0.0, "name": "f99221c174b66e05abb578ce68596ff1", "lat": 38.901196166666665}, {"rental_uris": {"ios": "https://dc.lft.to/lastmile_qr_scan", "android": "https://dc.lft.to/lastmile_qr_scan"}, "is_reserved": 0, "fusion_lat": 0.0, "type": "electric_scooter", "bike_id": "ca8dc39616dddbb67a8190e104226ccc", "is_disabled": 0, "lon": -77.00221783333333, "fusion_lon": 0.0, "name": "ca8dc39616dddbb67a8190e104226ccc", "lat": 38.898998666666664}, {"rental_uris": {"ios": "https://dc.lft.to/lastmile_qr_scan", "android": "https://dc.lft.to/lastmile_qr_scan"}, "is_reserved": 0, "fusion_lat": 0.0, "type": "electric_scooter", "bike_id": "f4fcdf6a4a5c8b424e6f5c448a12938a", "is_disabled": 0, "lon": -77.04341766666667, "fusion_lon": 0.0, "name": "f4fcdf6a4a5c8b424e6f5c448a12938a", "lat": 38.902482166666665}, {"rental_uris": {"ios": "https://dc.lft.to/lastmile_qr_scan", "android": "https://dc.lft.to/lastmile_qr_scan"}, "is_reserved": 0, "fusion_lat": 0.0, "type": "electric_scooter", "bike_id": "926e0dc7e3e168aacc025039a22e884a", "is_disabled": 0, "lon": -77.02308766666667, "fusion_lon": 0.0, "name": "926e0dc7e3e168aacc025039a22e884a", "lat": 38.89589866666667}, {"rental_uris": {"ios": "https://dc.lft.to/lastmile_qr_scan", "android": "https://dc.lft.to/lastmile_qr_scan"}, "is_reserved": 0, "fusion_lat": 0.0, "type": "electric_scooter", "bike_id": "f226df13a9ec0ce945d2c92fbe5b7345", "is_disabled": 0, "lon": -77.006787, "fusion_lon": 0.0, "name": "f226df13a9ec0ce945d2c92fbe5b7345", "lat": 38.89993783333333}, {"rental_uris": {"ios": "https://dc.lft.to/lastmile_qr_scan", "android": "https://dc.lft.to/lastmile_qr_scan"}, "is_reserved": 0, "fusion_lat": 0.0, "type": "electric_scooter", "bike_id": "d25e1d6c8e162fb4f46cc4d8c6d9f11f", "is_disabled": 0, "lon": -77.0181395, "fusion_lon": 0.0, "name": "d25e1d6c8e162fb4f46cc4d8c6d9f11f", "lat": 38.901216}, {"rental_uris": {"ios": "https://dc.lft.to/lastmile_qr_scan", "android": "https://dc.lft.to/lastmile_qr_scan"}, "is_reserved": 0, "fusion_lat": 0.0, "type": "electric_scooter", "bike_id": "b67af68adf03416fb8165a5695c9a84b", "is_disabled": 0, "lon": -77.014719, "fusion_lon": 0.0, "name": "b67af68adf03416fb8165a5695c9a84b", "lat": 38.91956016666666}, {"rental_uris": {"ios": "https://dc.lft.to/lastmile_qr_scan", "android": "https://dc.lft.to/lastmile_qr_scan"}, "is_reserved": 0, "fusion_lat": 0.0, "type": "electric_scooter", "bike_id": "053aeb29abd8a22dc2289639c52e748c", "is_disabled": 0, "lon": -77.04517016666667, "fusion_lon": 0.0, "name": "053aeb29abd8a22dc2289639c52e748c", "lat": 38.89223166666667}, {"rental_uris": {"ios": "https://dc.lft.to/lastmile_qr_scan", "android": "https://dc.lft.to/lastmile_qr_scan"}, "is_reserved": 0, "fusion_lat": 0.0, "type": "electric_scooter", "bike_id": "5baecb357763efa38f4715c8f51a4a9c", "is_disabled": 0, "lon": -77.02201916666667, "fusion_lon": 0.0, "name": "5baecb357763efa38f4715c8f51a4a9c", "lat": 38.91596366666667}, {"rental_uris": {"ios": "https://dc.lft.to/lastmile_qr_scan", "android": "https://dc.lft.to/lastmile_qr_scan"}, "is_reserved": 0, "fusion_lat": 0.0, "type": "electric_scooter", "bike_id": "d5a4d47affe696a9a4556b3aaaebfa19", "is_disabled": 0, "lon": -77.0270405, "fusion_lon": 0.0, "name": "d5a4d47affe696a9a4556b3aaaebfa19", "lat": 38.9026825}, {"rental_uris": {"ios": "https://dc.lft.to/lastmile_qr_scan", "android": "https://dc.lft.to/lastmile_qr_scan"}, "is_reserved": 0, "fusion_lat": 0.0, "type": "electric_scooter", "bike_id": "3bde2716288fc14dca51fa03b1dcca64", "is_disabled": 0, "lon": -77.04362466666667, "fusion_lon": 0.0, "name": "3bde2716288fc14dca51fa03b1dcca64", "lat": 38.904833333333336}, {"rental_uris": {"ios": "https://dc.lft.to/lastmile_qr_scan", "android": "https://dc.lft.to/lastmile_qr_scan"}, "is_reserved": 0, "fusion_lat": 0.0, "type": "electric_scooter", "bike_id": "45e6331b08d36d141d1bf2b45f29af75", "is_disabled": 0, "lon": -77.0418145, "fusion_lon": 0.0, "name": "45e6331b08d36d141d1bf2b45f29af75", "lat": 38.923152333333334}, {"rental_uris": {"ios": "https://dc.lft.to/lastmile_qr_scan", "android": "https://dc.lft.to/lastmile_qr_scan"}, "is_reserved": 0, "fusion_lat": 0.0, "type": "electric_scooter", "bike_id": "804b1e9252c329c5b604d601978190ba", "is_disabled": 0, "lon": -77.02198833333334, "fusion_lon": 0.0, "name": "804b1e9252c329c5b604d601978190ba", "lat": 38.87905533333333}, {"rental_uris": {"ios": "https://dc.lft.to/lastmile_qr_scan", "android": "https://dc.lft.to/lastmile_qr_scan"}, "is_reserved": 0, "fusion_lat": 0.0, "type": "electric_scooter", "bike_id": "5b38d2168c88acda8524bb569266960c", "is_disabled": 0, "lon": -77.03631516666667, "fusion_lon": 0.0, "name": "5b38d2168c88acda8524bb569266960c", "lat": 38.90382866666667}, {"rental_uris": {"ios": "https://dc.lft.to/lastmile_qr_scan", "android": "https://dc.lft.to/lastmile_qr_scan"}, "is_reserved": 0, "fusion_lat": 0.0, "type": "electric_scooter", "bike_id": "59a06f47827d1e200a5c8a4c55f34791", "is_disabled": 0, "lon": -77.04054066666667, "fusion_lon": 0.0, "name": "59a06f47827d1e200a5c8a4c55f34791", "lat": 38.9043945}, {"rental_uris": {"ios": "https://dc.lft.to/lastmile_qr_scan", "android": "https://dc.lft.to/lastmile_qr_scan"}, "is_reserved": 0, "fusion_lat": 0.0, "type": "electric_scooter", "bike_id": "a8b859a2338b745a54cb9ad525f62d0a", "is_disabled": 0, "lon": -77.05131883333334, "fusion_lon": 0.0, "name": "a8b859a2338b745a54cb9ad525f62d0a", "lat": 38.9236375}, {"rental_uris": {"ios": "https://dc.lft.to/lastmile_qr_scan", "android": "https://dc.lft.to/lastmile_qr_scan"}, "is_reserved": 0, "fusion_lat": 0.0, "type": "electric_scooter", "bike_id": "3065692d25ca18cfe558bc4663c1925b", "is_disabled": 0, "lon": -76.98335416666667, "fusion_lon": 0.0, "name": "3065692d25ca18cfe558bc4663c1925b", "lat": 38.865636333333335}, {"rental_uris": {"ios": "https://dc.lft.to/lastmile_qr_scan", "android": "https://dc.lft.to/lastmile_qr_scan"}, "is_reserved": 0, "fusion_lat": 0.0, "type": "electric_scooter", "bike_id": "daf29d5c5b3ef483f6d94a3e089c2201", "is_disabled": 0, "lon": -77.0477505, "fusion_lon": 0.0, "name": "daf29d5c5b3ef483f6d94a3e089c2201", "lat": 38.89221883333333}, {"rental_uris": {"ios": "https://dc.lft.to/lastmile_qr_scan", "android": "https://dc.lft.to/lastmile_qr_scan"}, "is_reserved": 0, "fusion_lat": 0.0, "type": "electric_scooter", "bike_id": "ebc9664fff40d0dca201e404e3ffec90", "is_disabled": 0, "lon": -77.02849883333333, "fusion_lon": 0.0, "name": "ebc9664fff40d0dca201e404e3ffec90", "lat": 38.9334535}, {"rental_uris": {"ios": "https://dc.lft.to/lastmile_qr_scan", "android": "https://dc.lft.to/lastmile_qr_scan"}, "is_reserved": 0, "fusion_lat": 0.0, "type": "electric_scooter", "bike_id": "fb0a5d14e702e61935eef97135905dc4", "is_disabled": 0, "lon": -76.9312865, "fusion_lon": 0.0, "name": "fb0a5d14e702e61935eef97135905dc4", "lat": 38.898249}, {"rental_uris": {"ios": "https://dc.lft.to/lastmile_qr_scan", "android": "https://dc.lft.to/lastmile_qr_scan"}, "is_reserved": 0, "fusion_lat": 0.0, "type": "electric_scooter", "bike_id": "31ac67251a9b287241346505ba66b391", "is_disabled": 0, "lon": -77.03477416666666, "fusion_lon": 0.0, "name": "31ac67251a9b287241346505ba66b391", "lat": 38.902996333333334}, {"rental_uris": {"ios": "https://dc.lft.to/lastmile_qr_scan", "android": "https://dc.lft.to/lastmile_qr_scan"}, "is_reserved": 0, "fusion_lat": 0.0, "type": "electric_scooter", "bike_id": "7e469b2e954bd4c5bdac0f2127ec8f92", "is_disabled": 0, "lon": -77.01395566666666, "fusion_lon": 0.0, "name": "7e469b2e954bd4c5bdac0f2127ec8f92", "lat": 38.92839333333333}, {"rental_uris": {"ios": "https://dc.lft.to/lastmile_qr_scan", "android": "https://dc.lft.to/lastmile_qr_scan"}, "is_reserved": 0, "fusion_lat": 0.0, "type": "electric_bike", "bike_id": "558cf84bbf40ba1c099ef6e8616e78b8", "is_disabled": 0, "lon": -77.20140366666666, "fusion_lon": 0.0, "name": "558cf84bbf40ba1c099ef6e8616e78b8", "lat": 38.922221}, {"rental_uris": {"ios": "https://dc.lft.to/lastmile_qr_scan", "android": "https://dc.lft.to/lastmile_qr_scan"}, "is_reserved": 0, "fusion_lat": 0.0, "type": "electric_scooter", "bike_id": "f2a9dd9be373f8cb01dd8d15cfcde709", "is_disabled": 0, "lon": -76.99929816666666, "fusion_lon": 0.0, "name": "f2a9dd9be373f8cb01dd8d15cfcde709", "lat": 38.90917483333333}, {"rental_uris": {"ios": "https://dc.lft.to/lastmile_qr_scan", "android": "https://dc.lft.to/lastmile_qr_scan"}, "is_reserved": 0, "fusion_lat": 0.0, "type": "electric_scooter", "bike_id": "393a355827ad88237233f466f42133bf", "is_disabled": 0, "lon": -77.02533966666667, "fusion_lon": 0.0, "name": "393a355827ad88237233f466f42133bf", "lat": 38.88502966666667}, {"rental_uris": {"ios": "https://dc.lft.to/lastmile_qr_scan", "android": "https://dc.lft.to/lastmile_qr_scan"}, "is_reserved": 0, "fusion_lat": 0.0, "type": "electric_scooter", "bike_id": "38270c5ee548352c06bd7ed22f35b582", "is_disabled": 0, "lon": -77.0269635, "fusion_lon": 0.0, "name": "38270c5ee548352c06bd7ed22f35b582", "lat": 38.90661433333333}, {"rental_uris": {"ios": "https://dc.lft.to/lastmile_qr_scan", "android": "https://dc.lft.to/lastmile_qr_scan"}, "is_reserved": 0, "fusion_lat": 0.0, "type": "electric_scooter", "bike_id": "92b9dd6476b7c96e44218ae5185c8270", "is_disabled": 0, "lon": -77.07879716666666, "fusion_lon": 0.0, "name": "92b9dd6476b7c96e44218ae5185c8270", "lat": 38.94866616666667}, {"rental_uris": {"ios": "https://dc.lft.to/lastmile_qr_scan", "android": "https://dc.lft.to/lastmile_qr_scan"}, "is_reserved": 0, "fusion_lat": 0.0, "type": "electric_scooter", "bike_id": "88ca61bfab0f274fbc9771d3e8cee31d", "is_disabled": 0, "lon": -76.9870155, "fusion_lon": 0.0, "name": "88ca61bfab0f274fbc9771d3e8cee31d", "lat": 38.900285333333336}, {"rental_uris": {"ios": "https://dc.lft.to/lastmile_qr_scan", "android": "https://dc.lft.to/lastmile_qr_scan"}, "is_reserved": 0, "fusion_lat": 0.0, "type": "electric_scooter", "bike_id": "6f4b597d988bc5ba98fc43984f73bff2", "is_disabled": 0, "lon": -77.020986, "fusion_lon": 0.0, "name": "6f4b597d988bc5ba98fc43984f73bff2", "lat": 38.92122533333333}, {"rental_uris": {"ios": "https://dc.lft.to/lastmile_qr_scan", "android": "https://dc.lft.to/lastmile_qr_scan"}, "is_reserved": 0, "fusion_lat": 0.0, "type": "electric_scooter", "bike_id": "786c7390d2c68dd4b77754fc8c36c7b1", "is_disabled": 0, "lon": -77.03886383333334, "fusion_lon": 0.0, "name": "786c7390d2c68dd4b77754fc8c36c7b1", "lat": 38.9332355}, {"rental_uris": {"ios": "https://dc.lft.to/lastmile_qr_scan", "android": "https://dc.lft.to/lastmile_qr_scan"}, "is_reserved": 0, "fusion_lat": 0.0, "type": "electric_scooter", "bike_id": "470ad6471f947e6d10c832dd82a0e2c3", "is_disabled": 0, "lon": -77.041781, "fusion_lon": 0.0, "name": "470ad6471f947e6d10c832dd82a0e2c3", "lat": 38.9185675}, {"rental_uris": {"ios": "https://dc.lft.to/lastmile_qr_scan", "android": "https://dc.lft.to/lastmile_qr_scan"}, "is_reserved": 0, "fusion_lat": 0.0, "type": "electric_scooter", "bike_id": "2502380ab5bc54e73cea7bbe913c169a", "is_disabled": 0, "lon": -77.01271283333334, "fusion_lon": 0.0, "name": "2502380ab5bc54e73cea7bbe913c169a", "lat": 38.89843116666667}, {"rental_uris": {"ios": "https://dc.lft.to/lastmile_qr_scan", "android": "https://dc.lft.to/lastmile_qr_scan"}, "is_reserved": 0, "fusion_lat": 0.0, "type": "electric_scooter", "bike_id": "6f031f66f05ad63915abbd16b230f3fa", "is_disabled": 0, "lon": -77.0394835, "fusion_lon": 0.0, "name": "6f031f66f05ad63915abbd16b230f3fa", "lat": 38.90231766666667}, {"rental_uris": {"ios": "https://dc.lft.to/lastmile_qr_scan", "android": "https://dc.lft.to/lastmile_qr_scan"}, "is_reserved": 0, "fusion_lat": 0.0, "type": "electric_scooter", "bike_id": "f699bcb9be632958d21597ca2e8f7cbd", "is_disabled": 0, "lon": -77.02498566666667, "fusion_lon": 0.0, "name": "f699bcb9be632958d21597ca2e8f7cbd", "lat": 38.89735533333333}, {"rental_uris": {"ios": "https://dc.lft.to/lastmile_qr_scan", "android": "https://dc.lft.to/lastmile_qr_scan"}, "is_reserved": 0, "fusion_lat": 0.0, "type": "electric_scooter", "bike_id": "d1f262a34c237dc30931f8137a0379eb", "is_disabled": 0, "lon": -77.02058866666667, "fusion_lon": 0.0, "name": "d1f262a34c237dc30931f8137a0379eb", "lat": 38.894661166666666}, {"rental_uris": {"ios": "https://dc.lft.to/lastmile_qr_scan", "android": "https://dc.lft.to/lastmile_qr_scan"}, "is_reserved": 0, "fusion_lat": 0.0, "type": "electric_scooter", "bike_id": "b46aeb8a18332b586075059b9144e6d7", "is_disabled": 0, "lon": -77.0050385, "fusion_lon": 0.0, "name": "b46aeb8a18332b586075059b9144e6d7", "lat": 38.9099055}, {"rental_uris": {"ios": "https://dc.lft.to/lastmile_qr_scan", "android": "https://dc.lft.to/lastmile_qr_scan"}, "is_reserved": 0, "fusion_lat": 0.0, "type": "electric_scooter", "bike_id": "2bcc6ae79c136bc50f4f13251de4764e", "is_disabled": 0, "lon": -77.03826516666666, "fusion_lon": 0.0, "name": "2bcc6ae79c136bc50f4f13251de4764e", "lat": 38.91115216666667}, {"rental_uris": {"ios": "https://dc.lft.to/lastmile_qr_scan", "android": "https://dc.lft.to/lastmile_qr_scan"}, "is_reserved": 0, "fusion_lat": 0.0, "type": "electric_scooter", "bike_id": "ca5a5ab894cdfd8def11f6c928daa36c", "is_disabled": 0, "lon": -77.0393745, "fusion_lon": 0.0, "name": "ca5a5ab894cdfd8def11f6c928daa36c", "lat": 38.90224283333333}, {"rental_uris": {"ios": "https://dc.lft.to/lastmile_qr_scan", "android": "https://dc.lft.to/lastmile_qr_scan"}, "is_reserved": 0, "fusion_lat": 0.0, "type": "electric_scooter", "bike_id": "9a0ac1681d2f9465a134a759b874c208", "is_disabled": 0, "lon": -77.06408983333333, "fusion_lon": 0.0, "name": "9a0ac1681d2f9465a134a759b874c208", "lat": 38.9444585}, {"rental_uris": {"ios": "https://dc.lft.to/lastmile_qr_scan", "android": "https://dc.lft.to/lastmile_qr_scan"}, "is_reserved": 0, "fusion_lat": 0.0, "type": "electric_scooter", "bike_id": "b82059b05608877fd9d228afa2db2172", "is_disabled": 0, "lon": -77.03831, "fusion_lon": 0.0, "name": "b82059b05608877fd9d228afa2db2172", "lat": 38.91110166666667}, {"rental_uris": {"ios": "https://dc.lft.to/lastmile_qr_scan", "android": "https://dc.lft.to/lastmile_qr_scan"}, "is_reserved": 0, "fusion_lat": 0.0, "type": "electric_scooter", "bike_id": "b1493bb0852120814acb9fba59ca6c90", "is_disabled": 0, "lon": -77.031926, "fusion_lon": 0.0, "name": "b1493bb0852120814acb9fba59ca6c90", "lat": 38.91634216666667}, {"rental_uris": {"ios": "https://dc.lft.to/lastmile_qr_scan", "android": "https://dc.lft.to/lastmile_qr_scan"}, "is_reserved": 0, "fusion_lat": 0.0, "type": "electric_scooter", "bike_id": "47fd137c36e15e46f2d0d8fccd851907", "is_disabled": 0, "lon": -76.9519575, "fusion_lon": 0.0, "name": "47fd137c36e15e46f2d0d8fccd851907", "lat": 38.886658}, {"rental_uris": {"ios": "https://dc.lft.to/lastmile_qr_scan", "android": "https://dc.lft.to/lastmile_qr_scan"}, "is_reserved": 0, "fusion_lat": 0.0, "type": "electric_scooter", "bike_id": "33fc409dba3b0631b7abafefbf1f1c36", "is_disabled": 0, "lon": -77.03498583333334, "fusion_lon": 0.0, "name": "33fc409dba3b0631b7abafefbf1f1c36", "lat": 38.9214245}, {"rental_uris": {"ios": "https://dc.lft.to/lastmile_qr_scan", "android": "https://dc.lft.to/lastmile_qr_scan"}, "is_reserved": 0, "fusion_lat": 0.0, "type": "electric_scooter", "bike_id": "c9a51611543067d6009dedde3e86f60f", "is_disabled": 0, "lon": -76.93342933333334, "fusion_lon": 0.0, "name": "c9a51611543067d6009dedde3e86f60f", "lat": 38.90870483333333}, {"rental_uris": {"ios": "https://dc.lft.to/lastmile_qr_scan", "android": "https://dc.lft.to/lastmile_qr_scan"}, "is_reserved": 0, "fusion_lat": 0.0, "type": "electric_scooter", "bike_id": "521975007e674288ce3487927ab6ac33", "is_disabled": 0, "lon": -77.02740833333333, "fusion_lon": 0.0, "name": "521975007e674288ce3487927ab6ac33", "lat": 38.927693833333336}, {"rental_uris": {"ios": "https://dc.lft.to/lastmile_qr_scan", "android": "https://dc.lft.to/lastmile_qr_scan"}, "is_reserved": 0, "fusion_lat": 0.0, "type": "electric_scooter", "bike_id": "d5ed0ebd6711875599fa74433f9873ce", "is_disabled": 0, "lon": -77.0319905, "fusion_lon": 0.0, "name": "d5ed0ebd6711875599fa74433f9873ce", "lat": 38.9101205}, {"rental_uris": {"ios": "https://dc.lft.to/lastmile_qr_scan", "android": "https://dc.lft.to/lastmile_qr_scan"}, "is_reserved": 0, "fusion_lat": 0.0, "type": "electric_scooter", "bike_id": "7adffd2aca74fb62a5e1d86cc0b93174", "is_disabled": 0, "lon": -77.0093355, "fusion_lon": 0.0, "name": "7adffd2aca74fb62a5e1d86cc0b93174", "lat": 38.8972215}, {"rental_uris": {"ios": "https://dc.lft.to/lastmile_qr_scan", "android": "https://dc.lft.to/lastmile_qr_scan"}, "is_reserved": 0, "fusion_lat": 0.0, "type": "electric_scooter", "bike_id": "c9b7d1eae7e7b670681b92392b4c527e", "is_disabled": 0, "lon": -76.99637783333333, "fusion_lon": 0.0, "name": "c9b7d1eae7e7b670681b92392b4c527e", "lat": 38.905300833333335}, {"rental_uris": {"ios": "https://dc.lft.to/lastmile_qr_scan", "android": "https://dc.lft.to/lastmile_qr_scan"}, "is_reserved": 0, "fusion_lat": 0.0, "type": "electric_scooter", "bike_id": "67951390c0b90238e8e89b2be8136348", "is_disabled": 0, "lon": -77.02267766666667, "fusion_lon": 0.0, "name": "67951390c0b90238e8e89b2be8136348", "lat": 38.924726166666666}, {"rental_uris": {"ios": "https://dc.lft.to/lastmile_qr_scan", "android": "https://dc.lft.to/lastmile_qr_scan"}, "is_reserved": 0, "fusion_lat": 0.0, "type": "electric_scooter", "bike_id": "1ab04191d729b1fbeff73c249688ceb8", "is_disabled": 0, "lon": -76.995254, "fusion_lon": 0.0, "name": "1ab04191d729b1fbeff73c249688ceb8", "lat": 38.8838065}, {"rental_uris": {"ios": "https://dc.lft.to/lastmile_qr_scan", "android": "https://dc.lft.to/lastmile_qr_scan"}, "is_reserved": 0, "fusion_lat": 0.0, "type": "electric_scooter", "bike_id": "c063d768596ece64a09b72cbd581030a", "is_disabled": 0, "lon": -77.03566483333333, "fusion_lon": 0.0, "name": "c063d768596ece64a09b72cbd581030a", "lat": 38.9015005}, {"rental_uris": {"ios": "https://dc.lft.to/lastmile_qr_scan", "android": "https://dc.lft.to/lastmile_qr_scan"}, "is_reserved": 0, "fusion_lat": 0.0, "type": "electric_scooter", "bike_id": "7c10657769fd5de793f7967e30e1ebe3", "is_disabled": 0, "lon": -77.0363605, "fusion_lon": 0.0, "name": "7c10657769fd5de793f7967e30e1ebe3", "lat": 38.925778333333334}, {"rental_uris": {"ios": "https://dc.lft.to/lastmile_qr_scan", "android": "https://dc.lft.to/lastmile_qr_scan"}, "is_reserved": 0, "fusion_lat": 0.0, "type": "electric_scooter", "bike_id": "4738334f96355fbf135fdb20ad4f0f4a", "is_disabled": 0, "lon": -77.03202633333333, "fusion_lon": 0.0, "name": "4738334f96355fbf135fdb20ad4f0f4a", "lat": 38.915433}, {"rental_uris": {"ios": "https://dc.lft.to/lastmile_qr_scan", "android": "https://dc.lft.to/lastmile_qr_scan"}, "is_reserved": 0, "fusion_lat": 0.0, "type": "electric_scooter", "bike_id": "0f0268ddc74849f698014fb14f0ec0c0", "is_disabled": 0, "lon": -76.99482983333333, "fusion_lon": 0.0, "name": "0f0268ddc74849f698014fb14f0ec0c0", "lat": 38.882707333333336}, {"rental_uris": {"ios": "https://dc.lft.to/lastmile_qr_scan", "android": "https://dc.lft.to/lastmile_qr_scan"}, "is_reserved": 0, "fusion_lat": 0.0, "type": "electric_scooter", "bike_id": "ea0a24945a011fee19492f71b6b501bc", "is_disabled": 0, "lon": -77.04106183333333, "fusion_lon": 0.0, "name": "ea0a24945a011fee19492f71b6b501bc", "lat": 38.917733}, {"rental_uris": {"ios": "https://dc.lft.to/lastmile_qr_scan", "android": "https://dc.lft.to/lastmile_qr_scan"}, "is_reserved": 0, "fusion_lat": 0.0, "type": "electric_scooter", "bike_id": "787be910470f054a40bd957db73e1623", "is_disabled": 0, "lon": -77.048043, "fusion_lon": 0.0, "name": "787be910470f054a40bd957db73e1623", "lat": 38.892247833333336}, {"rental_uris": {"ios": "https://dc.lft.to/lastmile_qr_scan", "android": "https://dc.lft.to/lastmile_qr_scan"}, "is_reserved": 0, "fusion_lat": 0.0, "type": "electric_scooter", "bike_id": "4141f5613d450cef7be4a460c069e60f", "is_disabled": 0, "lon": -77.042003, "fusion_lon": 0.0, "name": "4141f5613d450cef7be4a460c069e60f", "lat": 38.923388}, {"rental_uris": {"ios": "https://dc.lft.to/lastmile_qr_scan", "android": "https://dc.lft.to/lastmile_qr_scan"}, "is_reserved": 0, "fusion_lat": 0.0, "type": "electric_scooter", "bike_id": "b492f32b346f8f670685120c4a029a57", "is_disabled": 0, "lon": -77.02528083333333, "fusion_lon": 0.0, "name": "b492f32b346f8f670685120c4a029a57", "lat": 38.924980166666664}, {"rental_uris": {"ios": "https://dc.lft.to/lastmile_qr_scan", "android": "https://dc.lft.to/lastmile_qr_scan"}, "is_reserved": 0, "fusion_lat": 0.0, "type": "electric_scooter", "bike_id": "e6617854cc87849b8ce820fb63a73f8b", "is_disabled": 0, "lon": -77.02377983333334, "fusion_lon": 0.0, "name": "e6617854cc87849b8ce820fb63a73f8b", "lat": 38.8919725}, {"rental_uris": {"ios": "https://dc.lft.to/lastmile_qr_scan", "android": "https://dc.lft.to/lastmile_qr_scan"}, "is_reserved": 0, "fusion_lat": 0.0, "type": "electric_scooter", "bike_id": "b5c10fa7a5cc75a1b7f43a7de3e3246c", "is_disabled": 0, "lon": -77.001977, "fusion_lon": 0.0, "name": "b5c10fa7a5cc75a1b7f43a7de3e3246c", "lat": 38.902444}, {"rental_uris": {"ios": "https://dc.lft.to/lastmile_qr_scan", "android": "https://dc.lft.to/lastmile_qr_scan"}, "is_reserved": 0, "fusion_lat": 0.0, "type": "electric_scooter", "bike_id": "ced2e23fae500bdb1a276981defe7e31", "is_disabled": 0, "lon": -76.99613933333333, "fusion_lon": 0.0, "name": "ced2e23fae500bdb1a276981defe7e31", "lat": 38.884525333333336}, {"rental_uris": {"ios": "https://dc.lft.to/lastmile_qr_scan", "android": "https://dc.lft.to/lastmile_qr_scan"}, "is_reserved": 0, "fusion_lat": 0.0, "type": "electric_scooter", "bike_id": "3e968cf8c143d710074cfbbe4994614e", "is_disabled": 0, "lon": -77.02719216666667, "fusion_lon": 0.0, "name": "3e968cf8c143d710074cfbbe4994614e", "lat": 38.918177166666666}, {"rental_uris": {"ios": "https://dc.lft.to/lastmile_qr_scan", "android": "https://dc.lft.to/lastmile_qr_scan"}, "is_reserved": 0, "fusion_lat": 0.0, "type": "electric_scooter", "bike_id": "8236bf80e637164d26288229fee3bc76", "is_disabled": 0, "lon": -76.928969, "fusion_lon": 0.0, "name": "8236bf80e637164d26288229fee3bc76", "lat": 38.901807}, {"rental_uris": {"ios": "https://dc.lft.to/lastmile_qr_scan", "android": "https://dc.lft.to/lastmile_qr_scan"}, "is_reserved": 0, "fusion_lat": 0.0, "type": "electric_scooter", "bike_id": "a9565059d71d8274e8096c59ddcf6333", "is_disabled": 0, "lon": -77.01803433333333, "fusion_lon": 0.0, "name": "a9565059d71d8274e8096c59ddcf6333", "lat": 38.887441333333335}, {"rental_uris": {"ios": "https://dc.lft.to/lastmile_qr_scan", "android": "https://dc.lft.to/lastmile_qr_scan"}, "is_reserved": 0, "fusion_lat": 0.0, "type": "electric_scooter", "bike_id": "6a0a06f02f68841ec1994765e64e1929", "is_disabled": 0, "lon": -77.00915416666666, "fusion_lon": 0.0, "name": "6a0a06f02f68841ec1994765e64e1929", "lat": 38.8763605}, {"rental_uris": {"ios": "https://dc.lft.to/lastmile_qr_scan", "android": "https://dc.lft.to/lastmile_qr_scan"}, "is_reserved": 0, "fusion_lat": 0.0, "type": "electric_scooter", "bike_id": "62d32b34ecb634268774b4c3d22bdee4", "is_disabled": 0, "lon": -77.02387916666666, "fusion_lon": 0.0, "name": "62d32b34ecb634268774b4c3d22bdee4", "lat": 38.926577333333334}, {"rental_uris": {"ios": "https://dc.lft.to/lastmile_qr_scan", "android": "https://dc.lft.to/lastmile_qr_scan"}, "is_reserved": 0, "fusion_lat": 0.0, "type": "electric_scooter", "bike_id": "c88052090e6f5006bf0b9fdf77dd8860", "is_disabled": 0, "lon": -77.04334666666666, "fusion_lon": 0.0, "name": "c88052090e6f5006bf0b9fdf77dd8860", "lat": 38.90330633333333}, {"rental_uris": {"ios": "https://dc.lft.to/lastmile_qr_scan", "android": "https://dc.lft.to/lastmile_qr_scan"}, "is_reserved": 0, "fusion_lat": 0.0, "type": "electric_scooter", "bike_id": "a240dc6c0148cbacbf09e36afb02eb42", "is_disabled": 0, "lon": -77.0229245, "fusion_lon": 0.0, "name": "a240dc6c0148cbacbf09e36afb02eb42", "lat": 38.91436016666667}, {"rental_uris": {"ios": "https://dc.lft.to/lastmile_qr_scan", "android": "https://dc.lft.to/lastmile_qr_scan"}, "is_reserved": 0, "fusion_lat": 0.0, "type": "electric_scooter", "bike_id": "918a2d9d7f97788437f634c846dcae68", "is_disabled": 0, "lon": -77.05010833333333, "fusion_lon": 0.0, "name": "918a2d9d7f97788437f634c846dcae68", "lat": 38.906268}, {"rental_uris": {"ios": "https://dc.lft.to/lastmile_qr_scan", "android": "https://dc.lft.to/lastmile_qr_scan"}, "is_reserved": 0, "fusion_lat": 0.0, "type": "electric_scooter", "bike_id": "2269fa07e80faeaedb9cd1c5a73f28e5", "is_disabled": 0, "lon": -77.0538255, "fusion_lon": 0.0, "name": "2269fa07e80faeaedb9cd1c5a73f28e5", "lat": 38.904904}, {"rental_uris": {"ios": "https://dc.lft.to/lastmile_qr_scan", "android": "https://dc.lft.to/lastmile_qr_scan"}, "is_reserved": 0, "fusion_lat": 0.0, "type": "electric_scooter", "bike_id": "59e166b246336b9864f819508e9d312b", "is_disabled": 0, "lon": -77.01677083333334, "fusion_lon": 0.0, "name": "59e166b246336b9864f819508e9d312b", "lat": 38.920425}, {"rental_uris": {"ios": "https://dc.lft.to/lastmile_qr_scan", "android": "https://dc.lft.to/lastmile_qr_scan"}, "is_reserved": 0, "fusion_lat": 0.0, "type": "electric_bike", "bike_id": "ff07b5652fa0ff6711f86123efe46d85", "is_disabled": 0, "lon": -77.00717883333333, "fusion_lon": 0.0, "name": "ff07b5652fa0ff6711f86123efe46d85", "lat": 38.87696716666667}, {"rental_uris": {"ios": "https://dc.lft.to/lastmile_qr_scan", "android": "https://dc.lft.to/lastmile_qr_scan"}, "is_reserved": 0, "fusion_lat": 0.0, "type": "electric_scooter", "bike_id": "48608968661f09f7483fa25927aee434", "is_disabled": 0, "lon": -77.0585165, "fusion_lon": 0.0, "name": "48608968661f09f7483fa25927aee434", "lat": 38.905262666666665}, {"rental_uris": {"ios": "https://dc.lft.to/lastmile_qr_scan", "android": "https://dc.lft.to/lastmile_qr_scan"}, "is_reserved": 0, "fusion_lat": 0.0, "type": "electric_scooter", "bike_id": "d500274c9d3bc78d5ec81f75925aa102", "is_disabled": 0, "lon": -77.022464, "fusion_lon": 0.0, "name": "d500274c9d3bc78d5ec81f75925aa102", "lat": 38.90858733333334}, {"rental_uris": {"ios": "https://dc.lft.to/lastmile_qr_scan", "android": "https://dc.lft.to/lastmile_qr_scan"}, "is_reserved": 0, "fusion_lat": 0.0, "type": "electric_scooter", "bike_id": "76994960a9800ded5154f2af4daf0cb9", "is_disabled": 0, "lon": -77.0242415, "fusion_lon": 0.0, "name": "76994960a9800ded5154f2af4daf0cb9", "lat": 38.926557833333334}, {"rental_uris": {"ios": "https://dc.lft.to/lastmile_qr_scan", "android": "https://dc.lft.to/lastmile_qr_scan"}, "is_reserved": 0, "fusion_lat": 0.0, "type": "electric_scooter", "bike_id": "a4ac401075c31c0a27c0ea263575deea", "is_disabled": 0, "lon": -77.02374983333333, "fusion_lon": 0.0, "name": "a4ac401075c31c0a27c0ea263575deea", "lat": 38.90732533333333}, {"rental_uris": {"ios": "https://dc.lft.to/lastmile_qr_scan", "android": "https://dc.lft.to/lastmile_qr_scan"}, "is_reserved": 0, "fusion_lat": 0.0, "type": "electric_scooter", "bike_id": "2f95eb3c234adbdc574c07fb9eeeea5e", "is_disabled": 0, "lon": -77.047385, "fusion_lon": 0.0, "name": "2f95eb3c234adbdc574c07fb9eeeea5e", "lat": 38.897362}, {"rental_uris": {"ios": "https://dc.lft.to/lastmile_qr_scan", "android": "https://dc.lft.to/lastmile_qr_scan"}, "is_reserved": 0, "fusion_lat": 0.0, "type": "electric_scooter", "bike_id": "4d130773a48c8b8ba2f62fa6a705a160", "is_disabled": 0, "lon": -77.02697416666666, "fusion_lon": 0.0, "name": "4d130773a48c8b8ba2f62fa6a705a160", "lat": 38.89634216666666}, {"rental_uris": {"ios": "https://dc.lft.to/lastmile_qr_scan", "android": "https://dc.lft.to/lastmile_qr_scan"}, "is_reserved": 0, "fusion_lat": 0.0, "type": "electric_scooter", "bike_id": "f326cebafab55be0c39f5ea50d38a59c", "is_disabled": 0, "lon": -76.98360066666666, "fusion_lon": 0.0, "name": "f326cebafab55be0c39f5ea50d38a59c", "lat": 38.89436466666667}, {"rental_uris": {"ios": "https://dc.lft.to/lastmile_qr_scan", "android": "https://dc.lft.to/lastmile_qr_scan"}, "is_reserved": 0, "fusion_lat": 0.0, "type": "electric_scooter", "bike_id": "d382a719119abf21e30522375e9ab676", "is_disabled": 0, "lon": -76.9955555, "fusion_lon": 0.0, "name": "d382a719119abf21e30522375e9ab676", "lat": 38.90022116666667}, {"rental_uris": {"ios": "https://dc.lft.to/lastmile_qr_scan", "android": "https://dc.lft.to/lastmile_qr_scan"}, "is_reserved": 0, "fusion_lat": 0.0, "type": "electric_scooter", "bike_id": "f6a2a5890ce321e458e877f63ef51c89", "is_disabled": 0, "lon": -77.02695183333333, "fusion_lon": 0.0, "name": "f6a2a5890ce321e458e877f63ef51c89", "lat": 38.894542666666666}, {"rental_uris": {"ios": "https://dc.lft.to/lastmile_qr_scan", "android": "https://dc.lft.to/lastmile_qr_scan"}, "is_reserved": 0, "fusion_lat": 0.0, "type": "electric_scooter", "bike_id": "f44625d1e800c5ced63dac837f96c258", "is_disabled": 0, "lon": -77.0196115, "fusion_lon": 0.0, "name": "f44625d1e800c5ced63dac837f96c258", "lat": 38.89258066666667}, {"rental_uris": {"ios": "https://dc.lft.to/lastmile_qr_scan", "android": "https://dc.lft.to/lastmile_qr_scan"}, "is_reserved": 0, "fusion_lat": 0.0, "type": "electric_scooter", "bike_id": "b8b703f8363e2fefdee2545d4036dde9", "is_disabled": 0, "lon": -77.01660083333333, "fusion_lon": 0.0, "name": "b8b703f8363e2fefdee2545d4036dde9", "lat": 38.89472633333333}, {"rental_uris": {"ios": "https://dc.lft.to/lastmile_qr_scan", "android": "https://dc.lft.to/lastmile_qr_scan"}, "is_reserved": 0, "fusion_lat": 0.0, "type": "electric_scooter", "bike_id": "9793321be9a2566a49d5546a0d35d95d", "is_disabled": 0, "lon": -77.03424816666667, "fusion_lon": 0.0, "name": "9793321be9a2566a49d5546a0d35d95d", "lat": 38.90250266666666}, {"rental_uris": {"ios": "https://dc.lft.to/lastmile_qr_scan", "android": "https://dc.lft.to/lastmile_qr_scan"}, "is_reserved": 0, "fusion_lat": 0.0, "type": "electric_scooter", "bike_id": "3331827b5b0f2f8e7328a9b12746e438", "is_disabled": 0, "lon": -77.026498, "fusion_lon": 0.0, "name": "3331827b5b0f2f8e7328a9b12746e438", "lat": 38.9248235}, {"rental_uris": {"ios": "https://dc.lft.to/lastmile_qr_scan", "android": "https://dc.lft.to/lastmile_qr_scan"}, "is_reserved": 0, "fusion_lat": 0.0, "type": "electric_scooter", "bike_id": "335abe4c1f17b576f380aada91098fc9", "is_disabled": 0, "lon": -76.98369716666667, "fusion_lon": 0.0, "name": "335abe4c1f17b576f380aada91098fc9", "lat": 38.91501066666667}, {"rental_uris": {"ios": "https://dc.lft.to/lastmile_qr_scan", "android": "https://dc.lft.to/lastmile_qr_scan"}, "is_reserved": 0, "fusion_lat": 0.0, "type": "electric_scooter", "bike_id": "388901fd944b89fd01cfaa66b6145d83", "is_disabled": 0, "lon": -77.01773466666667, "fusion_lon": 0.0, "name": "388901fd944b89fd01cfaa66b6145d83", "lat": 38.88304816666667}, {"rental_uris": {"ios": "https://dc.lft.to/lastmile_qr_scan", "android": "https://dc.lft.to/lastmile_qr_scan"}, "is_reserved": 0, "fusion_lat": 0.0, "type": "electric_scooter", "bike_id": "0df90185fc2375e4fa95e1c1aef78407", "is_disabled": 0, "lon": -77.06156233333333, "fusion_lon": 0.0, "name": "0df90185fc2375e4fa95e1c1aef78407", "lat": 38.905249}, {"rental_uris": {"ios": "https://dc.lft.to/lastmile_qr_scan", "android": "https://dc.lft.to/lastmile_qr_scan"}, "is_reserved": 0, "fusion_lat": 0.0, "type": "electric_scooter", "bike_id": "c307b785a317395f641fa2065ffb94ca", "is_disabled": 0, "lon": -77.02903766666667, "fusion_lon": 0.0, "name": "c307b785a317395f641fa2065ffb94ca", "lat": 38.92321533333333}, {"rental_uris": {"ios": "https://dc.lft.to/lastmile_qr_scan", "android": "https://dc.lft.to/lastmile_qr_scan"}, "is_reserved": 0, "fusion_lat": 0.0, "type": "electric_scooter", "bike_id": "01f51876a0168100c1c3db49e166eb6f", "is_disabled": 0, "lon": -77.01250616666667, "fusion_lon": 0.0, "name": "01f51876a0168100c1c3db49e166eb6f", "lat": 38.886145166666665}, {"rental_uris": {"ios": "https://dc.lft.to/lastmile_qr_scan", "android": "https://dc.lft.to/lastmile_qr_scan"}, "is_reserved": 0, "fusion_lat": 0.0, "type": "electric_bike", "bike_id": "d80ffef5f3f08b02eab42983fda16669", "is_disabled": 0, "lon": -76.95668233333333, "fusion_lon": 0.0, "name": "d80ffef5f3f08b02eab42983fda16669", "lat": 38.8849035}, {"rental_uris": {"ios": "https://dc.lft.to/lastmile_qr_scan", "android": "https://dc.lft.to/lastmile_qr_scan"}, "is_reserved": 0, "fusion_lat": 0.0, "type": "electric_scooter", "bike_id": "0cc316ac3d9aed3b0a1cf2a805973ee7", "is_disabled": 0, "lon": -76.99466816666667, "fusion_lon": 0.0, "name": "0cc316ac3d9aed3b0a1cf2a805973ee7", "lat": 38.897278666666665}, {"rental_uris": {"ios": "https://dc.lft.to/lastmile_qr_scan", "android": "https://dc.lft.to/lastmile_qr_scan"}, "is_reserved": 0, "fusion_lat": 0.0, "type": "electric_scooter", "bike_id": "e520fa59bf2e1694b9b107077d89b862", "is_disabled": 0, "lon": -77.02157566666666, "fusion_lon": 0.0, "name": "e520fa59bf2e1694b9b107077d89b862", "lat": 38.9248465}, {"rental_uris": {"ios": "https://dc.lft.to/lastmile_qr_scan", "android": "https://dc.lft.to/lastmile_qr_scan"}, "is_reserved": 0, "fusion_lat": 0.0, "type": "electric_scooter", "bike_id": "c122e174f5b48429291f9786a7757221", "is_disabled": 0, "lon": -77.06912366666667, "fusion_lon": 0.0, "name": "c122e174f5b48429291f9786a7757221", "lat": 38.90866916666667}, {"rental_uris": {"ios": "https://dc.lft.to/lastmile_qr_scan", "android": "https://dc.lft.to/lastmile_qr_scan"}, "is_reserved": 0, "fusion_lat": 0.0, "type": "electric_scooter", "bike_id": "c5740ec828e3d670709257d987f068bd", "is_disabled": 0, "lon": -77.02740033333333, "fusion_lon": 0.0, "name": "c5740ec828e3d670709257d987f068bd", "lat": 38.88150483333333}, {"rental_uris": {"ios": "https://dc.lft.to/lastmile_qr_scan", "android": "https://dc.lft.to/lastmile_qr_scan"}, "is_reserved": 0, "fusion_lat": 0.0, "type": "electric_scooter", "bike_id": "3c7dca1bf5b897af8afd994bbd0dd7de", "is_disabled": 0, "lon": -77.01799066666666, "fusion_lon": 0.0, "name": "3c7dca1bf5b897af8afd994bbd0dd7de", "lat": 38.901341}, {"rental_uris": {"ios": "https://dc.lft.to/lastmile_qr_scan", "android": "https://dc.lft.to/lastmile_qr_scan"}, "is_reserved": 0, "fusion_lat": 0.0, "type": "electric_scooter", "bike_id": "30108b1334e0be39a5b1795d04e85845", "is_disabled": 0, "lon": -76.99946916666667, "fusion_lon": 0.0, "name": "30108b1334e0be39a5b1795d04e85845", "lat": 38.90037133333333}, {"rental_uris": {"ios": "https://dc.lft.to/lastmile_qr_scan", "android": "https://dc.lft.to/lastmile_qr_scan"}, "is_reserved": 0, "fusion_lat": 0.0, "type": "electric_scooter", "bike_id": "c5af1d747e16336321be44a7d738796b", "is_disabled": 0, "lon": -77.03217466666666, "fusion_lon": 0.0, "name": "c5af1d747e16336321be44a7d738796b", "lat": 38.90772616666667}, {"rental_uris": {"ios": "https://dc.lft.to/lastmile_qr_scan", "android": "https://dc.lft.to/lastmile_qr_scan"}, "is_reserved": 0, "fusion_lat": 0.0, "type": "electric_scooter", "bike_id": "10b9c935a5a8e77ee177c5b915d22f21", "is_disabled": 0, "lon": -77.0084605, "fusion_lon": 0.0, "name": "10b9c935a5a8e77ee177c5b915d22f21", "lat": 38.8971085}, {"rental_uris": {"ios": "https://dc.lft.to/lastmile_qr_scan", "android": "https://dc.lft.to/lastmile_qr_scan"}, "is_reserved": 0, "fusion_lat": 0.0, "type": "electric_scooter", "bike_id": "fbdad9476e7ea4a27e99489b83dfe94b", "is_disabled": 0, "lon": -77.03465933333334, "fusion_lon": 0.0, "name": "fbdad9476e7ea4a27e99489b83dfe94b", "lat": 38.90558333333333}, {"rental_uris": {"ios": "https://dc.lft.to/lastmile_qr_scan", "android": "https://dc.lft.to/lastmile_qr_scan"}, "is_reserved": 0, "fusion_lat": 0.0, "type": "electric_scooter", "bike_id": "6743185e557e9101e191b788ae958ca3", "is_disabled": 0, "lon": -77.042679, "fusion_lon": 0.0, "name": "6743185e557e9101e191b788ae958ca3", "lat": 38.895323}, {"rental_uris": {"ios": "https://dc.lft.to/lastmile_qr_scan", "android": "https://dc.lft.to/lastmile_qr_scan"}, "is_reserved": 0, "fusion_lat": 0.0, "type": "electric_scooter", "bike_id": "fcdae2c6eecbe41ca56928931ea0506d", "is_disabled": 0, "lon": -76.98705366666667, "fusion_lon": 0.0, "name": "fcdae2c6eecbe41ca56928931ea0506d", "lat": 38.900593}, {"rental_uris": {"ios": "https://dc.lft.to/lastmile_qr_scan", "android": "https://dc.lft.to/lastmile_qr_scan"}, "is_reserved": 0, "fusion_lat": 0.0, "type": "electric_scooter", "bike_id": "71bb3bbcc130861cea29c281242a6961", "is_disabled": 0, "lon": -77.03839083333334, "fusion_lon": 0.0, "name": "71bb3bbcc130861cea29c281242a6961", "lat": 38.9418945}, {"rental_uris": {"ios": "https://dc.lft.to/lastmile_qr_scan", "android": "https://dc.lft.to/lastmile_qr_scan"}, "is_reserved": 0, "fusion_lat": 0.0, "type": "electric_scooter", "bike_id": "fb7ac09f33407f915e4dfd779f6c60d2", "is_disabled": 0, "lon": -77.04091533333333, "fusion_lon": 0.0, "name": "fb7ac09f33407f915e4dfd779f6c60d2", "lat": 38.90498066666667}, {"rental_uris": {"ios": "https://dc.lft.to/lastmile_qr_scan", "android": "https://dc.lft.to/lastmile_qr_scan"}, "is_reserved": 0, "fusion_lat": 0.0, "type": "electric_scooter", "bike_id": "1d89e575a0870670f29406c3ea3bb43d", "is_disabled": 0, "lon": -77.0237885, "fusion_lon": 0.0, "name": "1d89e575a0870670f29406c3ea3bb43d", "lat": 38.911569}, {"rental_uris": {"ios": "https://dc.lft.to/lastmile_qr_scan", "android": "https://dc.lft.to/lastmile_qr_scan"}, "is_reserved": 0, "fusion_lat": 0.0, "type": "electric_scooter", "bike_id": "82e9f96d9163431510d38d8bccfae80c", "is_disabled": 0, "lon": -77.0100145, "fusion_lon": 0.0, "name": "82e9f96d9163431510d38d8bccfae80c", "lat": 38.90261616666667}, {"rental_uris": {"ios": "https://dc.lft.to/lastmile_qr_scan", "android": "https://dc.lft.to/lastmile_qr_scan"}, "is_reserved": 0, "fusion_lat": 0.0, "type": "electric_scooter", "bike_id": "4714591b2925c3b906266e2ca3058b40", "is_disabled": 0, "lon": -77.0491765, "fusion_lon": 0.0, "name": "4714591b2925c3b906266e2ca3058b40", "lat": 38.89684666666667}, {"rental_uris": {"ios": "https://dc.lft.to/lastmile_qr_scan", "android": "https://dc.lft.to/lastmile_qr_scan"}, "is_reserved": 0, "fusion_lat": 0.0, "type": "electric_scooter", "bike_id": "7c64bc41f483b53aa35c961eaa886142", "is_disabled": 0, "lon": -77.016734, "fusion_lon": 0.0, "name": "7c64bc41f483b53aa35c961eaa886142", "lat": 38.920475}, {"rental_uris": {"ios": "https://dc.lft.to/lastmile_qr_scan", "android": "https://dc.lft.to/lastmile_qr_scan"}, "is_reserved": 0, "fusion_lat": 0.0, "type": "electric_scooter", "bike_id": "f4c164c2ff7aef7177976c0bcd0f2572", "is_disabled": 0, "lon": -77.02849883333333, "fusion_lon": 0.0, "name": "f4c164c2ff7aef7177976c0bcd0f2572", "lat": 38.887444}, {"rental_uris": {"ios": "https://dc.lft.to/lastmile_qr_scan", "android": "https://dc.lft.to/lastmile_qr_scan"}, "is_reserved": 0, "fusion_lat": 0.0, "type": "electric_scooter", "bike_id": "fd8744af650bbe1a15afbcf123019d8b", "is_disabled": 0, "lon": -77.02184383333334, "fusion_lon": 0.0, "name": "fd8744af650bbe1a15afbcf123019d8b", "lat": 38.892316}, {"rental_uris": {"ios": "https://dc.lft.to/lastmile_qr_scan", "android": "https://dc.lft.to/lastmile_qr_scan"}, "is_reserved": 0, "fusion_lat": 0.0, "type": "electric_scooter", "bike_id": "c536abf94127fd4bddb3aa34cba1974f", "is_disabled": 0, "lon": -77.04238333333333, "fusion_lon": 0.0, "name": "c536abf94127fd4bddb3aa34cba1974f", "lat": 38.92150133333333}, {"rental_uris": {"ios": "https://dc.lft.to/lastmile_qr_scan", "android": "https://dc.lft.to/lastmile_qr_scan"}, "is_reserved": 0, "fusion_lat": 0.0, "type": "electric_scooter", "bike_id": "79c7c2a104ac7386ae37c8668d4abff1", "is_disabled": 0, "lon": -76.999465, "fusion_lon": 0.0, "name": "79c7c2a104ac7386ae37c8668d4abff1", "lat": 38.84297216666667}, {"rental_uris": {"ios": "https://dc.lft.to/lastmile_qr_scan", "android": "https://dc.lft.to/lastmile_qr_scan"}, "is_reserved": 0, "fusion_lat": 0.0, "type": "electric_scooter", "bike_id": "3e2e2171bac364f6b1fc1569a4e12d60", "is_disabled": 0, "lon": -77.0021055, "fusion_lon": 0.0, "name": "3e2e2171bac364f6b1fc1569a4e12d60", "lat": 38.9002315}, {"rental_uris": {"ios": "https://dc.lft.to/lastmile_qr_scan", "android": "https://dc.lft.to/lastmile_qr_scan"}, "is_reserved": 0, "fusion_lat": 0.0, "type": "electric_scooter", "bike_id": "31e30877207124372c9b2caffb77a4fd", "is_disabled": 0, "lon": -76.996236, "fusion_lon": 0.0, "name": "31e30877207124372c9b2caffb77a4fd", "lat": 38.90039566666667}, {"rental_uris": {"ios": "https://dc.lft.to/lastmile_qr_scan", "android": "https://dc.lft.to/lastmile_qr_scan"}, "is_reserved": 0, "fusion_lat": 0.0, "type": "electric_scooter", "bike_id": "4d8432e8b6eeb3d9751315427e759116", "is_disabled": 0, "lon": -77.0006835, "fusion_lon": 0.0, "name": "4d8432e8b6eeb3d9751315427e759116", "lat": 38.925514}, {"rental_uris": {"ios": "https://dc.lft.to/lastmile_qr_scan", "android": "https://dc.lft.to/lastmile_qr_scan"}, "is_reserved": 0, "fusion_lat": 0.0, "type": "electric_scooter", "bike_id": "c0aece54ff9e334e5f28632b360061bb", "is_disabled": 0, "lon": -77.04274066666666, "fusion_lon": 0.0, "name": "c0aece54ff9e334e5f28632b360061bb", "lat": 38.90861966666667}, {"rental_uris": {"ios": "https://dc.lft.to/lastmile_qr_scan", "android": "https://dc.lft.to/lastmile_qr_scan"}, "is_reserved": 0, "fusion_lat": 0.0, "type": "electric_scooter", "bike_id": "6fd01cf0c66fc97f78cd2d1c7d766121", "is_disabled": 0, "lon": -77.04124366666667, "fusion_lon": 0.0, "name": "6fd01cf0c66fc97f78cd2d1c7d766121", "lat": 38.91707566666667}, {"rental_uris": {"ios": "https://dc.lft.to/lastmile_qr_scan", "android": "https://dc.lft.to/lastmile_qr_scan"}, "is_reserved": 0, "fusion_lat": 0.0, "type": "electric_scooter", "bike_id": "3bbfdd581b12909c935db796bf4c8b11", "is_disabled": 0, "lon": -77.042388, "fusion_lon": 0.0, "name": "3bbfdd581b12909c935db796bf4c8b11", "lat": 38.90129983333333}, {"rental_uris": {"ios": "https://dc.lft.to/lastmile_qr_scan", "android": "https://dc.lft.to/lastmile_qr_scan"}, "is_reserved": 0, "fusion_lat": 0.0, "type": "electric_scooter", "bike_id": "f4b0322ab724abee3d17d18b05fd4083", "is_disabled": 0, "lon": -76.98565083333334, "fusion_lon": 0.0, "name": "f4b0322ab724abee3d17d18b05fd4083", "lat": 38.86683166666667}, {"rental_uris": {"ios": "https://dc.lft.to/lastmile_qr_scan", "android": "https://dc.lft.to/lastmile_qr_scan"}, "is_reserved": 0, "fusion_lat": 0.0, "type": "electric_scooter", "bike_id": "2b4184176250f3cf780d7607c708c6d1", "is_disabled": 0, "lon": -77.00680966666667, "fusion_lon": 0.0, "name": "2b4184176250f3cf780d7607c708c6d1", "lat": 38.877181666666665}, {"rental_uris": {"ios": "https://dc.lft.to/lastmile_qr_scan", "android": "https://dc.lft.to/lastmile_qr_scan"}, "is_reserved": 0, "fusion_lat": 0.0, "type": "electric_scooter", "bike_id": "252cd293acfc6255b9bc890bcfe2b22f", "is_disabled": 0, "lon": -77.04172116666666, "fusion_lon": 0.0, "name": "252cd293acfc6255b9bc890bcfe2b22f", "lat": 38.91983483333333}, {"rental_uris": {"ios": "https://dc.lft.to/lastmile_qr_scan", "android": "https://dc.lft.to/lastmile_qr_scan"}, "is_reserved": 0, "fusion_lat": 0.0, "type": "electric_scooter", "bike_id": "c44b7d0de35445ee2595a76b5a561b7a", "is_disabled": 0, "lon": -77.02682833333333, "fusion_lon": 0.0, "name": "c44b7d0de35445ee2595a76b5a561b7a", "lat": 38.9104865}, {"rental_uris": {"ios": "https://dc.lft.to/lastmile_qr_scan", "android": "https://dc.lft.to/lastmile_qr_scan"}, "is_reserved": 0, "fusion_lat": 0.0, "type": "electric_scooter", "bike_id": "40ed17a647c042b07f09e5e42c90bd34", "is_disabled": 0, "lon": -77.0467105, "fusion_lon": 0.0, "name": "40ed17a647c042b07f09e5e42c90bd34", "lat": 38.89558066666667}, {"rental_uris": {"ios": "https://dc.lft.to/lastmile_qr_scan", "android": "https://dc.lft.to/lastmile_qr_scan"}, "is_reserved": 0, "fusion_lat": 0.0, "type": "electric_scooter", "bike_id": "9e6797a755dde529e1a5dd206edac4de", "is_disabled": 0, "lon": -77.07847266666667, "fusion_lon": 0.0, "name": "9e6797a755dde529e1a5dd206edac4de", "lat": 38.93157983333333}, {"rental_uris": {"ios": "https://dc.lft.to/lastmile_qr_scan", "android": "https://dc.lft.to/lastmile_qr_scan"}, "is_reserved": 0, "fusion_lat": 0.0, "type": "electric_scooter", "bike_id": "4a6536abb083294d7164b1d8674a0b64", "is_disabled": 0, "lon": -77.01950666666667, "fusion_lon": 0.0, "name": "4a6536abb083294d7164b1d8674a0b64", "lat": 38.92420383333334}, {"rental_uris": {"ios": "https://dc.lft.to/lastmile_qr_scan", "android": "https://dc.lft.to/lastmile_qr_scan"}, "is_reserved": 0, "fusion_lat": 0.0, "type": "electric_scooter", "bike_id": "1db83a211204e0a81650631681c82f28", "is_disabled": 0, "lon": -77.04686916666667, "fusion_lon": 0.0, "name": "1db83a211204e0a81650631681c82f28", "lat": 38.892253}, {"rental_uris": {"ios": "https://dc.lft.to/lastmile_qr_scan", "android": "https://dc.lft.to/lastmile_qr_scan"}, "is_reserved": 0, "fusion_lat": 0.0, "type": "electric_scooter", "bike_id": "f7beca19cc3ba9296cb3eea591ca9ca4", "is_disabled": 0, "lon": -77.01459983333334, "fusion_lon": 0.0, "name": "f7beca19cc3ba9296cb3eea591ca9ca4", "lat": 38.917686333333336}, {"rental_uris": {"ios": "https://dc.lft.to/lastmile_qr_scan", "android": "https://dc.lft.to/lastmile_qr_scan"}, "is_reserved": 0, "fusion_lat": 0.0, "type": "electric_scooter", "bike_id": "773e2c8ec621f8ffb28f262a8aa4babc", "is_disabled": 0, "lon": -77.00369383333333, "fusion_lon": 0.0, "name": "773e2c8ec621f8ffb28f262a8aa4babc", "lat": 38.8973145}, {"rental_uris": {"ios": "https://dc.lft.to/lastmile_qr_scan", "android": "https://dc.lft.to/lastmile_qr_scan"}, "is_reserved": 0, "fusion_lat": 0.0, "type": "electric_scooter", "bike_id": "53c41915ce28573750556d3e73669b5d", "is_disabled": 0, "lon": -76.98717916666666, "fusion_lon": 0.0, "name": "53c41915ce28573750556d3e73669b5d", "lat": 38.866271833333336}, {"rental_uris": {"ios": "https://dc.lft.to/lastmile_qr_scan", "android": "https://dc.lft.to/lastmile_qr_scan"}, "is_reserved": 0, "fusion_lat": 0.0, "type": "electric_scooter", "bike_id": "6413207d41afe42a94a98b09e9f038f2", "is_disabled": 0, "lon": -77.02509066666667, "fusion_lon": 0.0, "name": "6413207d41afe42a94a98b09e9f038f2", "lat": 38.907215666666666}, {"rental_uris": {"ios": "https://dc.lft.to/lastmile_qr_scan", "android": "https://dc.lft.to/lastmile_qr_scan"}, "is_reserved": 0, "fusion_lat": 0.0, "type": "electric_scooter", "bike_id": "b0975f7061fa3b45cd20ea64e8f67272", "is_disabled": 0, "lon": -76.99487866666666, "fusion_lon": 0.0, "name": "b0975f7061fa3b45cd20ea64e8f67272", "lat": 38.86217716666667}, {"rental_uris": {"ios": "https://dc.lft.to/lastmile_qr_scan", "android": "https://dc.lft.to/lastmile_qr_scan"}, "is_reserved": 0, "fusion_lat": 0.0, "type": "electric_scooter", "bike_id": "0d934739d28aba161bf4a7f959d00c2d", "is_disabled": 0, "lon": -77.0395345, "fusion_lon": 0.0, "name": "0d934739d28aba161bf4a7f959d00c2d", "lat": 38.90464766666667}, {"rental_uris": {"ios": "https://dc.lft.to/lastmile_qr_scan", "android": "https://dc.lft.to/lastmile_qr_scan"}, "is_reserved": 0, "fusion_lat": 0.0, "type": "electric_scooter", "bike_id": "2053fab864befb177eac7657401a67db", "is_disabled": 0, "lon": -77.02844183333333, "fusion_lon": 0.0, "name": "2053fab864befb177eac7657401a67db", "lat": 38.8874675}, {"rental_uris": {"ios": "https://dc.lft.to/lastmile_qr_scan", "android": "https://dc.lft.to/lastmile_qr_scan"}, "is_reserved": 0, "fusion_lat": 0.0, "type": "electric_scooter", "bike_id": "18b6e92f7c801e90e9c14faf4b0358c5", "is_disabled": 0, "lon": -77.0042535, "fusion_lon": 0.0, "name": "18b6e92f7c801e90e9c14faf4b0358c5", "lat": 38.877013}, {"rental_uris": {"ios": "https://dc.lft.to/lastmile_qr_scan", "android": "https://dc.lft.to/lastmile_qr_scan"}, "is_reserved": 0, "fusion_lat": 0.0, "type": "electric_scooter", "bike_id": "9c2e99125c7aca9b7234ec63e5d51019", "is_disabled": 0, "lon": -77.07161783333333, "fusion_lon": 0.0, "name": "9c2e99125c7aca9b7234ec63e5d51019", "lat": 38.9086895}, {"rental_uris": {"ios": "https://dc.lft.to/lastmile_qr_scan", "android": "https://dc.lft.to/lastmile_qr_scan"}, "is_reserved": 0, "fusion_lat": 0.0, "type": "electric_scooter", "bike_id": "06ac2fcf5dc2a616553310912b966596", "is_disabled": 0, "lon": -77.08666233333334, "fusion_lon": 0.0, "name": "06ac2fcf5dc2a616553310912b966596", "lat": 38.93474633333334}, {"rental_uris": {"ios": "https://dc.lft.to/lastmile_qr_scan", "android": "https://dc.lft.to/lastmile_qr_scan"}, "is_reserved": 0, "fusion_lat": 0.0, "type": "electric_scooter", "bike_id": "9ca768d4946bfb3449a7471aa0fe79f1", "is_disabled": 0, "lon": -77.02714933333333, "fusion_lon": 0.0, "name": "9ca768d4946bfb3449a7471aa0fe79f1", "lat": 38.909093666666664}, {"rental_uris": {"ios": "https://dc.lft.to/lastmile_qr_scan", "android": "https://dc.lft.to/lastmile_qr_scan"}, "is_reserved": 0, "fusion_lat": 0.0, "type": "electric_scooter", "bike_id": "d8fcdeb45eedb68ba4d9b68b86bf60ae", "is_disabled": 0, "lon": -77.010299, "fusion_lon": 0.0, "name": "d8fcdeb45eedb68ba4d9b68b86bf60ae", "lat": 38.90651716666667}, {"rental_uris": {"ios": "https://dc.lft.to/lastmile_qr_scan", "android": "https://dc.lft.to/lastmile_qr_scan"}, "is_reserved": 0, "fusion_lat": 0.0, "type": "electric_scooter", "bike_id": "1bd897578482a4c9fe0a740958ab6b3e", "is_disabled": 0, "lon": -77.02791533333334, "fusion_lon": 0.0, "name": "1bd897578482a4c9fe0a740958ab6b3e", "lat": 38.93929983333334}, {"rental_uris": {"ios": "https://dc.lft.to/lastmile_qr_scan", "android": "https://dc.lft.to/lastmile_qr_scan"}, "is_reserved": 0, "fusion_lat": 0.0, "type": "electric_scooter", "bike_id": "41554ea61263e7994b26a0b53381fe74", "is_disabled": 0, "lon": -77.05583316666667, "fusion_lon": 0.0, "name": "41554ea61263e7994b26a0b53381fe74", "lat": 38.93435133333333}, {"rental_uris": {"ios": "https://dc.lft.to/lastmile_qr_scan", "android": "https://dc.lft.to/lastmile_qr_scan"}, "is_reserved": 0, "fusion_lat": 0.0, "type": "electric_scooter", "bike_id": "b41f771d872d82e186bddc824366b11e", "is_disabled": 0, "lon": -77.0300465, "fusion_lon": 0.0, "name": "b41f771d872d82e186bddc824366b11e", "lat": 38.90263433333333}, {"rental_uris": {"ios": "https://dc.lft.to/lastmile_qr_scan", "android": "https://dc.lft.to/lastmile_qr_scan"}, "is_reserved": 0, "fusion_lat": 0.0, "type": "electric_scooter", "bike_id": "0c5a022203c5724370c6e0fbd9eac2f8", "is_disabled": 0, "lon": -77.0484545, "fusion_lon": 0.0, "name": "0c5a022203c5724370c6e0fbd9eac2f8", "lat": 38.89541533333333}, {"rental_uris": {"ios": "https://dc.lft.to/lastmile_qr_scan", "android": "https://dc.lft.to/lastmile_qr_scan"}, "is_reserved": 0, "fusion_lat": 0.0, "type": "electric_bike", "bike_id": "84d59eaab6e22e954ab5e4ac33e0f5cb", "is_disabled": 0, "lon": -77.10685616666666, "fusion_lon": 0.0, "name": "84d59eaab6e22e954ab5e4ac33e0f5cb", "lat": 38.86451183333333}, {"rental_uris": {"ios": "https://dc.lft.to/lastmile_qr_scan", "android": "https://dc.lft.to/lastmile_qr_scan"}, "is_reserved": 0, "fusion_lat": 0.0, "type": "electric_scooter", "bike_id": "4f37ac5341c06e44c3b31b6e3fdebfc2", "is_disabled": 0, "lon": -77.00430683333333, "fusion_lon": 0.0, "name": "4f37ac5341c06e44c3b31b6e3fdebfc2", "lat": 38.877011333333336}, {"rental_uris": {"ios": "https://dc.lft.to/lastmile_qr_scan", "android": "https://dc.lft.to/lastmile_qr_scan"}, "is_reserved": 0, "fusion_lat": 0.0, "type": "electric_scooter", "bike_id": "ec599081e3f910a9d3526b89757ce55f", "is_disabled": 0, "lon": -77.04288133333333, "fusion_lon": 0.0, "name": "ec599081e3f910a9d3526b89757ce55f", "lat": 38.89738833333333}, {"rental_uris": {"ios": "https://dc.lft.to/lastmile_qr_scan", "android": "https://dc.lft.to/lastmile_qr_scan"}, "is_reserved": 0, "fusion_lat": 0.0, "type": "electric_bike", "bike_id": "e8a4e11987f5570c9dfe783d7829c53c", "is_disabled": 0, "lon": -77.14057583333333, "fusion_lon": 0.0, "name": "e8a4e11987f5570c9dfe783d7829c53c", "lat": 38.987703333333336}, {"rental_uris": {"ios": "https://dc.lft.to/lastmile_qr_scan", "android": "https://dc.lft.to/lastmile_qr_scan"}, "is_reserved": 0, "fusion_lat": 0.0, "type": "electric_scooter", "bike_id": "b35debf6f46f9ed983546d0d848b25dd", "is_disabled": 0, "lon": -77.0070985, "fusion_lon": 0.0, "name": "b35debf6f46f9ed983546d0d848b25dd", "lat": 38.8848865}, {"rental_uris": {"ios": "https://dc.lft.to/lastmile_qr_scan", "android": "https://dc.lft.to/lastmile_qr_scan"}, "is_reserved": 0, "fusion_lat": 0.0, "type": "electric_scooter", "bike_id": "038128ee0d315d4567b534e9f6a221c7", "is_disabled": 0, "lon": -77.04466683333334, "fusion_lon": 0.0, "name": "038128ee0d315d4567b534e9f6a221c7", "lat": 38.90232133333333}, {"rental_uris": {"ios": "https://dc.lft.to/lastmile_qr_scan", "android": "https://dc.lft.to/lastmile_qr_scan"}, "is_reserved": 0, "fusion_lat": 0.0, "type": "electric_scooter", "bike_id": "93d2299e87df034a507789c4bf2a6f70", "is_disabled": 0, "lon": -77.03327916666667, "fusion_lon": 0.0, "name": "93d2299e87df034a507789c4bf2a6f70", "lat": 38.921605166666666}, {"rental_uris": {"ios": "https://dc.lft.to/lastmile_qr_scan", "android": "https://dc.lft.to/lastmile_qr_scan"}, "is_reserved": 0, "fusion_lat": 0.0, "type": "electric_scooter", "bike_id": "4dd708ef502671d6b6e53a04dfa29fd9", "is_disabled": 0, "lon": -77.02697666666667, "fusion_lon": 0.0, "name": "4dd708ef502671d6b6e53a04dfa29fd9", "lat": 38.89522183333333}, {"rental_uris": {"ios": "https://dc.lft.to/lastmile_qr_scan", "android": "https://dc.lft.to/lastmile_qr_scan"}, "is_reserved": 0, "fusion_lat": 0.0, "type": "electric_scooter", "bike_id": "6dc8af61cdc5680bba4669b4e64bac7d", "is_disabled": 0, "lon": -77.03798883333333, "fusion_lon": 0.0, "name": "6dc8af61cdc5680bba4669b4e64bac7d", "lat": 38.920691}, {"rental_uris": {"ios": "https://dc.lft.to/lastmile_qr_scan", "android": "https://dc.lft.to/lastmile_qr_scan"}, "is_reserved": 0, "fusion_lat": 0.0, "type": "electric_scooter", "bike_id": "c2723d858f5a9e749a023677aec39d68", "is_disabled": 0, "lon": -76.9772625, "fusion_lon": 0.0, "name": "c2723d858f5a9e749a023677aec39d68", "lat": 38.872482166666664}, {"rental_uris": {"ios": "https://dc.lft.to/lastmile_qr_scan", "android": "https://dc.lft.to/lastmile_qr_scan"}, "is_reserved": 0, "fusion_lat": 0.0, "type": "electric_scooter", "bike_id": "6f79bc77e49e67cc0de9102f18fbe7a1", "is_disabled": 0, "lon": -77.0030795, "fusion_lon": 0.0, "name": "6f79bc77e49e67cc0de9102f18fbe7a1", "lat": 38.920255}, {"rental_uris": {"ios": "https://dc.lft.to/lastmile_qr_scan", "android": "https://dc.lft.to/lastmile_qr_scan"}, "is_reserved": 0, "fusion_lat": 0.0, "type": "electric_scooter", "bike_id": "c196f92c9d0a5fabc07324d11fb97394", "is_disabled": 0, "lon": -77.05050433333334, "fusion_lon": 0.0, "name": "c196f92c9d0a5fabc07324d11fb97394", "lat": 38.92365616666667}, {"rental_uris": {"ios": "https://dc.lft.to/lastmile_qr_scan", "android": "https://dc.lft.to/lastmile_qr_scan"}, "is_reserved": 0, "fusion_lat": 0.0, "type": "electric_scooter", "bike_id": "7efdb2c87408758be34984735df96f47", "is_disabled": 0, "lon": -77.00204416666666, "fusion_lon": 0.0, "name": "7efdb2c87408758be34984735df96f47", "lat": 38.8875245}, {"rental_uris": {"ios": "https://dc.lft.to/lastmile_qr_scan", "android": "https://dc.lft.to/lastmile_qr_scan"}, "is_reserved": 0, "fusion_lat": 0.0, "type": "electric_scooter", "bike_id": "b3e73beba2fa77c078ce0762b5358c83", "is_disabled": 0, "lon": -77.00235583333334, "fusion_lon": 0.0, "name": "b3e73beba2fa77c078ce0762b5358c83", "lat": 38.9524675}, {"rental_uris": {"ios": "https://dc.lft.to/lastmile_qr_scan", "android": "https://dc.lft.to/lastmile_qr_scan"}, "is_reserved": 0, "fusion_lat": 0.0, "type": "electric_scooter", "bike_id": "02dfa44a6e482980bc02c92f28a40578", "is_disabled": 0, "lon": -77.03182833333334, "fusion_lon": 0.0, "name": "02dfa44a6e482980bc02c92f28a40578", "lat": 38.91585}, {"rental_uris": {"ios": "https://dc.lft.to/lastmile_qr_scan", "android": "https://dc.lft.to/lastmile_qr_scan"}, "is_reserved": 0, "fusion_lat": 0.0, "type": "electric_scooter", "bike_id": "77a35a3fb09c02358b9793ae5b8972cd", "is_disabled": 0, "lon": -76.9966865, "fusion_lon": 0.0, "name": "77a35a3fb09c02358b9793ae5b8972cd", "lat": 38.85656733333333}, {"rental_uris": {"ios": "https://dc.lft.to/lastmile_qr_scan", "android": "https://dc.lft.to/lastmile_qr_scan"}, "is_reserved": 0, "fusion_lat": 0.0, "type": "electric_scooter", "bike_id": "6a591bbc87b0bab727200d90d86f0e5c", "is_disabled": 0, "lon": -77.00371466666667, "fusion_lon": 0.0, "name": "6a591bbc87b0bab727200d90d86f0e5c", "lat": 38.907192}, {"rental_uris": {"ios": "https://dc.lft.to/lastmile_qr_scan", "android": "https://dc.lft.to/lastmile_qr_scan"}, "is_reserved": 0, "fusion_lat": 0.0, "type": "electric_scooter", "bike_id": "e531ac5b60c248b2dc0de8c9358e3a1e", "is_disabled": 0, "lon": -77.00560766666666, "fusion_lon": 0.0, "name": "e531ac5b60c248b2dc0de8c9358e3a1e", "lat": 38.874723333333336}, {"rental_uris": {"ios": "https://dc.lft.to/lastmile_qr_scan", "android": "https://dc.lft.to/lastmile_qr_scan"}, "is_reserved": 0, "fusion_lat": 0.0, "type": "electric_scooter", "bike_id": "6a6b37772be3bb9f8edcba836fc7b30d", "is_disabled": 0, "lon": -77.031977, "fusion_lon": 0.0, "name": "6a6b37772be3bb9f8edcba836fc7b30d", "lat": 38.90836216666667}, {"rental_uris": {"ios": "https://dc.lft.to/lastmile_qr_scan", "android": "https://dc.lft.to/lastmile_qr_scan"}, "is_reserved": 0, "fusion_lat": 0.0, "type": "electric_scooter", "bike_id": "e624fa5906b79d7302ded270195917e7", "is_disabled": 0, "lon": -76.986901, "fusion_lon": 0.0, "name": "e624fa5906b79d7302ded270195917e7", "lat": 38.90615533333333}, {"rental_uris": {"ios": "https://dc.lft.to/lastmile_qr_scan", "android": "https://dc.lft.to/lastmile_qr_scan"}, "is_reserved": 0, "fusion_lat": 0.0, "type": "electric_scooter", "bike_id": "b66a5d31debc638ffecfcfb628c13284", "is_disabled": 0, "lon": -77.00375833333334, "fusion_lon": 0.0, "name": "b66a5d31debc638ffecfcfb628c13284", "lat": 38.8973115}, {"rental_uris": {"ios": "https://dc.lft.to/lastmile_qr_scan", "android": "https://dc.lft.to/lastmile_qr_scan"}, "is_reserved": 0, "fusion_lat": 0.0, "type": "electric_scooter", "bike_id": "122819ca22e580ec174aa1be0709cd4e", "is_disabled": 0, "lon": -77.02513316666666, "fusion_lon": 0.0, "name": "122819ca22e580ec174aa1be0709cd4e", "lat": 38.91693033333333}, {"rental_uris": {"ios": "https://dc.lft.to/lastmile_qr_scan", "android": "https://dc.lft.to/lastmile_qr_scan"}, "is_reserved": 0, "fusion_lat": 0.0, "type": "electric_scooter", "bike_id": "4724fbde0bbe596a2016d6ede9ab1f89", "is_disabled": 0, "lon": -77.01929466666667, "fusion_lon": 0.0, "name": "4724fbde0bbe596a2016d6ede9ab1f89", "lat": 38.9568875}, {"rental_uris": {"ios": "https://dc.lft.to/lastmile_qr_scan", "android": "https://dc.lft.to/lastmile_qr_scan"}, "is_reserved": 0, "fusion_lat": 0.0, "type": "electric_scooter", "bike_id": "c90a3096973c17f2a8eecdc1da87cb5e", "is_disabled": 0, "lon": -77.04492983333333, "fusion_lon": 0.0, "name": "c90a3096973c17f2a8eecdc1da87cb5e", "lat": 38.901381666666666}, {"rental_uris": {"ios": "https://dc.lft.to/lastmile_qr_scan", "android": "https://dc.lft.to/lastmile_qr_scan"}, "is_reserved": 0, "fusion_lat": 0.0, "type": "electric_scooter", "bike_id": "8accaf9dbd3fd2b0da3d4c8e8704a090", "is_disabled": 0, "lon": -76.93022, "fusion_lon": 0.0, "name": "8accaf9dbd3fd2b0da3d4c8e8704a090", "lat": 38.90170233333333}, {"rental_uris": {"ios": "https://dc.lft.to/lastmile_qr_scan", "android": "https://dc.lft.to/lastmile_qr_scan"}, "is_reserved": 0, "fusion_lat": 0.0, "type": "electric_bike", "bike_id": "0330a1bbd0556848940c8ba4af7255ff", "is_disabled": 0, "lon": -76.920422, "fusion_lon": 0.0, "name": "0330a1bbd0556848940c8ba4af7255ff", "lat": 38.897345}, {"rental_uris": {"ios": "https://dc.lft.to/lastmile_qr_scan", "android": "https://dc.lft.to/lastmile_qr_scan"}, "is_reserved": 0, "fusion_lat": 0.0, "type": "electric_scooter", "bike_id": "2b59f6ea4f4e89f59662818d5082d4e0", "is_disabled": 0, "lon": -77.03199933333333, "fusion_lon": 0.0, "name": "2b59f6ea4f4e89f59662818d5082d4e0", "lat": 38.908268166666666}, {"rental_uris": {"ios": "https://dc.lft.to/lastmile_qr_scan", "android": "https://dc.lft.to/lastmile_qr_scan"}, "is_reserved": 0, "fusion_lat": 0.0, "type": "electric_bike", "bike_id": "584f3721e697a34d94eaef705e7f0c81", "is_disabled": 0, "lon": -77.04232183333333, "fusion_lon": 0.0, "name": "584f3721e697a34d94eaef705e7f0c81", "lat": 38.921558}, {"rental_uris": {"ios": "https://dc.lft.to/lastmile_qr_scan", "android": "https://dc.lft.to/lastmile_qr_scan"}, "is_reserved": 0, "fusion_lat": 0.0, "type": "electric_scooter", "bike_id": "2ec936bebf3452fff4b23b1c0930a419", "is_disabled": 0, "lon": -77.043567, "fusion_lon": 0.0, "name": "2ec936bebf3452fff4b23b1c0930a419", "lat": 38.90230416666667}, {"rental_uris": {"ios": "https://dc.lft.to/lastmile_qr_scan", "android": "https://dc.lft.to/lastmile_qr_scan"}, "is_reserved": 0, "fusion_lat": 0.0, "type": "electric_scooter", "bike_id": "d6c446b59a99a3281f283c52d6490a6e", "is_disabled": 0, "lon": -77.01678683333333, "fusion_lon": 0.0, "name": "d6c446b59a99a3281f283c52d6490a6e", "lat": 38.92042633333333}, {"rental_uris": {"ios": "https://dc.lft.to/lastmile_qr_scan", "android": "https://dc.lft.to/lastmile_qr_scan"}, "is_reserved": 0, "fusion_lat": 0.0, "type": "electric_bike", "bike_id": "90e3ea2bec366cd7b362a936db5fa5bf", "is_disabled": 0, "lon": -77.01424816666666, "fusion_lon": 0.0, "name": "90e3ea2bec366cd7b362a936db5fa5bf", "lat": 38.972181666666664}, {"rental_uris": {"ios": "https://dc.lft.to/lastmile_qr_scan", "android": "https://dc.lft.to/lastmile_qr_scan"}, "is_reserved": 0, "fusion_lat": 0.0, "type": "electric_bike", "bike_id": "51f9368f3ed625acc50cf75a9718408a", "is_disabled": 0, "lon": -76.992482, "fusion_lon": 0.0, "name": "51f9368f3ed625acc50cf75a9718408a", "lat": 38.79469266666667}, {"rental_uris": {"ios": "https://dc.lft.to/lastmile_qr_scan", "android": "https://dc.lft.to/lastmile_qr_scan"}, "is_reserved": 0, "fusion_lat": 0.0, "type": "electric_scooter", "bike_id": "2d77650cd0937eb511b01439bafdab89", "is_disabled": 0, "lon": -77.00219933333334, "fusion_lon": 0.0, "name": "2d77650cd0937eb511b01439bafdab89", "lat": 38.90031583333333}, {"rental_uris": {"ios": "https://dc.lft.to/lastmile_qr_scan", "android": "https://dc.lft.to/lastmile_qr_scan"}, "is_reserved": 0, "fusion_lat": 0.0, "type": "electric_scooter", "bike_id": "16689e9c32d36a55a51c54b3d04bc696", "is_disabled": 0, "lon": -77.023521, "fusion_lon": 0.0, "name": "16689e9c32d36a55a51c54b3d04bc696", "lat": 38.9319615}, {"rental_uris": {"ios": "https://dc.lft.to/lastmile_qr_scan", "android": "https://dc.lft.to/lastmile_qr_scan"}, "is_reserved": 0, "fusion_lat": 0.0, "type": "electric_scooter", "bike_id": "a0f517205050b28a23248a2b7ec6e19e", "is_disabled": 0, "lon": -77.05823733333334, "fusion_lon": 0.0, "name": "a0f517205050b28a23248a2b7ec6e19e", "lat": 38.9003325}, {"rental_uris": {"ios": "https://dc.lft.to/lastmile_qr_scan", "android": "https://dc.lft.to/lastmile_qr_scan"}, "is_reserved": 0, "fusion_lat": 0.0, "type": "electric_scooter", "bike_id": "735eeb0e942098e29aab9ad6e33954a3", "is_disabled": 0, "lon": -77.07700583333333, "fusion_lon": 0.0, "name": "735eeb0e942098e29aab9ad6e33954a3", "lat": 38.943842333333336}, {"rental_uris": {"ios": "https://dc.lft.to/lastmile_qr_scan", "android": "https://dc.lft.to/lastmile_qr_scan"}, "is_reserved": 0, "fusion_lat": 0.0, "type": "electric_scooter", "bike_id": "cfe5a2c499e521e27598b72f2a1fdd22", "is_disabled": 0, "lon": -77.0335275, "fusion_lon": 0.0, "name": "cfe5a2c499e521e27598b72f2a1fdd22", "lat": 38.94509733333334}, {"rental_uris": {"ios": "https://dc.lft.to/lastmile_qr_scan", "android": "https://dc.lft.to/lastmile_qr_scan"}, "is_reserved": 0, "fusion_lat": 0.0, "type": "electric_scooter", "bike_id": "7558b79c684309a171c044e0c8abfd8c", "is_disabled": 0, "lon": -76.98543233333334, "fusion_lon": 0.0, "name": "7558b79c684309a171c044e0c8abfd8c", "lat": 38.8669115}, {"rental_uris": {"ios": "https://dc.lft.to/lastmile_qr_scan", "android": "https://dc.lft.to/lastmile_qr_scan"}, "is_reserved": 0, "fusion_lat": 0.0, "type": "electric_scooter", "bike_id": "05bc7839c6e30c33f32b20e3d8ce9946", "is_disabled": 0, "lon": -77.01479316666666, "fusion_lon": 0.0, "name": "05bc7839c6e30c33f32b20e3d8ce9946", "lat": 38.89621433333333}, {"rental_uris": {"ios": "https://dc.lft.to/lastmile_qr_scan", "android": "https://dc.lft.to/lastmile_qr_scan"}, "is_reserved": 0, "fusion_lat": 0.0, "type": "electric_scooter", "bike_id": "7f95bc5b338b5d2b3bb1526e11d3a593", "is_disabled": 0, "lon": -77.01904583333334, "fusion_lon": 0.0, "name": "7f95bc5b338b5d2b3bb1526e11d3a593", "lat": 38.923756}, {"rental_uris": {"ios": "https://dc.lft.to/lastmile_qr_scan", "android": "https://dc.lft.to/lastmile_qr_scan"}, "is_reserved": 0, "fusion_lat": 0.0, "type": "electric_scooter", "bike_id": "b05489e5dacf8f9acf9f9f1ee69407b2", "is_disabled": 0, "lon": -77.01510183333333, "fusion_lon": 0.0, "name": "b05489e5dacf8f9acf9f9f1ee69407b2", "lat": 38.88476816666667}, {"rental_uris": {"ios": "https://dc.lft.to/lastmile_qr_scan", "android": "https://dc.lft.to/lastmile_qr_scan"}, "is_reserved": 0, "fusion_lat": 0.0, "type": "electric_bike", "bike_id": "966a49636bae85f390aaf23226f40669", "is_disabled": 0, "lon": -77.11089333333334, "fusion_lon": 0.0, "name": "966a49636bae85f390aaf23226f40669", "lat": 39.012306833333334}, {"rental_uris": {"ios": "https://dc.lft.to/lastmile_qr_scan", "android": "https://dc.lft.to/lastmile_qr_scan"}, "is_reserved": 0, "fusion_lat": 0.0, "type": "electric_bike", "bike_id": "e2a618a547359756a36e860f585594bd", "is_disabled": 0, "lon": -77.0129075, "fusion_lon": 0.0, "name": "e2a618a547359756a36e860f585594bd", "lat": 39.003793333333334}, {"rental_uris": {"ios": "https://dc.lft.to/lastmile_qr_scan", "android": "https://dc.lft.to/lastmile_qr_scan"}, "is_reserved": 0, "fusion_lat": 0.0, "type": "electric_scooter", "bike_id": "9b4429e2bcf43eadf67e652997cc857c", "is_disabled": 0, "lon": -77.02879983333334, "fusion_lon": 0.0, "name": "9b4429e2bcf43eadf67e652997cc857c", "lat": 38.898382}, {"rental_uris": {"ios": "https://dc.lft.to/lastmile_qr_scan", "android": "https://dc.lft.to/lastmile_qr_scan"}, "is_reserved": 0, "fusion_lat": 0.0, "type": "electric_scooter", "bike_id": "32eabfc768030b06fbd22cf735dd9cd2", "is_disabled": 0, "lon": -77.015888, "fusion_lon": 0.0, "name": "32eabfc768030b06fbd22cf735dd9cd2", "lat": 38.9155615}, {"rental_uris": {"ios": "https://dc.lft.to/lastmile_qr_scan", "android": "https://dc.lft.to/lastmile_qr_scan"}, "is_reserved": 0, "fusion_lat": 0.0, "type": "electric_scooter", "bike_id": "fe58b9675ee4a177d549c2fa6adb2dcd", "is_disabled": 0, "lon": -76.98474033333333, "fusion_lon": 0.0, "name": "fe58b9675ee4a177d549c2fa6adb2dcd", "lat": 38.912835666666666}, {"rental_uris": {"ios": "https://dc.lft.to/lastmile_qr_scan", "android": "https://dc.lft.to/lastmile_qr_scan"}, "is_reserved": 0, "fusion_lat": 0.0, "type": "electric_scooter", "bike_id": "46efb8a4efe41f0ef426b31063377a24", "is_disabled": 0, "lon": -77.050317, "fusion_lon": 0.0, "name": "46efb8a4efe41f0ef426b31063377a24", "lat": 38.9236435}, {"rental_uris": {"ios": "https://dc.lft.to/lastmile_qr_scan", "android": "https://dc.lft.to/lastmile_qr_scan"}, "is_reserved": 0, "fusion_lat": 0.0, "type": "electric_scooter", "bike_id": "9c7c01b0213d20f76d6ff7b12beb1333", "is_disabled": 0, "lon": -77.06000583333334, "fusion_lon": 0.0, "name": "9c7c01b0213d20f76d6ff7b12beb1333", "lat": 38.93640033333333}, {"rental_uris": {"ios": "https://dc.lft.to/lastmile_qr_scan", "android": "https://dc.lft.to/lastmile_qr_scan"}, "is_reserved": 0, "fusion_lat": 0.0, "type": "electric_scooter", "bike_id": "82942d351b82d2330bf48b10430c6ede", "is_disabled": 0, "lon": -77.027062, "fusion_lon": 0.0, "name": "82942d351b82d2330bf48b10430c6ede", "lat": 38.926430833333335}, {"rental_uris": {"ios": "https://dc.lft.to/lastmile_qr_scan", "android": "https://dc.lft.to/lastmile_qr_scan"}, "is_reserved": 0, "fusion_lat": 0.0, "type": "electric_scooter", "bike_id": "bb07a0de9d2ad0e35e937f0ee2097dcf", "is_disabled": 0, "lon": -77.022104, "fusion_lon": 0.0, "name": "bb07a0de9d2ad0e35e937f0ee2097dcf", "lat": 38.9202445}, {"rental_uris": {"ios": "https://dc.lft.to/lastmile_qr_scan", "android": "https://dc.lft.to/lastmile_qr_scan"}, "is_reserved": 0, "fusion_lat": 0.0, "type": "electric_scooter", "bike_id": "7e3a7440ef1c3a7b9051181b375a31f1", "is_disabled": 0, "lon": -77.06369683333334, "fusion_lon": 0.0, "name": "7e3a7440ef1c3a7b9051181b375a31f1", "lat": 38.944857666666664}, {"rental_uris": {"ios": "https://dc.lft.to/lastmile_qr_scan", "android": "https://dc.lft.to/lastmile_qr_scan"}, "is_reserved": 0, "fusion_lat": 0.0, "type": "electric_scooter", "bike_id": "b4ec0f57227280edf9abd3130ea50435", "is_disabled": 0, "lon": -77.0365795, "fusion_lon": 0.0, "name": "b4ec0f57227280edf9abd3130ea50435", "lat": 38.9221525}, {"rental_uris": {"ios": "https://dc.lft.to/lastmile_qr_scan", "android": "https://dc.lft.to/lastmile_qr_scan"}, "is_reserved": 0, "fusion_lat": 0.0, "type": "electric_scooter", "bike_id": "2d9eac1650066d631668e7474f5516b3", "is_disabled": 0, "lon": -77.02010316666667, "fusion_lon": 0.0, "name": "2d9eac1650066d631668e7474f5516b3", "lat": 38.903443833333334}, {"rental_uris": {"ios": "https://dc.lft.to/lastmile_qr_scan", "android": "https://dc.lft.to/lastmile_qr_scan"}, "is_reserved": 0, "fusion_lat": 0.0, "type": "electric_scooter", "bike_id": "0e5c47be84b3ab1dbeeccc0a517eef85", "is_disabled": 0, "lon": -77.04273566666667, "fusion_lon": 0.0, "name": "0e5c47be84b3ab1dbeeccc0a517eef85", "lat": 38.907381}, {"rental_uris": {"ios": "https://dc.lft.to/lastmile_qr_scan", "android": "https://dc.lft.to/lastmile_qr_scan"}, "is_reserved": 0, "fusion_lat": 0.0, "type": "electric_scooter", "bike_id": "0d59d555b13ebc79e87f65fce696a338", "is_disabled": 0, "lon": -77.025875, "fusion_lon": 0.0, "name": "0d59d555b13ebc79e87f65fce696a338", "lat": 38.9260515}, {"rental_uris": {"ios": "https://dc.lft.to/lastmile_qr_scan", "android": "https://dc.lft.to/lastmile_qr_scan"}, "is_reserved": 0, "fusion_lat": 0.0, "type": "electric_scooter", "bike_id": "f77e2c6077e84227ee0da6c0af09da22", "is_disabled": 0, "lon": -77.00200383333333, "fusion_lon": 0.0, "name": "f77e2c6077e84227ee0da6c0af09da22", "lat": 38.902415}, {"rental_uris": {"ios": "https://dc.lft.to/lastmile_qr_scan", "android": "https://dc.lft.to/lastmile_qr_scan"}, "is_reserved": 0, "fusion_lat": 0.0, "type": "electric_scooter", "bike_id": "9e9cacba680d36a71c5d38c73dc3c645", "is_disabled": 0, "lon": -77.03324466666666, "fusion_lon": 0.0, "name": "9e9cacba680d36a71c5d38c73dc3c645", "lat": 38.92862983333333}, {"rental_uris": {"ios": "https://dc.lft.to/lastmile_qr_scan", "android": "https://dc.lft.to/lastmile_qr_scan"}, "is_reserved": 0, "fusion_lat": 0.0, "type": "electric_scooter", "bike_id": "afe6869c39d2e2dcd7f13dfae9ef35d1", "is_disabled": 0, "lon": -77.0332495, "fusion_lon": 0.0, "name": "afe6869c39d2e2dcd7f13dfae9ef35d1", "lat": 38.8888985}, {"rental_uris": {"ios": "https://dc.lft.to/lastmile_qr_scan", "android": "https://dc.lft.to/lastmile_qr_scan"}, "is_reserved": 0, "fusion_lat": 0.0, "type": "electric_scooter", "bike_id": "29a052b2f9ec9ac62329940e796c6e24", "is_disabled": 0, "lon": -77.0355545, "fusion_lon": 0.0, "name": "29a052b2f9ec9ac62329940e796c6e24", "lat": 38.9084145}, {"rental_uris": {"ios": "https://dc.lft.to/lastmile_qr_scan", "android": "https://dc.lft.to/lastmile_qr_scan"}, "is_reserved": 0, "fusion_lat": 0.0, "type": "electric_scooter", "bike_id": "bf00d34a1b4d01ff4b058d008f6c9e99", "is_disabled": 0, "lon": -77.027, "fusion_lon": 0.0, "name": "bf00d34a1b4d01ff4b058d008f6c9e99", "lat": 38.88160583333333}, {"rental_uris": {"ios": "https://dc.lft.to/lastmile_qr_scan", "android": "https://dc.lft.to/lastmile_qr_scan"}, "is_reserved": 0, "fusion_lat": 0.0, "type": "electric_scooter", "bike_id": "0dc8cefc4d8c4147190a9d1f34c5aa94", "is_disabled": 0, "lon": -76.9809395, "fusion_lon": 0.0, "name": "0dc8cefc4d8c4147190a9d1f34c5aa94", "lat": 38.857216333333334}, {"rental_uris": {"ios": "https://dc.lft.to/lastmile_qr_scan", "android": "https://dc.lft.to/lastmile_qr_scan"}, "is_reserved": 0, "fusion_lat": 0.0, "type": "electric_scooter", "bike_id": "b6158144929ad12609a5f956952a882a", "is_disabled": 0, "lon": -77.023147, "fusion_lon": 0.0, "name": "b6158144929ad12609a5f956952a882a", "lat": 38.92723483333333}, {"rental_uris": {"ios": "https://dc.lft.to/lastmile_qr_scan", "android": "https://dc.lft.to/lastmile_qr_scan"}, "is_reserved": 0, "fusion_lat": 0.0, "type": "electric_scooter", "bike_id": "9626e8de355e8b0efd5da5619a3c2a4c", "is_disabled": 0, "lon": -77.02175933333334, "fusion_lon": 0.0, "name": "9626e8de355e8b0efd5da5619a3c2a4c", "lat": 38.9163875}, {"rental_uris": {"ios": "https://dc.lft.to/lastmile_qr_scan", "android": "https://dc.lft.to/lastmile_qr_scan"}, "is_reserved": 0, "fusion_lat": 0.0, "type": "electric_scooter", "bike_id": "e605d82242c3775d5d0ed6cc0e3d1d63", "is_disabled": 0, "lon": -77.00920916666666, "fusion_lon": 0.0, "name": "e605d82242c3775d5d0ed6cc0e3d1d63", "lat": 38.896201}, {"rental_uris": {"ios": "https://dc.lft.to/lastmile_qr_scan", "android": "https://dc.lft.to/lastmile_qr_scan"}, "is_reserved": 0, "fusion_lat": 0.0, "type": "electric_scooter", "bike_id": "d326b05a28e69d2314de531f60e67a84", "is_disabled": 0, "lon": -76.95647216666667, "fusion_lon": 0.0, "name": "d326b05a28e69d2314de531f60e67a84", "lat": 38.88497133333333}, {"rental_uris": {"ios": "https://dc.lft.to/lastmile_qr_scan", "android": "https://dc.lft.to/lastmile_qr_scan"}, "is_reserved": 0, "fusion_lat": 0.0, "type": "electric_scooter", "bike_id": "4e419b2f1023aec9672da573bf8441a9", "is_disabled": 0, "lon": -77.071873, "fusion_lon": 0.0, "name": "4e419b2f1023aec9672da573bf8441a9", "lat": 38.909114333333335}, {"rental_uris": {"ios": "https://dc.lft.to/lastmile_qr_scan", "android": "https://dc.lft.to/lastmile_qr_scan"}, "is_reserved": 0, "fusion_lat": 0.0, "type": "electric_scooter", "bike_id": "e73d12ac473677d95cf38490c7391f92", "is_disabled": 0, "lon": -77.0000705, "fusion_lon": 0.0, "name": "e73d12ac473677d95cf38490c7391f92", "lat": 38.873946}, {"rental_uris": {"ios": "https://dc.lft.to/lastmile_qr_scan", "android": "https://dc.lft.to/lastmile_qr_scan"}, "is_reserved": 0, "fusion_lat": 0.0, "type": "electric_scooter", "bike_id": "8584e6720485c8bafc0954ab242eb462", "is_disabled": 0, "lon": -77.031928, "fusion_lon": 0.0, "name": "8584e6720485c8bafc0954ab242eb462", "lat": 38.901082}, {"rental_uris": {"ios": "https://dc.lft.to/lastmile_qr_scan", "android": "https://dc.lft.to/lastmile_qr_scan"}, "is_reserved": 0, "fusion_lat": 0.0, "type": "electric_bike", "bike_id": "a312bc85197614fad6638a93c9cd70fe", "is_disabled": 0, "lon": -77.0875745, "fusion_lon": 0.0, "name": "a312bc85197614fad6638a93c9cd70fe", "lat": 38.839479833333336}, {"rental_uris": {"ios": "https://dc.lft.to/lastmile_qr_scan", "android": "https://dc.lft.to/lastmile_qr_scan"}, "is_reserved": 0, "fusion_lat": 0.0, "type": "electric_scooter", "bike_id": "f68cc65d3ce1fe27edad4a87067a447b", "is_disabled": 0, "lon": -77.03461266666666, "fusion_lon": 0.0, "name": "f68cc65d3ce1fe27edad4a87067a447b", "lat": 38.902772666666664}, {"rental_uris": {"ios": "https://dc.lft.to/lastmile_qr_scan", "android": "https://dc.lft.to/lastmile_qr_scan"},