{"data": {"bikes": [{"bike_id": "1e1c35f6daa47e99bf5035bb406b845b", "is_reserved": 0, "fusion_lon": 0.0, "lat": 38.93356283333333, "is_disabled": 0, "name": "1e1c35f6daa47e99bf5035bb406b845b", "fusion_lat": 0.0, "rental_uris": {"ios": "https://dc.lft.to/lastmile_qr_scan", "android": "https://dc.lft.to/lastmile_qr_scan"}, "lon": -77.069361, "type": "electric_scooter"}, {"bike_id": "442a08a82f83ac583b730c116f954665", "is_reserved": 0, "fusion_lon": 0.0, "lat": 38.91991633333333, "is_disabled": 0, "name": "442a08a82f83ac583b730c116f954665", "fusion_lat": 0.0, "rental_uris": {"ios": "https://dc.lft.to/lastmile_qr_scan", "android": "https://dc.lft.to/lastmile_qr_scan"}, "lon": -77.03483016666667, "type": "electric_scooter"}, {"bike_id": "e2f16866e26a4d4d728b50d1a60f14a4", "is_reserved": 0, "fusion_lon": 0.0, "lat": 38.902794, "is_disabled": 0, "name": "e2f16866e26a4d4d728b50d1a60f14a4", "fusion_lat": 0.0, "rental_uris": {"ios": "https://dc.lft.to/lastmile_qr_scan", "android": "https://dc.lft.to/lastmile_qr_scan"}, "lon": -77.03855666666666, "type": "electric_scooter"}, {"bike_id": "aeb1ba3f7540a9ead840cdd2723edd05", "is_reserved": 0, "fusion_lon": 0.0, "lat": 38.897922666666666, "is_disabled": 0, "name": "aeb1ba3f7540a9ead840cdd2723edd05", "fusion_lat": 0.0, "rental_uris": {"ios": "https://dc.lft.to/lastmile_qr_scan", "android": "https://dc.lft.to/lastmile_qr_scan"}, "lon": -77.04292916666667, "type": "electric_scooter"}, {"bike_id": "6fb69e84122c7f4f7b49102a09019894", "is_reserved": 0, "fusion_lon": 0.0, "lat": 38.885278666666665, "is_disabled": 0, "name": "6fb69e84122c7f4f7b49102a09019894", "fusion_lat": 0.0, "rental_uris": {"ios": "https://dc.lft.to/lastmile_qr_scan", "android": "https://dc.lft.to/lastmile_qr_scan"}, "lon": -77.0058225, "type": "electric_scooter"}, {"bike_id": "81de50906c2b4448d47dbfebf9552f91", "is_reserved": 0, "fusion_lon": 0.0, "lat": 38.90134066666667, "is_disabled": 0, "name": "81de50906c2b4448d47dbfebf9552f91", "fusion_lat": 0.0, "rental_uris": {"ios": "https://dc.lft.to/lastmile_qr_scan", "android": "https://dc.lft.to/lastmile_qr_scan"}, "lon": -76.980789, "type": "electric_scooter"}, {"bike_id": "545de7b012cf315f59926eebeaa76aeb", "is_reserved": 0, "fusion_lon": 0.0, "lat": 38.89923266666667, "is_disabled": 0, "name": "545de7b012cf315f59926eebeaa76aeb", "fusion_lat": 0.0, "rental_uris": {"ios": "https://dc.lft.to/lastmile_qr_scan", "android": "https://dc.lft.to/lastmile_qr_scan"}, "lon": -77.03931733333333, "type": "electric_scooter"}, {"bike_id": "2ce0d0d4ccd5e4f3b4d3afb5589bee71", "is_reserved": 0, "fusion_lon": 0.0, "lat": 38.938933666666664, "is_disabled": 0, "name": "2ce0d0d4ccd5e4f3b4d3afb5589bee71", "fusion_lat": 0.0, "rental_uris": {"ios": "https://dc.lft.to/lastmile_qr_scan", "android": "https://dc.lft.to/lastmile_qr_scan"}, "lon": -77.03312716666667, "type": "electric_scooter"}, {"bike_id": "9fa20216ab45bd8e0faac45d68261ad6", "is_reserved": 0, "fusion_lon": 0.0, "lat": 38.9215365, "is_disabled": 0, "name": "9fa20216ab45bd8e0faac45d68261ad6", "fusion_lat": 0.0, "rental_uris": {"ios": "https://dc.lft.to/lastmile_qr_scan", "android": "https://dc.lft.to/lastmile_qr_scan"}, "lon": -77.03528166666666, "type": "electric_scooter"}, {"bike_id": "7f694a0025da75a918c2a46a5433ed62", "is_reserved": 0, "fusion_lon": 0.0, "lat": 38.9032645, "is_disabled": 0, "name": "7f694a0025da75a918c2a46a5433ed62", "fusion_lat": 0.0, "rental_uris": {"ios": "https://dc.lft.to/lastmile_qr_scan", "android": "https://dc.lft.to/lastmile_qr_scan"}, "lon": -77.037709, "type": "electric_scooter"}, {"bike_id": "8cf423a47aca01d756de77e12fea0353", "is_reserved": 0, "fusion_lon": 0.0, "lat": 38.936703, "is_disabled": 0, "name": "8cf423a47aca01d756de77e12fea0353", "fusion_lat": 0.0, "rental_uris": {"ios": "https://dc.lft.to/lastmile_qr_scan", "android": "https://dc.lft.to/lastmile_qr_scan"}, "lon": -77.03637016666667, "type": "electric_scooter"}, {"bike_id": "7273384aac4698f6ec64549673238549", "is_reserved": 0, "fusion_lon": 0.0, "lat": 38.91736783333333, "is_disabled": 0, "name": "7273384aac4698f6ec64549673238549", "fusion_lat": 0.0, "rental_uris": {"ios": "https://dc.lft.to/lastmile_qr_scan", "android": "https://dc.lft.to/lastmile_qr_scan"}, "lon": -77.02288366666667, "type": "electric_scooter"}, {"bike_id": "c53345ccbd99e5c61cf49a09e78c8d58", "is_reserved": 0, "fusion_lon": 0.0, "lat": 38.95910083333333, "is_disabled": 0, "name": "c53345ccbd99e5c61cf49a09e78c8d58", "fusion_lat": 0.0, "rental_uris": {"ios": "https://dc.lft.to/lastmile_qr_scan", "android": "https://dc.lft.to/lastmile_qr_scan"}, "lon": -77.00150266666667, "type": "electric_bike"}, {"bike_id": "d82d9606e32e381c76842c71f25ad59f", "is_reserved": 0, "fusion_lon": 0.0, "lat": 38.928771, "is_disabled": 0, "name": "d82d9606e32e381c76842c71f25ad59f", "fusion_lat": 0.0, "rental_uris": {"ios": "https://dc.lft.to/lastmile_qr_scan", "android": "https://dc.lft.to/lastmile_qr_scan"}, "lon": -77.03759683333334, "type": "electric_scooter"}, {"bike_id": "2909d31cbf213df573c45bda1b71eb05", "is_reserved": 0, "fusion_lon": 0.0, "lat": 38.90616166666667, "is_disabled": 0, "name": "2909d31cbf213df573c45bda1b71eb05", "fusion_lat": 0.0, "rental_uris": {"ios": "https://dc.lft.to/lastmile_qr_scan", "android": "https://dc.lft.to/lastmile_qr_scan"}, "lon": -77.03957, "type": "electric_scooter"}, {"bike_id": "04c1624664db944d13f1f1518af1ec7e", "is_reserved": 0, "fusion_lon": 0.0, "lat": 38.899434166666666, "is_disabled": 0, "name": "04c1624664db944d13f1f1518af1ec7e", "fusion_lat": 0.0, "rental_uris": {"ios": "https://dc.lft.to/lastmile_qr_scan", "android": "https://dc.lft.to/lastmile_qr_scan"}, "lon": -77.03099166666667, "type": "electric_scooter"}, {"bike_id": "b70eabe088b2b20c768d4a2c49a6036e", "is_reserved": 0, "fusion_lon": 0.0, "lat": 38.9000225, "is_disabled": 0, "name": "b70eabe088b2b20c768d4a2c49a6036e", "fusion_lat": 0.0, "rental_uris": {"ios": "https://dc.lft.to/lastmile_qr_scan", "android": "https://dc.lft.to/lastmile_qr_scan"}, "lon": -77.00668916666666, "type": "electric_scooter"}, {"bike_id": "aa8a4d922a74716e7567c6fe37d3f8e3", "is_reserved": 0, "fusion_lon": 0.0, "lat": 38.88740766666667, "is_disabled": 0, "name": "aa8a4d922a74716e7567c6fe37d3f8e3", "fusion_lat": 0.0, "rental_uris": {"ios": "https://dc.lft.to/lastmile_qr_scan", "android": "https://dc.lft.to/lastmile_qr_scan"}, "lon": -77.01528516666667, "type": "electric_scooter"}, {"bike_id": "a15d96f2184bd6640f2cc31163c63b5f", "is_reserved": 0, "fusion_lon": 0.0, "lat": 38.88506616666667, "is_disabled": 0, "name": "a15d96f2184bd6640f2cc31163c63b5f", "fusion_lat": 0.0, "rental_uris": {"ios": "https://dc.lft.to/lastmile_qr_scan", "android": "https://dc.lft.to/lastmile_qr_scan"}, "lon": -77.00566, "type": "electric_scooter"}, {"bike_id": "cd9a74ba950eeba2e51f1763921fd3f8", "is_reserved": 0, "fusion_lon": 0.0, "lat": 38.903537666666665, "is_disabled": 0, "name": "cd9a74ba950eeba2e51f1763921fd3f8", "fusion_lat": 0.0, "rental_uris": {"ios": "https://dc.lft.to/lastmile_qr_scan", "android": "https://dc.lft.to/lastmile_qr_scan"}, "lon": -77.03993766666666, "type": "electric_scooter"}, {"bike_id": "d89ba9c2c440aeb8b9bcda2d5ea3590c", "is_reserved": 0, "fusion_lon": 0.0, "lat": 38.874592, "is_disabled": 0, "name": "d89ba9c2c440aeb8b9bcda2d5ea3590c", "fusion_lat": 0.0, "rental_uris": {"ios": "https://dc.lft.to/lastmile_qr_scan", "android": "https://dc.lft.to/lastmile_qr_scan"}, "lon": -77.0054335, "type": "electric_scooter"}, {"bike_id": "671a8289e71707184baf83da9440ac18", "is_reserved": 0, "fusion_lon": 0.0, "lat": 38.918738166666664, "is_disabled": 0, "name": "671a8289e71707184baf83da9440ac18", "fusion_lat": 0.0, "rental_uris": {"ios": "https://dc.lft.to/lastmile_qr_scan", "android": "https://dc.lft.to/lastmile_qr_scan"}, "lon": -77.04347733333333, "type": "electric_scooter"}, {"bike_id": "28e9f0e944ee059718eb70ad8572af9b", "is_reserved": 0, "fusion_lon": 0.0, "lat": 38.8918885, "is_disabled": 0, "name": "28e9f0e944ee059718eb70ad8572af9b", "fusion_lat": 0.0, "rental_uris": {"ios": "https://dc.lft.to/lastmile_qr_scan", "android": "https://dc.lft.to/lastmile_qr_scan"}, "lon": -77.12262883333334, "type": "electric_bike"}, {"bike_id": "d8e954511e262faf71604a2055497ffc", "is_reserved": 0, "fusion_lon": 0.0, "lat": 38.898144, "is_disabled": 0, "name": "d8e954511e262faf71604a2055497ffc", "fusion_lat": 0.0, "rental_uris": {"ios": "https://dc.lft.to/lastmile_qr_scan", "android": "https://dc.lft.to/lastmile_qr_scan"}, "lon": -77.0333165, "type": "electric_scooter"}, {"bike_id": "9d85ed0e27ba054d6deb98f74a7f19ac", "is_reserved": 0, "fusion_lon": 0.0, "lat": 38.9554135, "is_disabled": 0, "name": "9d85ed0e27ba054d6deb98f74a7f19ac", "fusion_lat": 0.0, "rental_uris": {"ios": "https://dc.lft.to/lastmile_qr_scan", "android": "https://dc.lft.to/lastmile_qr_scan"}, "lon": -76.9352955, "type": "electric_bike"}, {"bike_id": "d48871ecba7d32dc1ea348fdbcbbe7cd", "is_reserved": 0, "fusion_lon": 0.0, "lat": 38.92439, "is_disabled": 0, "name": "d48871ecba7d32dc1ea348fdbcbbe7cd", "fusion_lat": 0.0, "rental_uris": {"ios": "https://dc.lft.to/lastmile_qr_scan", "android": "https://dc.lft.to/lastmile_qr_scan"}, "lon": -77.03404666666667, "type": "electric_scooter"}, {"bike_id": "703db290d2a5810f6502537772321700", "is_reserved": 0, "fusion_lon": 0.0, "lat": 38.916842, "is_disabled": 0, "name": "703db290d2a5810f6502537772321700", "fusion_lat": 0.0, "rental_uris": {"ios": "https://dc.lft.to/lastmile_qr_scan", "android": "https://dc.lft.to/lastmile_qr_scan"}, "lon": -77.02933483333334, "type": "electric_scooter"}, {"bike_id": "1fc2ee46afd9edd4f9ade7752b56696c", "is_reserved": 0, "fusion_lon": 0.0, "lat": 38.916653833333335, "is_disabled": 0, "name": "1fc2ee46afd9edd4f9ade7752b56696c", "fusion_lat": 0.0, "rental_uris": {"ios": "https://dc.lft.to/lastmile_qr_scan", "android": "https://dc.lft.to/lastmile_qr_scan"}, "lon": -77.03698916666667, "type": "electric_scooter"}, {"bike_id": "255ba10257fb98fc96e7880ac3b506ba", "is_reserved": 0, "fusion_lon": 0.0, "lat": 38.88037216666667, "is_disabled": 0, "name": "255ba10257fb98fc96e7880ac3b506ba", "fusion_lat": 0.0, "rental_uris": {"ios": "https://dc.lft.to/lastmile_qr_scan", "android": "https://dc.lft.to/lastmile_qr_scan"}, "lon": -76.9271935, "type": "electric_scooter"}, {"bike_id": "21b7f81feb37572456649b7d0a8e96b4", "is_reserved": 0, "fusion_lon": 0.0, "lat": 38.9068575, "is_disabled": 0, "name": "21b7f81feb37572456649b7d0a8e96b4", "fusion_lat": 0.0, "rental_uris": {"ios": "https://dc.lft.to/lastmile_qr_scan", "android": "https://dc.lft.to/lastmile_qr_scan"}, "lon": -76.97797383333334, "type": "electric_scooter"}, {"bike_id": "0dbcbc797fcf5c9176249d495f55e6dd", "is_reserved": 0, "fusion_lon": 0.0, "lat": 38.92555433333333, "is_disabled": 0, "name": "0dbcbc797fcf5c9176249d495f55e6dd", "fusion_lat": 0.0, "rental_uris": {"ios": "https://dc.lft.to/lastmile_qr_scan", "android": "https://dc.lft.to/lastmile_qr_scan"}, "lon": -77.00135, "type": "electric_bike"}, {"bike_id": "3de9e0b7f51b345680270a395e666711", "is_reserved": 0, "fusion_lon": 0.0, "lat": 38.9061865, "is_disabled": 0, "name": "3de9e0b7f51b345680270a395e666711", "fusion_lat": 0.0, "rental_uris": {"ios": "https://dc.lft.to/lastmile_qr_scan", "android": "https://dc.lft.to/lastmile_qr_scan"}, "lon": -77.06511016666667, "type": "electric_scooter"}, {"bike_id": "46fdfa6853bb2d824b1fd17c192ea38b", "is_reserved": 0, "fusion_lon": 0.0, "lat": 38.91114966666667, "is_disabled": 0, "name": "46fdfa6853bb2d824b1fd17c192ea38b", "fusion_lat": 0.0, "rental_uris": {"ios": "https://dc.lft.to/lastmile_qr_scan", "android": "https://dc.lft.to/lastmile_qr_scan"}, "lon": -77.04926666666667, "type": "electric_scooter"}, {"bike_id": "10fc09c3cc953d4bb1ac9fa93b8231da", "is_reserved": 0, "fusion_lon": 0.0, "lat": 38.9247385, "is_disabled": 0, "name": "10fc09c3cc953d4bb1ac9fa93b8231da", "fusion_lat": 0.0, "rental_uris": {"ios": "https://dc.lft.to/lastmile_qr_scan", "android": "https://dc.lft.to/lastmile_qr_scan"}, "lon": -77.20840216666667, "type": "electric_bike"}, {"bike_id": "5cf8af9617050200b17f289a85a683bf", "is_reserved": 0, "fusion_lon": 0.0, "lat": 38.911019833333334, "is_disabled": 0, "name": "5cf8af9617050200b17f289a85a683bf", "fusion_lat": 0.0, "rental_uris": {"ios": "https://dc.lft.to/lastmile_qr_scan", "android": "https://dc.lft.to/lastmile_qr_scan"}, "lon": -77.046768, "type": "electric_scooter"}, {"bike_id": "7738773568b8a5168fa288b87b851a9d", "is_reserved": 0, "fusion_lon": 0.0, "lat": 38.934266, "is_disabled": 0, "name": "7738773568b8a5168fa288b87b851a9d", "fusion_lat": 0.0, "rental_uris": {"ios": "https://dc.lft.to/lastmile_qr_scan", "android": "https://dc.lft.to/lastmile_qr_scan"}, "lon": -77.03407233333333, "type": "electric_scooter"}, {"bike_id": "d2e729c06d778e78e76332f9dc9b9740", "is_reserved": 0, "fusion_lon": 0.0, "lat": 38.90841366666667, "is_disabled": 0, "name": "d2e729c06d778e78e76332f9dc9b9740", "fusion_lat": 0.0, "rental_uris": {"ios": "https://dc.lft.to/lastmile_qr_scan", "android": "https://dc.lft.to/lastmile_qr_scan"}, "lon": -76.99703966666667, "type": "electric_scooter"}, {"bike_id": "9ffa485aa26b4e36d7e3d9a823d4a514", "is_reserved": 0, "fusion_lon": 0.0, "lat": 38.898795166666666, "is_disabled": 0, "name": "9ffa485aa26b4e36d7e3d9a823d4a514", "fusion_lat": 0.0, "rental_uris": {"ios": "https://dc.lft.to/lastmile_qr_scan", "android": "https://dc.lft.to/lastmile_qr_scan"}, "lon": -77.03279466666666, "type": "electric_scooter"}, {"bike_id": "9e69186a197d3224dbf51d19eb8ccb08", "is_reserved": 0, "fusion_lon": 0.0, "lat": 38.90059883333333, "is_disabled": 0, "name": "9e69186a197d3224dbf51d19eb8ccb08", "fusion_lat": 0.0, "rental_uris": {"ios": "https://dc.lft.to/lastmile_qr_scan", "android": "https://dc.lft.to/lastmile_qr_scan"}, "lon": -77.03192816666666, "type": "electric_scooter"}, {"bike_id": "2bc2f0917506d01e337ac462ae1c1240", "is_reserved": 0, "fusion_lon": 0.0, "lat": 38.88640433333333, "is_disabled": 0, "name": "2bc2f0917506d01e337ac462ae1c1240", "fusion_lat": 0.0, "rental_uris": {"ios": "https://dc.lft.to/lastmile_qr_scan", "android": "https://dc.lft.to/lastmile_qr_scan"}, "lon": -76.95469166666666, "type": "electric_bike"}, {"bike_id": "b9c793813109a2037e5228bc68022646", "is_reserved": 0, "fusion_lon": 0.0, "lat": 38.822687333333334, "is_disabled": 0, "name": "b9c793813109a2037e5228bc68022646", "fusion_lat": 0.0, "rental_uris": {"ios": "https://dc.lft.to/lastmile_qr_scan", "android": "https://dc.lft.to/lastmile_qr_scan"}, "lon": -77.00555716666666, "type": "electric_bike"}, {"bike_id": "4896fdcb864a89e323dadf5063789613", "is_reserved": 0, "fusion_lon": 0.0, "lat": 38.9104425, "is_disabled": 0, "name": "4896fdcb864a89e323dadf5063789613", "fusion_lat": 0.0, "rental_uris": {"ios": "https://dc.lft.to/lastmile_qr_scan", "android": "https://dc.lft.to/lastmile_qr_scan"}, "lon": -77.03575533333333, "type": "electric_scooter"}, {"bike_id": "7e4272647355fbb19fbededf3314d0e8", "is_reserved": 0, "fusion_lon": 0.0, "lat": 38.9336175, "is_disabled": 0, "name": "7e4272647355fbb19fbededf3314d0e8", "fusion_lat": 0.0, "rental_uris": {"ios": "https://dc.lft.to/lastmile_qr_scan", "android": "https://dc.lft.to/lastmile_qr_scan"}, "lon": -77.0573245, "type": "electric_scooter"}, {"bike_id": "6d2d49bad154ab623f24e58b7f1b1b4f", "is_reserved": 0, "fusion_lon": 0.0, "lat": 38.897514, "is_disabled": 0, "name": "6d2d49bad154ab623f24e58b7f1b1b4f", "fusion_lat": 0.0, "rental_uris": {"ios": "https://dc.lft.to/lastmile_qr_scan", "android": "https://dc.lft.to/lastmile_qr_scan"}, "lon": -77.02722583333333, "type": "electric_scooter"}, {"bike_id": "6ee2b4c9e81877f0936b249a751de315", "is_reserved": 0, "fusion_lon": 0.0, "lat": 38.93353366666667, "is_disabled": 0, "name": "6ee2b4c9e81877f0936b249a751de315", "fusion_lat": 0.0, "rental_uris": {"ios": "https://dc.lft.to/lastmile_qr_scan", "android": "https://dc.lft.to/lastmile_qr_scan"}, "lon": -77.03427016666667, "type": "electric_scooter"}, {"bike_id": "e173065e9906b825d0a57d6e06950c21", "is_reserved": 0, "fusion_lon": 0.0, "lat": 38.894574, "is_disabled": 0, "name": "e173065e9906b825d0a57d6e06950c21", "fusion_lat": 0.0, "rental_uris": {"ios": "https://dc.lft.to/lastmile_qr_scan", "android": "https://dc.lft.to/lastmile_qr_scan"}, "lon": -76.97033133333333, "type": "electric_bike"}, {"bike_id": "a998d682f27b195944f839bcdc907cea", "is_reserved": 0, "fusion_lon": 0.0, "lat": 38.91814866666667, "is_disabled": 0, "name": "a998d682f27b195944f839bcdc907cea", "fusion_lat": 0.0, "rental_uris": {"ios": "https://dc.lft.to/lastmile_qr_scan", "android": "https://dc.lft.to/lastmile_qr_scan"}, "lon": -77.03185183333333, "type": "electric_scooter"}, {"bike_id": "6cafc0bd0d84f1a9ba8b0f7aad98e076", "is_reserved": 0, "fusion_lon": 0.0, "lat": 38.903726666666664, "is_disabled": 0, "name": "6cafc0bd0d84f1a9ba8b0f7aad98e076", "fusion_lat": 0.0, "rental_uris": {"ios": "https://dc.lft.to/lastmile_qr_scan", "android": "https://dc.lft.to/lastmile_qr_scan"}, "lon": -77.0451065, "type": "electric_scooter"}, {"bike_id": "4a2ff9176ab82e61b1d3338d3f045739", "is_reserved": 0, "fusion_lon": 0.0, "lat": 38.8832845, "is_disabled": 0, "name": "4a2ff9176ab82e61b1d3338d3f045739", "fusion_lat": 0.0, "rental_uris": {"ios": "https://dc.lft.to/lastmile_qr_scan", "android": "https://dc.lft.to/lastmile_qr_scan"}, "lon": -77.01767133333334, "type": "electric_scooter"}, {"bike_id": "46b92c60d1670baa05f1637e04611605", "is_reserved": 0, "fusion_lon": 0.0, "lat": 38.9173415, "is_disabled": 0, "name": "46b92c60d1670baa05f1637e04611605", "fusion_lat": 0.0, "rental_uris": {"ios": "https://dc.lft.to/lastmile_qr_scan", "android": "https://dc.lft.to/lastmile_qr_scan"}, "lon": -77.041668, "type": "electric_scooter"}, {"bike_id": "51a06b4560fba26b360670308f4949bf", "is_reserved": 0, "fusion_lon": 0.0, "lat": 38.91398316666667, "is_disabled": 0, "name": "51a06b4560fba26b360670308f4949bf", "fusion_lat": 0.0, "rental_uris": {"ios": "https://dc.lft.to/lastmile_qr_scan", "android": "https://dc.lft.to/lastmile_qr_scan"}, "lon": -77.04596566666666, "type": "electric_scooter"}, {"bike_id": "0e64b25b2703f7b875c4ea219fae80dd", "is_reserved": 0, "fusion_lon": 0.0, "lat": 38.900805166666665, "is_disabled": 0, "name": "0e64b25b2703f7b875c4ea219fae80dd", "fusion_lat": 0.0, "rental_uris": {"ios": "https://dc.lft.to/lastmile_qr_scan", "android": "https://dc.lft.to/lastmile_qr_scan"}, "lon": -77.02044733333334, "type": "electric_scooter"}, {"bike_id": "46b3e5424887caf2d684d35652486b06", "is_reserved": 0, "fusion_lon": 0.0, "lat": 38.86423516666667, "is_disabled": 0, "name": "46b3e5424887caf2d684d35652486b06", "fusion_lat": 0.0, "rental_uris": {"ios": "https://dc.lft.to/lastmile_qr_scan", "android": "https://dc.lft.to/lastmile_qr_scan"}, "lon": -76.98577683333333, "type": "electric_scooter"}, {"bike_id": "ef5e8d624968e23ce500022ff0b45840", "is_reserved": 0, "fusion_lon": 0.0, "lat": 38.92601233333333, "is_disabled": 0, "name": "ef5e8d624968e23ce500022ff0b45840", "fusion_lat": 0.0, "rental_uris": {"ios": "https://dc.lft.to/lastmile_qr_scan", "android": "https://dc.lft.to/lastmile_qr_scan"}, "lon": -77.02128283333333, "type": "electric_scooter"}, {"bike_id": "824fc2f314290487a271de6d7e25b178", "is_reserved": 0, "fusion_lon": 0.0, "lat": 38.89362766666667, "is_disabled": 0, "name": "824fc2f314290487a271de6d7e25b178", "fusion_lat": 0.0, "rental_uris": {"ios": "https://dc.lft.to/lastmile_qr_scan", "android": "https://dc.lft.to/lastmile_qr_scan"}, "lon": -77.02855, "type": "electric_scooter"}, {"bike_id": "6bc1eaf5d1bf7819ebfbe9341348f84b", "is_reserved": 0, "fusion_lon": 0.0, "lat": 38.9440055, "is_disabled": 0, "name": "6bc1eaf5d1bf7819ebfbe9341348f84b", "fusion_lat": 0.0, "rental_uris": {"ios": "https://dc.lft.to/lastmile_qr_scan", "android": "https://dc.lft.to/lastmile_qr_scan"}, "lon": -77.03891483333334, "type": "electric_scooter"}, {"bike_id": "5f189c037bcf5e0e258477711d9fa4c9", "is_reserved": 0, "fusion_lon": 0.0, "lat": 38.90136833333333, "is_disabled": 0, "name": "5f189c037bcf5e0e258477711d9fa4c9", "fusion_lat": 0.0, "rental_uris": {"ios": "https://dc.lft.to/lastmile_qr_scan", "android": "https://dc.lft.to/lastmile_qr_scan"}, "lon": -77.04379583333333, "type": "electric_scooter"}, {"bike_id": "37d3f3ab113d4e29f7d65e40d18ee7e0", "is_reserved": 0, "fusion_lon": 0.0, "lat": 38.87876816666667, "is_disabled": 0, "name": "37d3f3ab113d4e29f7d65e40d18ee7e0", "fusion_lat": 0.0, "rental_uris": {"ios": "https://dc.lft.to/lastmile_qr_scan", "android": "https://dc.lft.to/lastmile_qr_scan"}, "lon": -77.02278416666667, "type": "electric_scooter"}, {"bike_id": "bc65d5cffe37b7656a99f89615e964a2", "is_reserved": 0, "fusion_lon": 0.0, "lat": 38.8987285, "is_disabled": 0, "name": "bc65d5cffe37b7656a99f89615e964a2", "fusion_lat": 0.0, "rental_uris": {"ios": "https://dc.lft.to/lastmile_qr_scan", "android": "https://dc.lft.to/lastmile_qr_scan"}, "lon": -76.93158233333334, "type": "electric_scooter"}, {"bike_id": "8bba40689a0400347bb7fd6f0af816e2", "is_reserved": 0, "fusion_lon": 0.0, "lat": 38.91407916666667, "is_disabled": 0, "name": "8bba40689a0400347bb7fd6f0af816e2", "fusion_lat": 0.0, "rental_uris": {"ios": "https://dc.lft.to/lastmile_qr_scan", "android": "https://dc.lft.to/lastmile_qr_scan"}, "lon": -77.00156116666666, "type": "electric_scooter"}, {"bike_id": "43f6b4e28ead9172bb031f1b909f8c09", "is_reserved": 0, "fusion_lon": 0.0, "lat": 38.9173555, "is_disabled": 0, "name": "43f6b4e28ead9172bb031f1b909f8c09", "fusion_lat": 0.0, "rental_uris": {"ios": "https://dc.lft.to/lastmile_qr_scan", "android": "https://dc.lft.to/lastmile_qr_scan"}, "lon": -77.0102455, "type": "electric_scooter"}, {"bike_id": "fadf01d47c593daa1a0d990af86e20d0", "is_reserved": 0, "fusion_lon": 0.0, "lat": 38.924444, "is_disabled": 0, "name": "fadf01d47c593daa1a0d990af86e20d0", "fusion_lat": 0.0, "rental_uris": {"ios": "https://dc.lft.to/lastmile_qr_scan", "android": "https://dc.lft.to/lastmile_qr_scan"}, "lon": -76.99331216666667, "type": "electric_scooter"}, {"bike_id": "a80cf50f22cb08772d5f748fff629d87", "is_reserved": 0, "fusion_lon": 0.0, "lat": 38.928733, "is_disabled": 0, "name": "a80cf50f22cb08772d5f748fff629d87", "fusion_lat": 0.0, "rental_uris": {"ios": "https://dc.lft.to/lastmile_qr_scan", "android": "https://dc.lft.to/lastmile_qr_scan"}, "lon": -77.03344283333334, "type": "electric_scooter"}, {"bike_id": "b7ff0ae3ed89e2e1f6d30b87291b8180", "is_reserved": 0, "fusion_lon": 0.0, "lat": 38.9010965, "is_disabled": 0, "name": "b7ff0ae3ed89e2e1f6d30b87291b8180", "fusion_lat": 0.0, "rental_uris": {"ios": "https://dc.lft.to/lastmile_qr_scan", "android": "https://dc.lft.to/lastmile_qr_scan"}, "lon": -77.024226, "type": "electric_scooter"}, {"bike_id": "6863a1f06deb35a3af7904079b16bd26", "is_reserved": 0, "fusion_lon": 0.0, "lat": 38.9156995, "is_disabled": 0, "name": "6863a1f06deb35a3af7904079b16bd26", "fusion_lat": 0.0, "rental_uris": {"ios": "https://dc.lft.to/lastmile_qr_scan", "android": "https://dc.lft.to/lastmile_qr_scan"}, "lon": -77.022903, "type": "electric_scooter"}, {"bike_id": "42486e0ed3be2450d0cee6da875db87c", "is_reserved": 0, "fusion_lon": 0.0, "lat": 39.030548, "is_disabled": 0, "name": "42486e0ed3be2450d0cee6da875db87c", "fusion_lat": 0.0, "rental_uris": {"ios": "https://dc.lft.to/lastmile_qr_scan", "android": "https://dc.lft.to/lastmile_qr_scan"}, "lon": -77.09475366666666, "type": "electric_bike"}, {"bike_id": "ed73428fe9c1fbd15b56f1fba5e11a0a", "is_reserved": 0, "fusion_lon": 0.0, "lat": 38.89199766666667, "is_disabled": 0, "name": "ed73428fe9c1fbd15b56f1fba5e11a0a", "fusion_lat": 0.0, "rental_uris": {"ios": "https://dc.lft.to/lastmile_qr_scan", "android": "https://dc.lft.to/lastmile_qr_scan"}, "lon": -77.0154965, "type": "electric_scooter"}, {"bike_id": "49737c163bb2c3e87e55924fed152256", "is_reserved": 0, "fusion_lon": 0.0, "lat": 38.92848133333333, "is_disabled": 0, "name": "49737c163bb2c3e87e55924fed152256", "fusion_lat": 0.0, "rental_uris": {"ios": "https://dc.lft.to/lastmile_qr_scan", "android": "https://dc.lft.to/lastmile_qr_scan"}, "lon": -77.05424416666666, "type": "electric_scooter"}, {"bike_id": "5fbb4f3efae6c4df293a26ce61e83d36", "is_reserved": 0, "fusion_lon": 0.0, "lat": 38.8957125, "is_disabled": 0, "name": "5fbb4f3efae6c4df293a26ce61e83d36", "fusion_lat": 0.0, "rental_uris": {"ios": "https://dc.lft.to/lastmile_qr_scan", "android": "https://dc.lft.to/lastmile_qr_scan"}, "lon": -77.02569733333333, "type": "electric_scooter"}, {"bike_id": "27a89762ae8674cea5e5b0ed85f35474", "is_reserved": 0, "fusion_lon": 0.0, "lat": 38.880000833333334, "is_disabled": 0, "name": "27a89762ae8674cea5e5b0ed85f35474", "fusion_lat": 0.0, "rental_uris": {"ios": "https://dc.lft.to/lastmile_qr_scan", "android": "https://dc.lft.to/lastmile_qr_scan"}, "lon": -76.985404, "type": "electric_scooter"}, {"bike_id": "e9b3d491e779b4d3b1839b4bc634d663", "is_reserved": 0, "fusion_lon": 0.0, "lat": 38.9025345, "is_disabled": 0, "name": "e9b3d491e779b4d3b1839b4bc634d663", "fusion_lat": 0.0, "rental_uris": {"ios": "https://dc.lft.to/lastmile_qr_scan", "android": "https://dc.lft.to/lastmile_qr_scan"}, "lon": -77.03330166666667, "type": "electric_scooter"}, {"bike_id": "1c4964cd146040c1c668af02c54c46d2", "is_reserved": 0, "fusion_lon": 0.0, "lat": 38.93168983333333, "is_disabled": 0, "name": "1c4964cd146040c1c668af02c54c46d2", "fusion_lat": 0.0, "rental_uris": {"ios": "https://dc.lft.to/lastmile_qr_scan", "android": "https://dc.lft.to/lastmile_qr_scan"}, "lon": -76.99612133333333, "type": "electric_scooter"}, {"bike_id": "a8ced2fffdd55a691dbac2027ce280bf", "is_reserved": 0, "fusion_lon": 0.0, "lat": 38.90829866666667, "is_disabled": 0, "name": "a8ced2fffdd55a691dbac2027ce280bf", "fusion_lat": 0.0, "rental_uris": {"ios": "https://dc.lft.to/lastmile_qr_scan", "android": "https://dc.lft.to/lastmile_qr_scan"}, "lon": -76.9969425, "type": "electric_scooter"}, {"bike_id": "ecb5cdade62f011bad083f52f6f376f2", "is_reserved": 0, "fusion_lon": 0.0, "lat": 38.9204995, "is_disabled": 0, "name": "ecb5cdade62f011bad083f52f6f376f2", "fusion_lat": 0.0, "rental_uris": {"ios": "https://dc.lft.to/lastmile_qr_scan", "android": "https://dc.lft.to/lastmile_qr_scan"}, "lon": -77.04196083333333, "type": "electric_scooter"}, {"bike_id": "9039d80b2784be4429fd9e7c309274c1", "is_reserved": 0, "fusion_lon": 0.0, "lat": 38.897167333333336, "is_disabled": 0, "name": "9039d80b2784be4429fd9e7c309274c1", "fusion_lat": 0.0, "rental_uris": {"ios": "https://dc.lft.to/lastmile_qr_scan", "android": "https://dc.lft.to/lastmile_qr_scan"}, "lon": -77.02686783333333, "type": "electric_scooter"}, {"bike_id": "9c56bb22ab6aa96924978811c2736959", "is_reserved": 0, "fusion_lon": 0.0, "lat": 38.88704216666667, "is_disabled": 0, "name": "9c56bb22ab6aa96924978811c2736959", "fusion_lat": 0.0, "rental_uris": {"ios": "https://dc.lft.to/lastmile_qr_scan", "android": "https://dc.lft.to/lastmile_qr_scan"}, "lon": -77.00145533333334, "type": "electric_scooter"}, {"bike_id": "6737764c6570c772147b0f1d48a165d2", "is_reserved": 0, "fusion_lon": 0.0, "lat": 38.88429416666666, "is_disabled": 0, "name": "6737764c6570c772147b0f1d48a165d2", "fusion_lat": 0.0, "rental_uris": {"ios": "https://dc.lft.to/lastmile_qr_scan", "android": "https://dc.lft.to/lastmile_qr_scan"}, "lon": -76.9959385, "type": "electric_scooter"}, {"bike_id": "0bacfb6241977f7a51275b3719a73789", "is_reserved": 0, "fusion_lon": 0.0, "lat": 38.9732785, "is_disabled": 0, "name": "0bacfb6241977f7a51275b3719a73789", "fusion_lat": 0.0, "rental_uris": {"ios": "https://dc.lft.to/lastmile_qr_scan", "android": "https://dc.lft.to/lastmile_qr_scan"}, "lon": -77.0214815, "type": "electric_bike"}, {"bike_id": "883b6c946d01eb0f244b588ae899586c", "is_reserved": 0, "fusion_lon": 0.0, "lat": 38.911036833333334, "is_disabled": 0, "name": "883b6c946d01eb0f244b588ae899586c", "fusion_lat": 0.0, "rental_uris": {"ios": "https://dc.lft.to/lastmile_qr_scan", "android": "https://dc.lft.to/lastmile_qr_scan"}, "lon": -77.00212433333333, "type": "electric_scooter"}, {"bike_id": "5847c2db88b09efff4936369b58561df", "is_reserved": 0, "fusion_lon": 0.0, "lat": 38.903386833333336, "is_disabled": 0, "name": "5847c2db88b09efff4936369b58561df", "fusion_lat": 0.0, "rental_uris": {"ios": "https://dc.lft.to/lastmile_qr_scan", "android": "https://dc.lft.to/lastmile_qr_scan"}, "lon": -77.03854533333333, "type": "electric_scooter"}, {"bike_id": "f82e8be786fb7c69659d5ea84db153f7", "is_reserved": 0, "fusion_lon": 0.0, "lat": 38.83857016666666, "is_disabled": 0, "name": "f82e8be786fb7c69659d5ea84db153f7", "fusion_lat": 0.0, "rental_uris": {"ios": "https://dc.lft.to/lastmile_qr_scan", "android": "https://dc.lft.to/lastmile_qr_scan"}, "lon": -77.088615, "type": "electric_bike"}, {"bike_id": "73af87b4838d97b0ff4006945a15ada4", "is_reserved": 0, "fusion_lon": 0.0, "lat": 38.9003005, "is_disabled": 0, "name": "73af87b4838d97b0ff4006945a15ada4", "fusion_lat": 0.0, "rental_uris": {"ios": "https://dc.lft.to/lastmile_qr_scan", "android": "https://dc.lft.to/lastmile_qr_scan"}, "lon": -76.99449866666667, "type": "electric_scooter"}, {"bike_id": "abb7c79e23b0bef4b835c1235521267e", "is_reserved": 0, "fusion_lon": 0.0, "lat": 38.92297416666667, "is_disabled": 0, "name": "abb7c79e23b0bef4b835c1235521267e", "fusion_lat": 0.0, "rental_uris": {"ios": "https://dc.lft.to/lastmile_qr_scan", "android": "https://dc.lft.to/lastmile_qr_scan"}, "lon": -77.04142733333333, "type": "electric_scooter"}, {"bike_id": "c935fe2e41d36e002221ef3eeb1bc3aa", "is_reserved": 0, "fusion_lon": 0.0, "lat": 38.9041725, "is_disabled": 0, "name": "c935fe2e41d36e002221ef3eeb1bc3aa", "fusion_lat": 0.0, "rental_uris": {"ios": "https://dc.lft.to/lastmile_qr_scan", "android": "https://dc.lft.to/lastmile_qr_scan"}, "lon": -77.0295745, "type": "electric_scooter"}, {"bike_id": "7b2647384bcc14f088ddd62524f06f94", "is_reserved": 0, "fusion_lon": 0.0, "lat": 38.91712483333333, "is_disabled": 0, "name": "7b2647384bcc14f088ddd62524f06f94", "fusion_lat": 0.0, "rental_uris": {"ios": "https://dc.lft.to/lastmile_qr_scan", "android": "https://dc.lft.to/lastmile_qr_scan"}, "lon": -77.032274, "type": "electric_scooter"}, {"bike_id": "c5708c820a6cd4c32449d29be6da73f0", "is_reserved": 0, "fusion_lon": 0.0, "lat": 38.86419933333333, "is_disabled": 0, "name": "c5708c820a6cd4c32449d29be6da73f0", "fusion_lat": 0.0, "rental_uris": {"ios": "https://dc.lft.to/lastmile_qr_scan", "android": "https://dc.lft.to/lastmile_qr_scan"}, "lon": -76.97445416666666, "type": "electric_scooter"}, {"bike_id": "ffeeb5999c03ae251bd007a5126af851", "is_reserved": 0, "fusion_lon": 0.0, "lat": 38.92446066666667, "is_disabled": 0, "name": "ffeeb5999c03ae251bd007a5126af851", "fusion_lat": 0.0, "rental_uris": {"ios": "https://dc.lft.to/lastmile_qr_scan", "android": "https://dc.lft.to/lastmile_qr_scan"}, "lon": -77.03373, "type": "electric_scooter"}, {"bike_id": "27679cbbf717c9883e1627e4cc9c2581", "is_reserved": 0, "fusion_lon": 0.0, "lat": 38.90674383333333, "is_disabled": 0, "name": "27679cbbf717c9883e1627e4cc9c2581", "fusion_lat": 0.0, "rental_uris": {"ios": "https://dc.lft.to/lastmile_qr_scan", "android": "https://dc.lft.to/lastmile_qr_scan"}, "lon": -77.038106, "type": "electric_scooter"}, {"bike_id": "0db09ba3d5abc12aa756180f1813db8b", "is_reserved": 0, "fusion_lon": 0.0, "lat": 38.9320235, "is_disabled": 0, "name": "0db09ba3d5abc12aa756180f1813db8b", "fusion_lat": 0.0, "rental_uris": {"ios": "https://dc.lft.to/lastmile_qr_scan", "android": "https://dc.lft.to/lastmile_qr_scan"}, "lon": -77.038509, "type": "electric_scooter"}, {"bike_id": "26f2a2937d09700a3ef242543b835661", "is_reserved": 0, "fusion_lon": 0.0, "lat": 38.972311, "is_disabled": 0, "name": "26f2a2937d09700a3ef242543b835661", "fusion_lat": 0.0, "rental_uris": {"ios": "https://dc.lft.to/lastmile_qr_scan", "android": "https://dc.lft.to/lastmile_qr_scan"}, "lon": -77.027103, "type": "electric_scooter"}, {"bike_id": "261d931d37ffd7dbab14646d1b88e5f6", "is_reserved": 0, "fusion_lon": 0.0, "lat": 38.89401066666667, "is_disabled": 0, "name": "261d931d37ffd7dbab14646d1b88e5f6", "fusion_lat": 0.0, "rental_uris": {"ios": "https://dc.lft.to/lastmile_qr_scan", "android": "https://dc.lft.to/lastmile_qr_scan"}, "lon": -76.94804316666666, "type": "electric_scooter"}, {"bike_id": "3fd0c10b21fad42e810b12ca6fee71bf", "is_reserved": 0, "fusion_lon": 0.0, "lat": 38.9079495, "is_disabled": 0, "name": "3fd0c10b21fad42e810b12ca6fee71bf", "fusion_lat": 0.0, "rental_uris": {"ios": "https://dc.lft.to/lastmile_qr_scan", "android": "https://dc.lft.to/lastmile_qr_scan"}, "lon": -77.0487275, "type": "electric_scooter"}, {"bike_id": "5ecac85051b32bdead17e5825a059f93", "is_reserved": 0, "fusion_lon": 0.0, "lat": 38.9000525, "is_disabled": 0, "name": "5ecac85051b32bdead17e5825a059f93", "fusion_lat": 0.0, "rental_uris": {"ios": "https://dc.lft.to/lastmile_qr_scan", "android": "https://dc.lft.to/lastmile_qr_scan"}, "lon": -76.99489633333333, "type": "electric_scooter"}, {"bike_id": "b4efa50e70f49b5f88e202d5f8713479", "is_reserved": 0, "fusion_lon": 0.0, "lat": 38.89970366666667, "is_disabled": 0, "name": "b4efa50e70f49b5f88e202d5f8713479", "fusion_lat": 0.0, "rental_uris": {"ios": "https://dc.lft.to/lastmile_qr_scan", "android": "https://dc.lft.to/lastmile_qr_scan"}, "lon": -76.98680866666666, "type": "electric_bike"}, {"bike_id": "1e180ca184b72875b8d82aef9aedc358", "is_reserved": 0, "fusion_lon": 0.0, "lat": 38.91953266666667, "is_disabled": 0, "name": "1e180ca184b72875b8d82aef9aedc358", "fusion_lat": 0.0, "rental_uris": {"ios": "https://dc.lft.to/lastmile_qr_scan", "android": "https://dc.lft.to/lastmile_qr_scan"}, "lon": -77.03210266666666, "type": "electric_scooter"}, {"bike_id": "82fc0d19a97bf75d39af550c46d4d56b", "is_reserved": 0, "fusion_lon": 0.0, "lat": 38.90966366666667, "is_disabled": 0, "name": "82fc0d19a97bf75d39af550c46d4d56b", "fusion_lat": 0.0, "rental_uris": {"ios": "https://dc.lft.to/lastmile_qr_scan", "android": "https://dc.lft.to/lastmile_qr_scan"}, "lon": -77.03368416666666, "type": "electric_scooter"}, {"bike_id": "29d2736e77996b5b3119484cac3ea790", "is_reserved": 0, "fusion_lon": 0.0, "lat": 38.91408116666667, "is_disabled": 0, "name": "29d2736e77996b5b3119484cac3ea790", "fusion_lat": 0.0, "rental_uris": {"ios": "https://dc.lft.to/lastmile_qr_scan", "android": "https://dc.lft.to/lastmile_qr_scan"}, "lon": -77.04564116666667, "type": "electric_scooter"}, {"bike_id": "b5c443888349a0be3a267d4b08025097", "is_reserved": 0, "fusion_lon": 0.0, "lat": 38.89534483333333, "is_disabled": 0, "name": "b5c443888349a0be3a267d4b08025097", "fusion_lat": 0.0, "rental_uris": {"ios": "https://dc.lft.to/lastmile_qr_scan", "android": "https://dc.lft.to/lastmile_qr_scan"}, "lon": -77.03351283333333, "type": "electric_scooter"}, {"bike_id": "14559f383a03c752dc2f48f4549f2d2b", "is_reserved": 0, "fusion_lon": 0.0, "lat": 38.91918116666667, "is_disabled": 0, "name": "14559f383a03c752dc2f48f4549f2d2b", "fusion_lat": 0.0, "rental_uris": {"ios": "https://dc.lft.to/lastmile_qr_scan", "android": "https://dc.lft.to/lastmile_qr_scan"}, "lon": -77.0261795, "type": "electric_scooter"}, {"bike_id": "41ad6184e0b470942b61a41574019e75", "is_reserved": 0, "fusion_lon": 0.0, "lat": 38.924529166666666, "is_disabled": 0, "name": "41ad6184e0b470942b61a41574019e75", "fusion_lat": 0.0, "rental_uris": {"ios": "https://dc.lft.to/lastmile_qr_scan", "android": "https://dc.lft.to/lastmile_qr_scan"}, "lon": -77.02025516666667, "type": "electric_scooter"}, {"bike_id": "38fc592f27a997c44ee89172990d2f6c", "is_reserved": 0, "fusion_lon": 0.0, "lat": 38.94089666666667, "is_disabled": 0, "name": "38fc592f27a997c44ee89172990d2f6c", "fusion_lat": 0.0, "rental_uris": {"ios": "https://dc.lft.to/lastmile_qr_scan", "android": "https://dc.lft.to/lastmile_qr_scan"}, "lon": -77.03279483333333, "type": "electric_scooter"}, {"bike_id": "57e86c696626457c6a8e9eaa2cfed5da", "is_reserved": 0, "fusion_lon": 0.0, "lat": 38.89329866666667, "is_disabled": 0, "name": "57e86c696626457c6a8e9eaa2cfed5da", "fusion_lat": 0.0, "rental_uris": {"ios": "https://dc.lft.to/lastmile_qr_scan", "android": "https://dc.lft.to/lastmile_qr_scan"}, "lon": -76.92990083333333, "type": "electric_scooter"}, {"bike_id": "8300fc328897c1fa8c0283fbc854da3f", "is_reserved": 0, "fusion_lon": 0.0, "lat": 38.922847, "is_disabled": 0, "name": "8300fc328897c1fa8c0283fbc854da3f", "fusion_lat": 0.0, "rental_uris": {"ios": "https://dc.lft.to/lastmile_qr_scan", "android": "https://dc.lft.to/lastmile_qr_scan"}, "lon": -77.03661733333334, "type": "electric_scooter"}, {"bike_id": "849a871848f7721af77414c2781e5993", "is_reserved": 0, "fusion_lon": 0.0, "lat": 38.91097466666667, "is_disabled": 0, "name": "849a871848f7721af77414c2781e5993", "fusion_lat": 0.0, "rental_uris": {"ios": "https://dc.lft.to/lastmile_qr_scan", "android": "https://dc.lft.to/lastmile_qr_scan"}, "lon": -77.00262233333333, "type": "electric_scooter"}, {"bike_id": "8fd4a70094fec9c98bcaf6cf96ef8e5b", "is_reserved": 0, "fusion_lon": 0.0, "lat": 38.90373, "is_disabled": 0, "name": "8fd4a70094fec9c98bcaf6cf96ef8e5b", "fusion_lat": 0.0, "rental_uris": {"ios": "https://dc.lft.to/lastmile_qr_scan", "android": "https://dc.lft.to/lastmile_qr_scan"}, "lon": -77.04327316666667, "type": "electric_scooter"}, {"bike_id": "6dbbc9f25ecba0d1e411356da1f2996c", "is_reserved": 0, "fusion_lon": 0.0, "lat": 38.898868, "is_disabled": 0, "name": "6dbbc9f25ecba0d1e411356da1f2996c", "fusion_lat": 0.0, "rental_uris": {"ios": "https://dc.lft.to/lastmile_qr_scan", "android": "https://dc.lft.to/lastmile_qr_scan"}, "lon": -77.00361716666667, "type": "electric_scooter"}, {"bike_id": "95e5157bc359cba55ed3ed4db5e476cb", "is_reserved": 0, "fusion_lon": 0.0, "lat": 38.87629733333333, "is_disabled": 0, "name": "95e5157bc359cba55ed3ed4db5e476cb", "fusion_lat": 0.0, "rental_uris": {"ios": "https://dc.lft.to/lastmile_qr_scan", "android": "https://dc.lft.to/lastmile_qr_scan"}, "lon": -76.96523883333333, "type": "electric_scooter"}, {"bike_id": "57a33b9f2b093fce9691933b78c65334", "is_reserved": 0, "fusion_lon": 0.0, "lat": 38.9068245, "is_disabled": 0, "name": "57a33b9f2b093fce9691933b78c65334", "fusion_lat": 0.0, "rental_uris": {"ios": "https://dc.lft.to/lastmile_qr_scan", "android": "https://dc.lft.to/lastmile_qr_scan"}, "lon": -77.037639, "type": "electric_scooter"}, {"bike_id": "60aedecb1dc119b916eef8f3d11f2dc0", "is_reserved": 0, "fusion_lon": 0.0, "lat": 38.8291785, "is_disabled": 0, "name": "60aedecb1dc119b916eef8f3d11f2dc0", "fusion_lat": 0.0, "rental_uris": {"ios": "https://dc.lft.to/lastmile_qr_scan", "android": "https://dc.lft.to/lastmile_qr_scan"}, "lon": -76.99738216666667, "type": "electric_scooter"}, {"bike_id": "aaf620732a90e3c8287f7a8f5c39cf4c", "is_reserved": 0, "fusion_lon": 0.0, "lat": 38.89978516666667, "is_disabled": 0, "name": "aaf620732a90e3c8287f7a8f5c39cf4c", "fusion_lat": 0.0, "rental_uris": {"ios": "https://dc.lft.to/lastmile_qr_scan", "android": "https://dc.lft.to/lastmile_qr_scan"}, "lon": -76.99144033333333, "type": "electric_scooter"}, {"bike_id": "2f9969848ef680eea19b41970664ceb1", "is_reserved": 0, "fusion_lon": 0.0, "lat": 38.90587133333333, "is_disabled": 0, "name": "2f9969848ef680eea19b41970664ceb1", "fusion_lat": 0.0, "rental_uris": {"ios": "https://dc.lft.to/lastmile_qr_scan", "android": "https://dc.lft.to/lastmile_qr_scan"}, "lon": -77.04613733333333, "type": "electric_scooter"}, {"bike_id": "282f92ae312e267bfa9e6af383850857", "is_reserved": 0, "fusion_lon": 0.0, "lat": 38.917709, "is_disabled": 0, "name": "282f92ae312e267bfa9e6af383850857", "fusion_lat": 0.0, "rental_uris": {"ios": "https://dc.lft.to/lastmile_qr_scan", "android": "https://dc.lft.to/lastmile_qr_scan"}, "lon": -77.047482, "type": "electric_scooter"}, {"bike_id": "907b1d6631556f264cb0a2535c2af884", "is_reserved": 0, "fusion_lon": 0.0, "lat": 38.907065333333335, "is_disabled": 0, "name": "907b1d6631556f264cb0a2535c2af884", "fusion_lat": 0.0, "rental_uris": {"ios": "https://dc.lft.to/lastmile_qr_scan", "android": "https://dc.lft.to/lastmile_qr_scan"}, "lon": -77.031978, "type": "electric_scooter"}, {"bike_id": "38082ec4185ab097cbcbe92fa2039ec9", "is_reserved": 0, "fusion_lon": 0.0, "lat": 38.936113666666664, "is_disabled": 0, "name": "38082ec4185ab097cbcbe92fa2039ec9", "fusion_lat": 0.0, "rental_uris": {"ios": "https://dc.lft.to/lastmile_qr_scan", "android": "https://dc.lft.to/lastmile_qr_scan"}, "lon": -77.03206666666667, "type": "electric_scooter"}, {"bike_id": "0078b0ff3688cc9c11655113761afd06", "is_reserved": 0, "fusion_lon": 0.0, "lat": 38.90132966666667, "is_disabled": 0, "name": "0078b0ff3688cc9c11655113761afd06", "fusion_lat": 0.0, "rental_uris": {"ios": "https://dc.lft.to/lastmile_qr_scan", "android": "https://dc.lft.to/lastmile_qr_scan"}, "lon": -77.044769, "type": "electric_scooter"}, {"bike_id": "7ec89436f0dcc68ed5e93e36746f240a", "is_reserved": 0, "fusion_lon": 0.0, "lat": 38.93349216666667, "is_disabled": 0, "name": "7ec89436f0dcc68ed5e93e36746f240a", "fusion_lat": 0.0, "rental_uris": {"ios": "https://dc.lft.to/lastmile_qr_scan", "android": "https://dc.lft.to/lastmile_qr_scan"}, "lon": -77.05863616666667, "type": "electric_scooter"}, {"bike_id": "66cbe6304223595aac3314e8c4dc714a", "is_reserved": 0, "fusion_lon": 0.0, "lat": 38.86242683333333, "is_disabled": 0, "name": "66cbe6304223595aac3314e8c4dc714a", "fusion_lat": 0.0, "rental_uris": {"ios": "https://dc.lft.to/lastmile_qr_scan", "android": "https://dc.lft.to/lastmile_qr_scan"}, "lon": -76.99483283333333, "type": "electric_scooter"}, {"bike_id": "894b2165be1371a65b11c4ebf1279faa", "is_reserved": 0, "fusion_lon": 0.0, "lat": 38.9111175, "is_disabled": 0, "name": "894b2165be1371a65b11c4ebf1279faa", "fusion_lat": 0.0, "rental_uris": {"ios": "https://dc.lft.to/lastmile_qr_scan", "android": "https://dc.lft.to/lastmile_qr_scan"}, "lon": -77.065216, "type": "electric_scooter"}, {"bike_id": "c499133f7d368af8277e981a9c62f10a", "is_reserved": 0, "fusion_lon": 0.0, "lat": 38.900153, "is_disabled": 0, "name": "c499133f7d368af8277e981a9c62f10a", "fusion_lat": 0.0, "rental_uris": {"ios": "https://dc.lft.to/lastmile_qr_scan", "android": "https://dc.lft.to/lastmile_qr_scan"}, "lon": -77.01134433333333, "type": "electric_scooter"}, {"bike_id": "3190e140bbaf23420a0259db9217a8f0", "is_reserved": 0, "fusion_lon": 0.0, "lat": 38.898154166666664, "is_disabled": 0, "name": "3190e140bbaf23420a0259db9217a8f0", "fusion_lat": 0.0, "rental_uris": {"ios": "https://dc.lft.to/lastmile_qr_scan", "android": "https://dc.lft.to/lastmile_qr_scan"}, "lon": -77.0294595, "type": "electric_scooter"}, {"bike_id": "975e05e21e0090162666fb3638ecf450", "is_reserved": 0, "fusion_lon": 0.0, "lat": 38.90313716666667, "is_disabled": 0, "name": "975e05e21e0090162666fb3638ecf450", "fusion_lat": 0.0, "rental_uris": {"ios": "https://dc.lft.to/lastmile_qr_scan", "android": "https://dc.lft.to/lastmile_qr_scan"}, "lon": -77.03981816666666, "type": "electric_scooter"}, {"bike_id": "cd6e8c38fb30718a9bc08fc5607b091c", "is_reserved": 0, "fusion_lon": 0.0, "lat": 38.905226166666665, "is_disabled": 0, "name": "cd6e8c38fb30718a9bc08fc5607b091c", "fusion_lat": 0.0, "rental_uris": {"ios": "https://dc.lft.to/lastmile_qr_scan", "android": "https://dc.lft.to/lastmile_qr_scan"}, "lon": -77.0416625, "type": "electric_scooter"}, {"bike_id": "c3caa6cf55e6c4f14dd5f3f58726497d", "is_reserved": 0, "fusion_lon": 0.0, "lat": 38.918634833333336, "is_disabled": 0, "name": "c3caa6cf55e6c4f14dd5f3f58726497d", "fusion_lat": 0.0, "rental_uris": {"ios": "https://dc.lft.to/lastmile_qr_scan", "android": "https://dc.lft.to/lastmile_qr_scan"}, "lon": -77.04152866666666, "type": "electric_scooter"}, {"bike_id": "b22cea443ccfa4ab42b896f518a1ea42", "is_reserved": 0, "fusion_lon": 0.0, "lat": 38.9060625, "is_disabled": 0, "name": "b22cea443ccfa4ab42b896f518a1ea42", "fusion_lat": 0.0, "rental_uris": {"ios": "https://dc.lft.to/lastmile_qr_scan", "android": "https://dc.lft.to/lastmile_qr_scan"}, "lon": -77.05131416666667, "type": "electric_scooter"}, {"bike_id": "c7c81c329f0c8612bca897c94b86409a", "is_reserved": 0, "fusion_lon": 0.0, "lat": 38.885036166666666, "is_disabled": 0, "name": "c7c81c329f0c8612bca897c94b86409a", "fusion_lat": 0.0, "rental_uris": {"ios": "https://dc.lft.to/lastmile_qr_scan", "android": "https://dc.lft.to/lastmile_qr_scan"}, "lon": -77.005648, "type": "electric_scooter"}, {"bike_id": "fcc85726c55c962251ef4d73ff38b536", "is_reserved": 0, "fusion_lon": 0.0, "lat": 38.923791, "is_disabled": 0, "name": "fcc85726c55c962251ef4d73ff38b536", "fusion_lat": 0.0, "rental_uris": {"ios": "https://dc.lft.to/lastmile_qr_scan", "android": "https://dc.lft.to/lastmile_qr_scan"}, "lon": -77.05176266666666, "type": "electric_scooter"}, {"bike_id": "00e8d2797f16d257a0d7ed9ce8e5175c", "is_reserved": 0, "fusion_lon": 0.0, "lat": 38.916496, "is_disabled": 0, "name": "00e8d2797f16d257a0d7ed9ce8e5175c", "fusion_lat": 0.0, "rental_uris": {"ios": "https://dc.lft.to/lastmile_qr_scan", "android": "https://dc.lft.to/lastmile_qr_scan"}, "lon": -77.0417095, "type": "electric_scooter"}, {"bike_id": "02af0badf542d8273d33d229411f3f96", "is_reserved": 0, "fusion_lon": 0.0, "lat": 38.91134016666667, "is_disabled": 0, "name": "02af0badf542d8273d33d229411f3f96", "fusion_lat": 0.0, "rental_uris": {"ios": "https://dc.lft.to/lastmile_qr_scan", "android": "https://dc.lft.to/lastmile_qr_scan"}, "lon": -77.003005, "type": "electric_bike"}, {"bike_id": "5fd08f11f8da2ca970a1ed0f7143e4bc", "is_reserved": 0, "fusion_lon": 0.0, "lat": 38.90301183333333, "is_disabled": 0, "name": "5fd08f11f8da2ca970a1ed0f7143e4bc", "fusion_lat": 0.0, "rental_uris": {"ios": "https://dc.lft.to/lastmile_qr_scan", "android": "https://dc.lft.to/lastmile_qr_scan"}, "lon": -77.06007283333334, "type": "electric_scooter"}, {"bike_id": "d497b997f5a52e3bf0929019d0154bb6", "is_reserved": 0, "fusion_lon": 0.0, "lat": 38.873362166666666, "is_disabled": 0, "name": "d497b997f5a52e3bf0929019d0154bb6", "fusion_lat": 0.0, "rental_uris": {"ios": "https://dc.lft.to/lastmile_qr_scan", "android": "https://dc.lft.to/lastmile_qr_scan"}, "lon": -76.96782716666667, "type": "electric_scooter"}, {"bike_id": "c16f81e4dfe3ec922099e546b734c4a8", "is_reserved": 0, "fusion_lon": 0.0, "lat": 38.93966116666667, "is_disabled": 0, "name": "c16f81e4dfe3ec922099e546b734c4a8", "fusion_lat": 0.0, "rental_uris": {"ios": "https://dc.lft.to/lastmile_qr_scan", "android": "https://dc.lft.to/lastmile_qr_scan"}, "lon": -77.05320183333333, "type": "electric_scooter"}, {"bike_id": "5529ff6f5a52abfb2ae75963315b3380", "is_reserved": 0, "fusion_lon": 0.0, "lat": 38.87929883333334, "is_disabled": 0, "name": "5529ff6f5a52abfb2ae75963315b3380", "fusion_lat": 0.0, "rental_uris": {"ios": "https://dc.lft.to/lastmile_qr_scan", "android": "https://dc.lft.to/lastmile_qr_scan"}, "lon": -77.013398, "type": "electric_scooter"}, {"bike_id": "49a04eed9c0318f99f77e2a58fc73786", "is_reserved": 0, "fusion_lon": 0.0, "lat": 38.935856, "is_disabled": 0, "name": "49a04eed9c0318f99f77e2a58fc73786", "fusion_lat": 0.0, "rental_uris": {"ios": "https://dc.lft.to/lastmile_qr_scan", "android": "https://dc.lft.to/lastmile_qr_scan"}, "lon": -77.03277, "type": "electric_scooter"}, {"bike_id": "f10f64e56d9595b164112f23545290b5", "is_reserved": 0, "fusion_lon": 0.0, "lat": 38.921443, "is_disabled": 0, "name": "f10f64e56d9595b164112f23545290b5", "fusion_lat": 0.0, "rental_uris": {"ios": "https://dc.lft.to/lastmile_qr_scan", "android": "https://dc.lft.to/lastmile_qr_scan"}, "lon": -77.03164466666666, "type": "electric_scooter"}, {"bike_id": "eda907f1c69b46ae9074f551a259bb5b", "is_reserved": 0, "fusion_lon": 0.0, "lat": 38.91043833333333, "is_disabled": 0, "name": "eda907f1c69b46ae9074f551a259bb5b", "fusion_lat": 0.0, "rental_uris": {"ios": "https://dc.lft.to/lastmile_qr_scan", "android": "https://dc.lft.to/lastmile_qr_scan"}, "lon": -77.02803916666667, "type": "electric_scooter"}, {"bike_id": "5b6b46405ad6d84ac287683f949057bc", "is_reserved": 0, "fusion_lon": 0.0, "lat": 38.842831, "is_disabled": 0, "name": "5b6b46405ad6d84ac287683f949057bc", "fusion_lat": 0.0, "rental_uris": {"ios": "https://dc.lft.to/lastmile_qr_scan", "android": "https://dc.lft.to/lastmile_qr_scan"}, "lon": -76.98840916666667, "type": "electric_bike"}, {"bike_id": "9f19686003af31af7e02847029e7366f", "is_reserved": 0, "fusion_lon": 0.0, "lat": 38.8983105, "is_disabled": 0, "name": "9f19686003af31af7e02847029e7366f", "fusion_lat": 0.0, "rental_uris": {"ios": "https://dc.lft.to/lastmile_qr_scan", "android": "https://dc.lft.to/lastmile_qr_scan"}, "lon": -77.03316066666666, "type": "electric_scooter"}, {"bike_id": "4e9ee75d645705a5d4b26be5b74f5592", "is_reserved": 0, "fusion_lon": 0.0, "lat": 38.884945333333334, "is_disabled": 0, "name": "4e9ee75d645705a5d4b26be5b74f5592", "fusion_lat": 0.0, "rental_uris": {"ios": "https://dc.lft.to/lastmile_qr_scan", "android": "https://dc.lft.to/lastmile_qr_scan"}, "lon": -77.007316, "type": "electric_scooter"}, {"bike_id": "6c5ebe23b7b501132b74bebd442003ae", "is_reserved": 0, "fusion_lon": 0.0, "lat": 38.9059435, "is_disabled": 0, "name": "6c5ebe23b7b501132b74bebd442003ae", "fusion_lat": 0.0, "rental_uris": {"ios": "https://dc.lft.to/lastmile_qr_scan", "android": "https://dc.lft.to/lastmile_qr_scan"}, "lon": -77.016074, "type": "electric_scooter"}, {"bike_id": "ba8d0b5f696ce51cc332480d53072542", "is_reserved": 0, "fusion_lon": 0.0, "lat": 38.903119333333336, "is_disabled": 0, "name": "ba8d0b5f696ce51cc332480d53072542", "fusion_lat": 0.0, "rental_uris": {"ios": "https://dc.lft.to/lastmile_qr_scan", "android": "https://dc.lft.to/lastmile_qr_scan"}, "lon": -77.03326666666666, "type": "electric_scooter"}, {"bike_id": "938170370600dc011e6330c5827c4ba0", "is_reserved": 0, "fusion_lon": 0.0, "lat": 38.899949666666664, "is_disabled": 0, "name": "938170370600dc011e6330c5827c4ba0", "fusion_lat": 0.0, "rental_uris": {"ios": "https://dc.lft.to/lastmile_qr_scan", "android": "https://dc.lft.to/lastmile_qr_scan"}, "lon": -77.01160333333333, "type": "electric_scooter"}, {"bike_id": "c89465a3278ce0d2c2efe49f9db4944e", "is_reserved": 0, "fusion_lon": 0.0, "lat": 38.839315166666665, "is_disabled": 0, "name": "c89465a3278ce0d2c2efe49f9db4944e", "fusion_lat": 0.0, "rental_uris": {"ios": "https://dc.lft.to/lastmile_qr_scan", "android": "https://dc.lft.to/lastmile_qr_scan"}, "lon": -77.07902466666667, "type": "electric_bike"}, {"bike_id": "40f0f9d16ccdb28cfcf94f0b77edfa56", "is_reserved": 0, "fusion_lon": 0.0, "lat": 38.90831416666666, "is_disabled": 0, "name": "40f0f9d16ccdb28cfcf94f0b77edfa56", "fusion_lat": 0.0, "rental_uris": {"ios": "https://dc.lft.to/lastmile_qr_scan", "android": "https://dc.lft.to/lastmile_qr_scan"}, "lon": -77.043523, "type": "electric_scooter"}, {"bike_id": "b43342fe8b2d48d9ac46607a3e748f4f", "is_reserved": 0, "fusion_lon": 0.0, "lat": 38.91406583333333, "is_disabled": 0, "name": "b43342fe8b2d48d9ac46607a3e748f4f", "fusion_lat": 0.0, "rental_uris": {"ios": "https://dc.lft.to/lastmile_qr_scan", "android": "https://dc.lft.to/lastmile_qr_scan"}, "lon": -77.02080466666666, "type": "electric_scooter"}, {"bike_id": "31a4d457977ce3fc1ce35b5bc1af93cc", "is_reserved": 0, "fusion_lon": 0.0, "lat": 38.951858666666666, "is_disabled": 0, "name": "31a4d457977ce3fc1ce35b5bc1af93cc", "fusion_lat": 0.0, "rental_uris": {"ios": "https://dc.lft.to/lastmile_qr_scan", "android": "https://dc.lft.to/lastmile_qr_scan"}, "lon": -76.93541866666666, "type": "electric_bike"}, {"bike_id": "8c0d75137a3b4d997c3a6f3c96ac6ef6", "is_reserved": 0, "fusion_lon": 0.0, "lat": 38.873769, "is_disabled": 0, "name": "8c0d75137a3b4d997c3a6f3c96ac6ef6", "fusion_lat": 0.0, "rental_uris": {"ios": "https://dc.lft.to/lastmile_qr_scan", "android": "https://dc.lft.to/lastmile_qr_scan"}, "lon": -77.00018616666667, "type": "electric_bike"}, {"bike_id": "d0b39d6b2154aff003c7865d5b24357a", "is_reserved": 0, "fusion_lon": 0.0, "lat": 38.956477666666665, "is_disabled": 0, "name": "d0b39d6b2154aff003c7865d5b24357a", "fusion_lat": 0.0, "rental_uris": {"ios": "https://dc.lft.to/lastmile_qr_scan", "android": "https://dc.lft.to/lastmile_qr_scan"}, "lon": -76.99745716666666, "type": "electric_bike"}, {"bike_id": "c5252c95dd5eecc1102881bf95b0fd95", "is_reserved": 0, "fusion_lon": 0.0, "lat": 38.897670833333336, "is_disabled": 0, "name": "c5252c95dd5eecc1102881bf95b0fd95", "fusion_lat": 0.0, "rental_uris": {"ios": "https://dc.lft.to/lastmile_qr_scan", "android": "https://dc.lft.to/lastmile_qr_scan"}, "lon": -77.02227833333333, "type": "electric_scooter"}, {"bike_id": "e0a5ec1b2d54bf5f33a1771ff51b7684", "is_reserved": 0, "fusion_lon": 0.0, "lat": 38.9170545, "is_disabled": 0, "name": "e0a5ec1b2d54bf5f33a1771ff51b7684", "fusion_lat": 0.0, "rental_uris": {"ios": "https://dc.lft.to/lastmile_qr_scan", "android": "https://dc.lft.to/lastmile_qr_scan"}, "lon": -77.028901, "type": "electric_scooter"}, {"bike_id": "5a5c979bfefb469cb68b978597006b3b", "is_reserved": 0, "fusion_lon": 0.0, "lat": 38.88327733333333, "is_disabled": 0, "name": "5a5c979bfefb469cb68b978597006b3b", "fusion_lat": 0.0, "rental_uris": {"ios": "https://dc.lft.to/lastmile_qr_scan", "android": "https://dc.lft.to/lastmile_qr_scan"}, "lon": -77.01769816666666, "type": "electric_scooter"}, {"bike_id": "898227aadca4d86078cfc639cf36fed5", "is_reserved": 0, "fusion_lon": 0.0, "lat": 38.917055500000004, "is_disabled": 0, "name": "898227aadca4d86078cfc639cf36fed5", "fusion_lat": 0.0, "rental_uris": {"ios": "https://dc.lft.to/lastmile_qr_scan", "android": "https://dc.lft.to/lastmile_qr_scan"}, "lon": -77.00109733333333, "type": "electric_scooter"}, {"bike_id": "e1a4754a4803e3b212532ef9c396375b", "is_reserved": 0, "fusion_lon": 0.0, "lat": 38.92713883333333, "is_disabled": 0, "name": "e1a4754a4803e3b212532ef9c396375b", "fusion_lat": 0.0, "rental_uris": {"ios": "https://dc.lft.to/lastmile_qr_scan", "android": "https://dc.lft.to/lastmile_qr_scan"}, "lon": -77.03854166666666, "type": "electric_scooter"}, {"bike_id": "9dfef8915d198cecc3cfc568a2069b6b", "is_reserved": 0, "fusion_lon": 0.0, "lat": 38.9161515, "is_disabled": 0, "name": "9dfef8915d198cecc3cfc568a2069b6b", "fusion_lat": 0.0, "rental_uris": {"ios": "https://dc.lft.to/lastmile_qr_scan", "android": "https://dc.lft.to/lastmile_qr_scan"}, "lon": -77.03169, "type": "electric_scooter"}, {"bike_id": "450daae59239e7eca6ef3b4a3beef220", "is_reserved": 0, "fusion_lon": 0.0, "lat": 38.88506233333333, "is_disabled": 0, "name": "450daae59239e7eca6ef3b4a3beef220", "fusion_lat": 0.0, "rental_uris": {"ios": "https://dc.lft.to/lastmile_qr_scan", "android": "https://dc.lft.to/lastmile_qr_scan"}, "lon": -77.09690466666666, "type": "electric_bike"}, {"bike_id": "af79038619fa6eeb37548658b0a40b7d", "is_reserved": 0, "fusion_lon": 0.0, "lat": 38.89586966666667, "is_disabled": 0, "name": "af79038619fa6eeb37548658b0a40b7d", "fusion_lat": 0.0, "rental_uris": {"ios": "https://dc.lft.to/lastmile_qr_scan", "android": "https://dc.lft.to/lastmile_qr_scan"}, "lon": -76.93719166666666, "type": "electric_scooter"}, {"bike_id": "8b76efa1254f0725e07ef9d19d061bcd", "is_reserved": 0, "fusion_lon": 0.0, "lat": 38.91266433333333, "is_disabled": 0, "name": "8b76efa1254f0725e07ef9d19d061bcd", "fusion_lat": 0.0, "rental_uris": {"ios": "https://dc.lft.to/lastmile_qr_scan", "android": "https://dc.lft.to/lastmile_qr_scan"}, "lon": -77.07275966666667, "type": "electric_scooter"}, {"bike_id": "9111969e188d8373cb91c905deff1a2b", "is_reserved": 0, "fusion_lon": 0.0, "lat": 38.91930716666667, "is_disabled": 0, "name": "9111969e188d8373cb91c905deff1a2b", "fusion_lat": 0.0, "rental_uris": {"ios": "https://dc.lft.to/lastmile_qr_scan", "android": "https://dc.lft.to/lastmile_qr_scan"}, "lon": -77.0318315, "type": "electric_scooter"}, {"bike_id": "e50e98e7fd36f6534118a4776c6b2c1e", "is_reserved": 0, "fusion_lon": 0.0, "lat": 38.9045455, "is_disabled": 0, "name": "e50e98e7fd36f6534118a4776c6b2c1e", "fusion_lat": 0.0, "rental_uris": {"ios": "https://dc.lft.to/lastmile_qr_scan", "android": "https://dc.lft.to/lastmile_qr_scan"}, "lon": -76.996279, "type": "electric_scooter"}, {"bike_id": "0de4600bb147476f3f8fbc12fa65bfca", "is_reserved": 0, "fusion_lon": 0.0, "lat": 38.8763085, "is_disabled": 0, "name": "0de4600bb147476f3f8fbc12fa65bfca", "fusion_lat": 0.0, "rental_uris": {"ios": "https://dc.lft.to/lastmile_qr_scan", "android": "https://dc.lft.to/lastmile_qr_scan"}, "lon": -76.965245, "type": "electric_scooter"}, {"bike_id": "f46a5aa03e539fb5553a35c360a9efc8", "is_reserved": 0, "fusion_lon": 0.0, "lat": 38.8783825, "is_disabled": 0, "name": "f46a5aa03e539fb5553a35c360a9efc8", "fusion_lat": 0.0, "rental_uris": {"ios": "https://dc.lft.to/lastmile_qr_scan", "android": "https://dc.lft.to/lastmile_qr_scan"}, "lon": -76.99035616666667, "type": "electric_scooter"}, {"bike_id": "ed3fd1b89d19af334fb828013ffe5621", "is_reserved": 0, "fusion_lon": 0.0, "lat": 38.92854583333333, "is_disabled": 0, "name": "ed3fd1b89d19af334fb828013ffe5621", "fusion_lat": 0.0, "rental_uris": {"ios": "https://dc.lft.to/lastmile_qr_scan", "android": "https://dc.lft.to/lastmile_qr_scan"}, "lon": -77.03303366666667, "type": "electric_scooter"}, {"bike_id": "0d73268851054e055d5f56a064c7ad6e", "is_reserved": 0, "fusion_lon": 0.0, "lat": 38.9029665, "is_disabled": 0, "name": "0d73268851054e055d5f56a064c7ad6e", "fusion_lat": 0.0, "rental_uris": {"ios": "https://dc.lft.to/lastmile_qr_scan", "android": "https://dc.lft.to/lastmile_qr_scan"}, "lon": -76.99853166666666, "type": "electric_scooter"}, {"bike_id": "93b695f543550c4d503e55836daa16fb", "is_reserved": 0, "fusion_lon": 0.0, "lat": 38.919139, "is_disabled": 0, "name": "93b695f543550c4d503e55836daa16fb", "fusion_lat": 0.0, "rental_uris": {"ios": "https://dc.lft.to/lastmile_qr_scan", "android": "https://dc.lft.to/lastmile_qr_scan"}, "lon": -77.01343283333334, "type": "electric_scooter"}, {"bike_id": "63ec251593f7c3efd79a1bd22bbabe79", "is_reserved": 0, "fusion_lon": 0.0, "lat": 38.85616566666667, "is_disabled": 0, "name": "63ec251593f7c3efd79a1bd22bbabe79", "fusion_lat": 0.0, "rental_uris": {"ios": "https://dc.lft.to/lastmile_qr_scan", "android": "https://dc.lft.to/lastmile_qr_scan"}, "lon": -76.9801755, "type": "electric_scooter"}, {"bike_id": "cf8420e2077c20db14f853daeee3b56f", "is_reserved": 0, "fusion_lon": 0.0, "lat": 38.84299683333333, "is_disabled": 0, "name": "cf8420e2077c20db14f853daeee3b56f", "fusion_lat": 0.0, "rental_uris": {"ios": "https://dc.lft.to/lastmile_qr_scan", "android": "https://dc.lft.to/lastmile_qr_scan"}, "lon": -76.99939466666666, "type": "electric_scooter"}, {"bike_id": "b66873e0889e80ebcec407f22b67e8d0", "is_reserved": 0, "fusion_lon": 0.0, "lat": 38.866561, "is_disabled": 0, "name": "b66873e0889e80ebcec407f22b67e8d0", "fusion_lat": 0.0, "rental_uris": {"ios": "https://dc.lft.to/lastmile_qr_scan", "android": "https://dc.lft.to/lastmile_qr_scan"}, "lon": -76.9888325, "type": "electric_scooter"}, {"bike_id": "b6623fe1de6a9d5f452ef3276d828ea4", "is_reserved": 0, "fusion_lon": 0.0, "lat": 38.91552866666667, "is_disabled": 0, "name": "b6623fe1de6a9d5f452ef3276d828ea4", "fusion_lat": 0.0, "rental_uris": {"ios": "https://dc.lft.to/lastmile_qr_scan", "android": "https://dc.lft.to/lastmile_qr_scan"}, "lon": -77.03169766666667, "type": "electric_scooter"}, {"bike_id": "7b3fd45f0e1127ee154205da6cc4dfe2", "is_reserved": 0, "fusion_lon": 0.0, "lat": 38.9155735, "is_disabled": 0, "name": "7b3fd45f0e1127ee154205da6cc4dfe2", "fusion_lat": 0.0, "rental_uris": {"ios": "https://dc.lft.to/lastmile_qr_scan", "android": "https://dc.lft.to/lastmile_qr_scan"}, "lon": -77.0393135, "type": "electric_scooter"}, {"bike_id": "2573857a846e633e97ec6c65a4b7f560", "is_reserved": 0, "fusion_lon": 0.0, "lat": 39.05201616666667, "is_disabled": 0, "name": "2573857a846e633e97ec6c65a4b7f560", "fusion_lat": 0.0, "rental_uris": {"ios": "https://dc.lft.to/lastmile_qr_scan", "android": "https://dc.lft.to/lastmile_qr_scan"}, "lon": -77.109152, "type": "electric_bike"}, {"bike_id": "aa7e424b237942a790cbd6e52b8c95d7", "is_reserved": 0, "fusion_lon": 0.0, "lat": 38.8960915, "is_disabled": 0, "name": "aa7e424b237942a790cbd6e52b8c95d7", "fusion_lat": 0.0, "rental_uris": {"ios": "https://dc.lft.to/lastmile_qr_scan", "android": "https://dc.lft.to/lastmile_qr_scan"}, "lon": -77.0092655, "type": "electric_scooter"}, {"bike_id": "c274146e77df51308e6387e5853bd2ff", "is_reserved": 0, "fusion_lon": 0.0, "lat": 38.9333345, "is_disabled": 0, "name": "c274146e77df51308e6387e5853bd2ff", "fusion_lat": 0.0, "rental_uris": {"ios": "https://dc.lft.to/lastmile_qr_scan", "android": "https://dc.lft.to/lastmile_qr_scan"}, "lon": -77.0326565, "type": "electric_scooter"}, {"bike_id": "b1865d1274435844b18ee98c72969809", "is_reserved": 0, "fusion_lon": 0.0, "lat": 38.920305666666664, "is_disabled": 0, "name": "b1865d1274435844b18ee98c72969809", "fusion_lat": 0.0, "rental_uris": {"ios": "https://dc.lft.to/lastmile_qr_scan", "android": "https://dc.lft.to/lastmile_qr_scan"}, "lon": -77.038637, "type": "electric_scooter"}, {"bike_id": "4512c0aa4aa1e5d12bba3acf7309400c", "is_reserved": 0, "fusion_lon": 0.0, "lat": 38.90119966666666, "is_disabled": 0, "name": "4512c0aa4aa1e5d12bba3acf7309400c", "fusion_lat": 0.0, "rental_uris": {"ios": "https://dc.lft.to/lastmile_qr_scan", "android": "https://dc.lft.to/lastmile_qr_scan"}, "lon": -77.0423615, "type": "electric_scooter"}, {"bike_id": "70819234905f9a4174f4c7efb0dc7154", "is_reserved": 0, "fusion_lon": 0.0, "lat": 38.92514233333333, "is_disabled": 0, "name": "70819234905f9a4174f4c7efb0dc7154", "fusion_lat": 0.0, "rental_uris": {"ios": "https://dc.lft.to/lastmile_qr_scan", "android": "https://dc.lft.to/lastmile_qr_scan"}, "lon": -77.03320883333333, "type": "electric_scooter"}, {"bike_id": "09bdfae5f5df78ec0cb73075606c3d3f", "is_reserved": 0, "fusion_lon": 0.0, "lat": 38.8820355, "is_disabled": 0, "name": "09bdfae5f5df78ec0cb73075606c3d3f", "fusion_lat": 0.0, "rental_uris": {"ios": "https://dc.lft.to/lastmile_qr_scan", "android": "https://dc.lft.to/lastmile_qr_scan"}, "lon": -76.926967, "type": "electric_scooter"}, {"bike_id": "a1aa87f56d0ed5ae7fd2fc7042d0aeda", "is_reserved": 0, "fusion_lon": 0.0, "lat": 38.89225, "is_disabled": 0, "name": "a1aa87f56d0ed5ae7fd2fc7042d0aeda", "fusion_lat": 0.0, "rental_uris": {"ios": "https://dc.lft.to/lastmile_qr_scan", "android": "https://dc.lft.to/lastmile_qr_scan"}, "lon": -77.04336583333334, "type": "electric_scooter"}, {"bike_id": "556b4b346c93b3bd189787b5cd910e92", "is_reserved": 0, "fusion_lon": 0.0, "lat": 38.925154166666665, "is_disabled": 0, "name": "556b4b346c93b3bd189787b5cd910e92", "fusion_lat": 0.0, "rental_uris": {"ios": "https://dc.lft.to/lastmile_qr_scan", "android": "https://dc.lft.to/lastmile_qr_scan"}, "lon": -77.00173483333333, "type": "electric_scooter"}, {"bike_id": "5558dc53df8722a2bafcd0a47bb51322", "is_reserved": 0, "fusion_lon": 0.0, "lat": 38.906117, "is_disabled": 0, "name": "5558dc53df8722a2bafcd0a47bb51322", "fusion_lat": 0.0, "rental_uris": {"ios": "https://dc.lft.to/lastmile_qr_scan", "android": "https://dc.lft.to/lastmile_qr_scan"}, "lon": -77.07484683333334, "type": "electric_scooter"}, {"bike_id": "fdce91ba1049d2280f10ad3380fa96f6", "is_reserved": 0, "fusion_lon": 0.0, "lat": 38.9236785, "is_disabled": 0, "name": "fdce91ba1049d2280f10ad3380fa96f6", "fusion_lat": 0.0, "rental_uris": {"ios": "https://dc.lft.to/lastmile_qr_scan", "android": "https://dc.lft.to/lastmile_qr_scan"}, "lon": -77.05833116666666, "type": "electric_scooter"}, {"bike_id": "e7446de529967e6f6353aeef9abe0af4", "is_reserved": 0, "fusion_lon": 0.0, "lat": 38.9026695, "is_disabled": 0, "name": "e7446de529967e6f6353aeef9abe0af4", "fusion_lat": 0.0, "rental_uris": {"ios": "https://dc.lft.to/lastmile_qr_scan", "android": "https://dc.lft.to/lastmile_qr_scan"}, "lon": -77.01754633333333, "type": "electric_scooter"}, {"bike_id": "59ce3d958b1cef2dd9a946efa4c0f402", "is_reserved": 0, "fusion_lon": 0.0, "lat": 38.868295, "is_disabled": 0, "name": "59ce3d958b1cef2dd9a946efa4c0f402", "fusion_lat": 0.0, "rental_uris": {"ios": "https://dc.lft.to/lastmile_qr_scan", "android": "https://dc.lft.to/lastmile_qr_scan"}, "lon": -76.98609516666667, "type": "electric_scooter"}, {"bike_id": "98c63f7adc78d3f54269600d440d91b1", "is_reserved": 0, "fusion_lon": 0.0, "lat": 38.885343166666665, "is_disabled": 0, "name": "98c63f7adc78d3f54269600d440d91b1", "fusion_lat": 0.0, "rental_uris": {"ios": "https://dc.lft.to/lastmile_qr_scan", "android": "https://dc.lft.to/lastmile_qr_scan"}, "lon": -77.00586166666666, "type": "electric_scooter"}, {"bike_id": "da85b097503b0c82dd4aeabe3334e26b", "is_reserved": 0, "fusion_lon": 0.0, "lat": 38.908518, "is_disabled": 0, "name": "da85b097503b0c82dd4aeabe3334e26b", "fusion_lat": 0.0, "rental_uris": {"ios": "https://dc.lft.to/lastmile_qr_scan", "android": "https://dc.lft.to/lastmile_qr_scan"}, "lon": -77.03188316666666, "type": "electric_scooter"}, {"bike_id": "b8690e7b4c45810272c907c155f2e8e0", "is_reserved": 0, "fusion_lon": 0.0, "lat": 38.92708183333333, "is_disabled": 0, "name": "b8690e7b4c45810272c907c155f2e8e0", "fusion_lat": 0.0, "rental_uris": {"ios": "https://dc.lft.to/lastmile_qr_scan", "android": "https://dc.lft.to/lastmile_qr_scan"}, "lon": -77.02095516666667, "type": "electric_scooter"}, {"bike_id": "404d83d9feb650b144e94880ec952456", "is_reserved": 0, "fusion_lon": 0.0, "lat": 38.90581733333333, "is_disabled": 0, "name": "404d83d9feb650b144e94880ec952456", "fusion_lat": 0.0, "rental_uris": {"ios": "https://dc.lft.to/lastmile_qr_scan", "android": "https://dc.lft.to/lastmile_qr_scan"}, "lon": -77.044533, "type": "electric_scooter"}, {"bike_id": "a3107fff34dd23371c2c77c7fa0c3ec9", "is_reserved": 0, "fusion_lon": 0.0, "lat": 39.056369, "is_disabled": 0, "name": "a3107fff34dd23371c2c77c7fa0c3ec9", "fusion_lat": 0.0, "rental_uris": {"ios": "https://dc.lft.to/lastmile_qr_scan", "android": "https://dc.lft.to/lastmile_qr_scan"}, "lon": -77.12524466666666, "type": "electric_bike"}, {"bike_id": "e2ac06aac31123841d0bac04a2e1566b", "is_reserved": 0, "fusion_lon": 0.0, "lat": 38.917301333333334, "is_disabled": 0, "name": "e2ac06aac31123841d0bac04a2e1566b", "fusion_lat": 0.0, "rental_uris": {"ios": "https://dc.lft.to/lastmile_qr_scan", "android": "https://dc.lft.to/lastmile_qr_scan"}, "lon": -77.03649433333334, "type": "electric_scooter"}, {"bike_id": "4886fb5f89d6308efc24d8bb47273f74", "is_reserved": 0, "fusion_lon": 0.0, "lat": 38.90211016666667, "is_disabled": 0, "name": "4886fb5f89d6308efc24d8bb47273f74", "fusion_lat": 0.0, "rental_uris": {"ios": "https://dc.lft.to/lastmile_qr_scan", "android": "https://dc.lft.to/lastmile_qr_scan"}, "lon": -77.02336566666666, "type": "electric_scooter"}, {"bike_id": "59f3519173a29df8ac50247a927eefec", "is_reserved": 0, "fusion_lon": 0.0, "lat": 38.898553, "is_disabled": 0, "name": "59f3519173a29df8ac50247a927eefec", "fusion_lat": 0.0, "rental_uris": {"ios": "https://dc.lft.to/lastmile_qr_scan", "android": "https://dc.lft.to/lastmile_qr_scan"}, "lon": -76.981735, "type": "electric_scooter"}, {"bike_id": "f48920e26e76c4b5db6591707aee922c", "is_reserved": 0, "fusion_lon": 0.0, "lat": 38.932846833333336, "is_disabled": 0, "name": "f48920e26e76c4b5db6591707aee922c", "fusion_lat": 0.0, "rental_uris": {"ios": "https://dc.lft.to/lastmile_qr_scan", "android": "https://dc.lft.to/lastmile_qr_scan"}, "lon": -77.029677, "type": "electric_scooter"}, {"bike_id": "d1d0dbe2df78d48dea2e00c44d005a56", "is_reserved": 0, "fusion_lon": 0.0, "lat": 38.8851405, "is_disabled": 0, "name": "d1d0dbe2df78d48dea2e00c44d005a56", "fusion_lat": 0.0, "rental_uris": {"ios": "https://dc.lft.to/lastmile_qr_scan", "android": "https://dc.lft.to/lastmile_qr_scan"}, "lon": -77.017288, "type": "electric_scooter"}, {"bike_id": "e7120238915765d3da9774cae8663f62", "is_reserved": 0, "fusion_lon": 0.0, "lat": 38.8852235, "is_disabled": 0, "name": "e7120238915765d3da9774cae8663f62", "fusion_lat": 0.0, "rental_uris": {"ios": "https://dc.lft.to/lastmile_qr_scan", "android": "https://dc.lft.to/lastmile_qr_scan"}, "lon": -77.02095766666666, "type": "electric_scooter"}, {"bike_id": "c32e68b03dd4a1c6a87824fb8f5f5111", "is_reserved": 0, "fusion_lon": 0.0, "lat": 38.928825333333336, "is_disabled": 0, "name": "c32e68b03dd4a1c6a87824fb8f5f5111", "fusion_lat": 0.0, "rental_uris": {"ios": "https://dc.lft.to/lastmile_qr_scan", "android": "https://dc.lft.to/lastmile_qr_scan"}, "lon": -77.04046066666666, "type": "electric_scooter"}, {"bike_id": "1e879c01b236ff2e7f60d7a790f8e854", "is_reserved": 0, "fusion_lon": 0.0, "lat": 38.9367805, "is_disabled": 0, "name": "1e879c01b236ff2e7f60d7a790f8e854", "fusion_lat": 0.0, "rental_uris": {"ios": "https://dc.lft.to/lastmile_qr_scan", "android": "https://dc.lft.to/lastmile_qr_scan"}, "lon": -76.95197766666666, "type": "electric_bike"}, {"bike_id": "a4f45043a02e08347259d4eadf8f3bca", "is_reserved": 0, "fusion_lon": 0.0, "lat": 38.88412683333333, "is_disabled": 0, "name": "a4f45043a02e08347259d4eadf8f3bca", "fusion_lat": 0.0, "rental_uris": {"ios": "https://dc.lft.to/lastmile_qr_scan", "android": "https://dc.lft.to/lastmile_qr_scan"}, "lon": -76.96055383333334, "type": "electric_bike"}, {"bike_id": "eb6de78387bc864785714e0ad705cd3a", "is_reserved": 0, "fusion_lon": 0.0, "lat": 38.919519, "is_disabled": 0, "name": "eb6de78387bc864785714e0ad705cd3a", "fusion_lat": 0.0, "rental_uris": {"ios": "https://dc.lft.to/lastmile_qr_scan", "android": "https://dc.lft.to/lastmile_qr_scan"}, "lon": -76.9789995, "type": "electric_bike"}, {"bike_id": "5722c9eb7ec78c5c369048111a9be1d9", "is_reserved": 0, "fusion_lon": 0.0, "lat": 38.92236333333334, "is_disabled": 0, "name": "5722c9eb7ec78c5c369048111a9be1d9", "fusion_lat": 0.0, "rental_uris": {"ios": "https://dc.lft.to/lastmile_qr_scan", "android": "https://dc.lft.to/lastmile_qr_scan"}, "lon": -77.04128183333333, "type": "electric_scooter"}, {"bike_id": "7016e329a5d83a090fbe879cc3f85b55", "is_reserved": 0, "fusion_lon": 0.0, "lat": 38.919886, "is_disabled": 0, "name": "7016e329a5d83a090fbe879cc3f85b55", "fusion_lat": 0.0, "rental_uris": {"ios": "https://dc.lft.to/lastmile_qr_scan", "android": "https://dc.lft.to/lastmile_qr_scan"}, "lon": -77.041824, "type": "electric_scooter"}, {"bike_id": "a022c18d89149b675745a5cee280e732", "is_reserved": 0, "fusion_lon": 0.0, "lat": 38.92319083333334, "is_disabled": 0, "name": "a022c18d89149b675745a5cee280e732", "fusion_lat": 0.0, "rental_uris": {"ios": "https://dc.lft.to/lastmile_qr_scan", "android": "https://dc.lft.to/lastmile_qr_scan"}, "lon": -77.04488816666667, "type": "electric_scooter"}, {"bike_id": "16caf67aa7a233cf2ba0cc6dbc38b827", "is_reserved": 0, "fusion_lon": 0.0, "lat": 38.918587333333335, "is_disabled": 0, "name": "16caf67aa7a233cf2ba0cc6dbc38b827", "fusion_lat": 0.0, "rental_uris": {"ios": "https://dc.lft.to/lastmile_qr_scan", "android": "https://dc.lft.to/lastmile_qr_scan"}, "lon": -76.96090516666666, "type": "electric_bike"}, {"bike_id": "704953d39c8b5383a23492b918586e3b", "is_reserved": 0, "fusion_lon": 0.0, "lat": 38.908970833333335, "is_disabled": 0, "name": "704953d39c8b5383a23492b918586e3b", "fusion_lat": 0.0, "rental_uris": {"ios": "https://dc.lft.to/lastmile_qr_scan", "android": "https://dc.lft.to/lastmile_qr_scan"}, "lon": -77.08619216666666, "type": "electric_scooter"}, {"bike_id": "6a0078d48f4e30078cb5aec68dc117be", "is_reserved": 0, "fusion_lon": 0.0, "lat": 38.89024233333333, "is_disabled": 0, "name": "6a0078d48f4e30078cb5aec68dc117be", "fusion_lat": 0.0, "rental_uris": {"ios": "https://dc.lft.to/lastmile_qr_scan", "android": "https://dc.lft.to/lastmile_qr_scan"}, "lon": -76.93683583333333, "type": "electric_scooter"}, {"bike_id": "5827953a26b88c2d52897d8142df5434", "is_reserved": 0, "fusion_lon": 0.0, "lat": 38.897847666666664, "is_disabled": 0, "name": "5827953a26b88c2d52897d8142df5434", "fusion_lat": 0.0, "rental_uris": {"ios": "https://dc.lft.to/lastmile_qr_scan", "android": "https://dc.lft.to/lastmile_qr_scan"}, "lon": -77.00757016666667, "type": "electric_bike"}, {"bike_id": "fb3ff217ae48bf7244099403b1caf6ba", "is_reserved": 0, "fusion_lon": 0.0, "lat": 38.82448216666667, "is_disabled": 0, "name": "fb3ff217ae48bf7244099403b1caf6ba", "fusion_lat": 0.0, "rental_uris": {"ios": "https://dc.lft.to/lastmile_qr_scan", "android": "https://dc.lft.to/lastmile_qr_scan"}, "lon": -77.070422, "type": "electric_bike"}, {"bike_id": "fb54f6d10f1f7cdf77c1e287fffbc129", "is_reserved": 0, "fusion_lon": 0.0, "lat": 38.892390666666664, "is_disabled": 0, "name": "fb54f6d10f1f7cdf77c1e287fffbc129", "fusion_lat": 0.0, "rental_uris": {"ios": "https://dc.lft.to/lastmile_qr_scan", "android": "https://dc.lft.to/lastmile_qr_scan"}, "lon": -77.0321745, "type": "electric_scooter"}, {"bike_id": "aae85bff6a374ba6c0c8428ecf8d084c", "is_reserved": 0, "fusion_lon": 0.0, "lat": 38.9066955, "is_disabled": 0, "name": "aae85bff6a374ba6c0c8428ecf8d084c", "fusion_lat": 0.0, "rental_uris": {"ios": "https://dc.lft.to/lastmile_qr_scan", "android": "https://dc.lft.to/lastmile_qr_scan"}, "lon": -76.999545, "type": "electric_bike"}, {"bike_id": "18f0118e68ad1be62eb6930534330f3f", "is_reserved": 0, "fusion_lon": 0.0, "lat": 38.903574666666664, "is_disabled": 0, "name": "18f0118e68ad1be62eb6930534330f3f", "fusion_lat": 0.0, "rental_uris": {"ios": "https://dc.lft.to/lastmile_qr_scan", "android": "https://dc.lft.to/lastmile_qr_scan"}, "lon": -77.0392035, "type": "electric_scooter"}, {"bike_id": "7a8b891bf0ffa0c2353b76bb3247bd30", "is_reserved": 0, "fusion_lon": 0.0, "lat": 38.908582, "is_disabled": 0, "name": "7a8b891bf0ffa0c2353b76bb3247bd30", "fusion_lat": 0.0, "rental_uris": {"ios": "https://dc.lft.to/lastmile_qr_scan", "android": "https://dc.lft.to/lastmile_qr_scan"}, "lon": -77.02728183333333, "type": "electric_scooter"}, {"bike_id": "08cc42fdac1cef3012f080aeef040b11", "is_reserved": 0, "fusion_lon": 0.0, "lat": 38.880059833333334, "is_disabled": 0, "name": "08cc42fdac1cef3012f080aeef040b11", "fusion_lat": 0.0, "rental_uris": {"ios": "https://dc.lft.to/lastmile_qr_scan", "android": "https://dc.lft.to/lastmile_qr_scan"}, "lon": -76.9159535, "type": "electric_bike"}, {"bike_id": "cbf3272f9c9292bc2b94c7f1f359b403", "is_reserved": 0, "fusion_lon": 0.0, "lat": 38.9028225, "is_disabled": 0, "name": "cbf3272f9c9292bc2b94c7f1f359b403", "fusion_lat": 0.0, "rental_uris": {"ios": "https://dc.lft.to/lastmile_qr_scan", "android": "https://dc.lft.to/lastmile_qr_scan"}, "lon": -77.03674966666667, "type": "electric_scooter"}, {"bike_id": "9a41d2cef391acacb9c9072c182b41a2", "is_reserved": 0, "fusion_lon": 0.0, "lat": 38.933401, "is_disabled": 0, "name": "9a41d2cef391acacb9c9072c182b41a2", "fusion_lat": 0.0, "rental_uris": {"ios": "https://dc.lft.to/lastmile_qr_scan", "android": "https://dc.lft.to/lastmile_qr_scan"}, "lon": -77.04199583333333, "type": "electric_bike"}, {"bike_id": "d1e0ae5ff0f898cb1d77c27f1fd5ad0f", "is_reserved": 0, "fusion_lon": 0.0, "lat": 38.93241966666667, "is_disabled": 0, "name": "d1e0ae5ff0f898cb1d77c27f1fd5ad0f", "fusion_lat": 0.0, "rental_uris": {"ios": "https://dc.lft.to/lastmile_qr_scan", "android": "https://dc.lft.to/lastmile_qr_scan"}, "lon": -77.02847466666667, "type": "electric_scooter"}, {"bike_id": "0ecbcad0e53f0de5402bbb8c8070c4a8", "is_reserved": 0, "fusion_lon": 0.0, "lat": 38.924012833333336, "is_disabled": 0, "name": "0ecbcad0e53f0de5402bbb8c8070c4a8", "fusion_lat": 0.0, "rental_uris": {"ios": "https://dc.lft.to/lastmile_qr_scan", "android": "https://dc.lft.to/lastmile_qr_scan"}, "lon": -77.05250483333333, "type": "electric_scooter"}, {"bike_id": "a2687f0b283e3a5e2ad9166c350960c3", "is_reserved": 0, "fusion_lon": 0.0, "lat": 38.8855475, "is_disabled": 0, "name": "a2687f0b283e3a5e2ad9166c350960c3", "fusion_lat": 0.0, "rental_uris": {"ios": "https://dc.lft.to/lastmile_qr_scan", "android": "https://dc.lft.to/lastmile_qr_scan"}, "lon": -76.9545245, "type": "electric_scooter"}, {"bike_id": "d980d3915db28f1bc9ec314f8734171e", "is_reserved": 0, "fusion_lon": 0.0, "lat": 38.923590833333336, "is_disabled": 0, "name": "d980d3915db28f1bc9ec314f8734171e", "fusion_lat": 0.0, "rental_uris": {"ios": "https://dc.lft.to/lastmile_qr_scan", "android": "https://dc.lft.to/lastmile_qr_scan"}, "lon": -77.05229, "type": "electric_scooter"}, {"bike_id": "443d2bab60cc846101c1791517a4167f", "is_reserved": 0, "fusion_lon": 0.0, "lat": 38.8838155, "is_disabled": 0, "name": "443d2bab60cc846101c1791517a4167f", "fusion_lat": 0.0, "rental_uris": {"ios": "https://dc.lft.to/lastmile_qr_scan", "android": "https://dc.lft.to/lastmile_qr_scan"}, "lon": -77.02447816666667, "type": "electric_scooter"}, {"bike_id": "256b909879d35cb30872148309737d6d", "is_reserved": 0, "fusion_lon": 0.0, "lat": 38.92852233333333, "is_disabled": 0, "name": "256b909879d35cb30872148309737d6d", "fusion_lat": 0.0, "rental_uris": {"ios": "https://dc.lft.to/lastmile_qr_scan", "android": "https://dc.lft.to/lastmile_qr_scan"}, "lon": -77.10675466666666, "type": "electric_bike"}, {"bike_id": "7c71768ddd3369bd9dce315be9997372", "is_reserved": 0, "fusion_lon": 0.0, "lat": 38.90474233333333, "is_disabled": 0, "name": "7c71768ddd3369bd9dce315be9997372", "fusion_lat": 0.0, "rental_uris": {"ios": "https://dc.lft.to/lastmile_qr_scan", "android": "https://dc.lft.to/lastmile_qr_scan"}, "lon": -77.03872516666667, "type": "electric_scooter"}, {"bike_id": "73443d171e1b5645365daa2526ab26fd", "is_reserved": 0, "fusion_lon": 0.0, "lat": 38.90252316666667, "is_disabled": 0, "name": "73443d171e1b5645365daa2526ab26fd", "fusion_lat": 0.0, "rental_uris": {"ios": "https://dc.lft.to/lastmile_qr_scan", "android": "https://dc.lft.to/lastmile_qr_scan"}, "lon": -77.03139933333334, "type": "electric_scooter"}, {"bike_id": "935756232bb4eee9a908dcf62d5a4db4", "is_reserved": 0, "fusion_lon": 0.0, "lat": 38.925672166666665, "is_disabled": 0, "name": "935756232bb4eee9a908dcf62d5a4db4", "fusion_lat": 0.0, "rental_uris": {"ios": "https://dc.lft.to/lastmile_qr_scan", "android": "https://dc.lft.to/lastmile_qr_scan"}, "lon": -77.04043483333334, "type": "electric_scooter"}, {"bike_id": "22611a053fdc086a0f4036d1440a3475", "is_reserved": 0, "fusion_lon": 0.0, "lat": 38.898300166666665, "is_disabled": 0, "name": "22611a053fdc086a0f4036d1440a3475", "fusion_lat": 0.0, "rental_uris": {"ios": "https://dc.lft.to/lastmile_qr_scan", "android": "https://dc.lft.to/lastmile_qr_scan"}, "lon": -77.03340716666666, "type": "electric_scooter"}, {"bike_id": "f5521fa767d5b3cfa6552687dd393012", "is_reserved": 0, "fusion_lon": 0.0, "lat": 38.898799833333335, "is_disabled": 0, "name": "f5521fa767d5b3cfa6552687dd393012", "fusion_lat": 0.0, "rental_uris": {"ios": "https://dc.lft.to/lastmile_qr_scan", "android": "https://dc.lft.to/lastmile_qr_scan"}, "lon": -76.93161016666667, "type": "electric_scooter"}, {"bike_id": "e53858afab36ac5fbcc544bcc2284d48", "is_reserved": 0, "fusion_lon": 0.0, "lat": 38.91663466666667, "is_disabled": 0, "name": "e53858afab36ac5fbcc544bcc2284d48", "fusion_lat": 0.0, "rental_uris": {"ios": "https://dc.lft.to/lastmile_qr_scan", "android": "https://dc.lft.to/lastmile_qr_scan"}, "lon": -77.00509583333333, "type": "electric_scooter"}, {"bike_id": "8261e63e297f821ff1a387f3206535b9", "is_reserved": 0, "fusion_lon": 0.0, "lat": 38.90373433333333, "is_disabled": 0, "name": "8261e63e297f821ff1a387f3206535b9", "fusion_lat": 0.0, "rental_uris": {"ios": "https://dc.lft.to/lastmile_qr_scan", "android": "https://dc.lft.to/lastmile_qr_scan"}, "lon": -77.03000683333333, "type": "electric_scooter"}, {"bike_id": "18dd7287e2f1b84ef08938bf167c6bcf", "is_reserved": 0, "fusion_lon": 0.0, "lat": 38.90252066666667, "is_disabled": 0, "name": "18dd7287e2f1b84ef08938bf167c6bcf", "fusion_lat": 0.0, "rental_uris": {"ios": "https://dc.lft.to/lastmile_qr_scan", "android": "https://dc.lft.to/lastmile_qr_scan"}, "lon": -77.04354616666667, "type": "electric_scooter"}, {"bike_id": "28c0edca9b0813e2260f0f8dd0e9b80f", "is_reserved": 0, "fusion_lon": 0.0, "lat": 38.91260666666667, "is_disabled": 0, "name": "28c0edca9b0813e2260f0f8dd0e9b80f", "fusion_lat": 0.0, "rental_uris": {"ios": "https://dc.lft.to/lastmile_qr_scan", "android": "https://dc.lft.to/lastmile_qr_scan"}, "lon": -77.04442133333333, "type": "electric_scooter"}, {"bike_id": "a68145ad0cb3646623f739ac97e01669", "is_reserved": 0, "fusion_lon": 0.0, "lat": 38.91646333333333, "is_disabled": 0, "name": "a68145ad0cb3646623f739ac97e01669", "fusion_lat": 0.0, "rental_uris": {"ios": "https://dc.lft.to/lastmile_qr_scan", "android": "https://dc.lft.to/lastmile_qr_scan"}, "lon": -77.03212633333334, "type": "electric_scooter"}, {"bike_id": "50f6df98c5a951fa6865dce451bf85ed", "is_reserved": 0, "fusion_lon": 0.0, "lat": 38.92349183333333, "is_disabled": 0, "name": "50f6df98c5a951fa6865dce451bf85ed", "fusion_lat": 0.0, "rental_uris": {"ios": "https://dc.lft.to/lastmile_qr_scan", "android": "https://dc.lft.to/lastmile_qr_scan"}, "lon": -77.04339233333333, "type": "electric_scooter"}, {"bike_id": "542012553df9a1bf98d345c67da62e09", "is_reserved": 0, "fusion_lon": 0.0, "lat": 38.95631516666667, "is_disabled": 0, "name": "542012553df9a1bf98d345c67da62e09", "fusion_lat": 0.0, "rental_uris": {"ios": "https://dc.lft.to/lastmile_qr_scan", "android": "https://dc.lft.to/lastmile_qr_scan"}, "lon": -76.93883233333334, "type": "electric_bike"}, {"bike_id": "436fa79e20a1b373125136ef555650b4", "is_reserved": 0, "fusion_lon": 0.0, "lat": 38.935623166666666, "is_disabled": 0, "name": "436fa79e20a1b373125136ef555650b4", "fusion_lat": 0.0, "rental_uris": {"ios": "https://dc.lft.to/lastmile_qr_scan", "android": "https://dc.lft.to/lastmile_qr_scan"}, "lon": -77.03657, "type": "electric_scooter"}, {"bike_id": "9e039e0d09e50a614733d807251383ae", "is_reserved": 0, "fusion_lon": 0.0, "lat": 38.93446, "is_disabled": 0, "name": "9e039e0d09e50a614733d807251383ae", "fusion_lat": 0.0, "rental_uris": {"ios": "https://dc.lft.to/lastmile_qr_scan", "android": "https://dc.lft.to/lastmile_qr_scan"}, "lon": -77.02842533333333, "type": "electric_scooter"}, {"bike_id": "295ba5c98b28aaba389c5cf8b4f36b73", "is_reserved": 0, "fusion_lon": 0.0, "lat": 38.883274166666666, "is_disabled": 0, "name": "295ba5c98b28aaba389c5cf8b4f36b73", "fusion_lat": 0.0, "rental_uris": {"ios": "https://dc.lft.to/lastmile_qr_scan", "android": "https://dc.lft.to/lastmile_qr_scan"}, "lon": -77.01756183333333, "type": "electric_scooter"}, {"bike_id": "ea83cdba94ff7e4e7e7ecf12fabe8da7", "is_reserved": 0, "fusion_lon": 0.0, "lat": 38.900253166666666, "is_disabled": 0, "name": "ea83cdba94ff7e4e7e7ecf12fabe8da7", "fusion_lat": 0.0, "rental_uris": {"ios": "https://dc.lft.to/lastmile_qr_scan", "android": "https://dc.lft.to/lastmile_qr_scan"}, "lon": -76.99549633333334, "type": "electric_scooter"}, {"bike_id": "032bdb725daae4cd2eea62c052a4c2ae", "is_reserved": 0, "fusion_lon": 0.0, "lat": 38.924805, "is_disabled": 0, "name": "032bdb725daae4cd2eea62c052a4c2ae", "fusion_lat": 0.0, "rental_uris": {"ios": "https://dc.lft.to/lastmile_qr_scan", "android": "https://dc.lft.to/lastmile_qr_scan"}, "lon": -77.03763016666667, "type": "electric_scooter"}, {"bike_id": "7e933e9ad3fb99950ff656e6711210c5", "is_reserved": 0, "fusion_lon": 0.0, "lat": 38.89778166666667, "is_disabled": 0, "name": "7e933e9ad3fb99950ff656e6711210c5", "fusion_lat": 0.0, "rental_uris": {"ios": "https://dc.lft.to/lastmile_qr_scan", "android": "https://dc.lft.to/lastmile_qr_scan"}, "lon": -76.9043925, "type": "electric_bike"}, {"bike_id": "48ee993d4a0e16d0ed4869873176b8d8", "is_reserved": 0, "fusion_lon": 0.0, "lat": 38.91837316666667, "is_disabled": 0, "name": "48ee993d4a0e16d0ed4869873176b8d8", "fusion_lat": 0.0, "rental_uris": {"ios": "https://dc.lft.to/lastmile_qr_scan", "android": "https://dc.lft.to/lastmile_qr_scan"}, "lon": -77.03895466666667, "type": "electric_scooter"}, {"bike_id": "a87c055ab78d2de98d51fd8422e024c4", "is_reserved": 0, "fusion_lon": 0.0, "lat": 38.90016266666667, "is_disabled": 0, "name": "a87c055ab78d2de98d51fd8422e024c4", "fusion_lat": 0.0, "rental_uris": {"ios": "https://dc.lft.to/lastmile_qr_scan", "android": "https://dc.lft.to/lastmile_qr_scan"}, "lon": -76.99739883333334, "type": "electric_scooter"}, {"bike_id": "876588c564df889a216238593dc65320", "is_reserved": 0, "fusion_lon": 0.0, "lat": 38.91921383333333, "is_disabled": 0, "name": "876588c564df889a216238593dc65320", "fusion_lat": 0.0, "rental_uris": {"ios": "https://dc.lft.to/lastmile_qr_scan", "android": "https://dc.lft.to/lastmile_qr_scan"}, "lon": -77.02511416666667, "type": "electric_scooter"}, {"bike_id": "b651b96eeb00d8a8f0bafb2152fa9add", "is_reserved": 0, "fusion_lon": 0.0, "lat": 38.8994155, "is_disabled": 0, "name": "b651b96eeb00d8a8f0bafb2152fa9add", "fusion_lat": 0.0, "rental_uris": {"ios": "https://dc.lft.to/lastmile_qr_scan", "android": "https://dc.lft.to/lastmile_qr_scan"}, "lon": -77.03164716666667, "type": "electric_scooter"}, {"bike_id": "75a9bf81886d8128a74d7dee22886e4a", "is_reserved": 0, "fusion_lon": 0.0, "lat": 38.915603833333336, "is_disabled": 0, "name": "75a9bf81886d8128a74d7dee22886e4a", "fusion_lat": 0.0, "rental_uris": {"ios": "https://dc.lft.to/lastmile_qr_scan", "android": "https://dc.lft.to/lastmile_qr_scan"}, "lon": -77.03188633333333, "type": "electric_scooter"}, {"bike_id": "5e958cd027bdcb6564d345ef37824c89", "is_reserved": 0, "fusion_lon": 0.0, "lat": 38.89801166666667, "is_disabled": 0, "name": "5e958cd027bdcb6564d345ef37824c89", "fusion_lat": 0.0, "rental_uris": {"ios": "https://dc.lft.to/lastmile_qr_scan", "android": "https://dc.lft.to/lastmile_qr_scan"}, "lon": -76.99160283333333, "type": "electric_scooter"}, {"bike_id": "e8423181b4f52ede29e8b4e5bbbe6aa2", "is_reserved": 0, "fusion_lon": 0.0, "lat": 38.8976555, "is_disabled": 0, "name": "e8423181b4f52ede29e8b4e5bbbe6aa2", "fusion_lat": 0.0, "rental_uris": {"ios": "https://dc.lft.to/lastmile_qr_scan", "android": "https://dc.lft.to/lastmile_qr_scan"}, "lon": -77.02698933333333, "type": "electric_scooter"}, {"bike_id": "0e7b75400b9dc3fe1c061e082b896aa7", "is_reserved": 0, "fusion_lon": 0.0, "lat": 38.867014833333336, "is_disabled": 0, "name": "0e7b75400b9dc3fe1c061e082b896aa7", "fusion_lat": 0.0, "rental_uris": {"ios": "https://dc.lft.to/lastmile_qr_scan", "android": "https://dc.lft.to/lastmile_qr_scan"}, "lon": -76.9870525, "type": "electric_scooter"}, {"bike_id": "71b67582432ef9b054a8e567e9f98bd3", "is_reserved": 0, "fusion_lon": 0.0, "lat": 38.931055666666666, "is_disabled": 0, "name": "71b67582432ef9b054a8e567e9f98bd3", "fusion_lat": 0.0, "rental_uris": {"ios": "https://dc.lft.to/lastmile_qr_scan", "android": "https://dc.lft.to/lastmile_qr_scan"}, "lon": -77.03466266666666, "type": "electric_scooter"}, {"bike_id": "6b9364ae731adf046d01c95ae1f4de93", "is_reserved": 0, "fusion_lon": 0.0, "lat": 38.92062333333333, "is_disabled": 0, "name": "6b9364ae731adf046d01c95ae1f4de93", "fusion_lat": 0.0, "rental_uris": {"ios": "https://dc.lft.to/lastmile_qr_scan", "android": "https://dc.lft.to/lastmile_qr_scan"}, "lon": -77.04259033333334, "type": "electric_scooter"}, {"bike_id": "54e6851a2539dd3d59f8cc3856a77f8c", "is_reserved": 0, "fusion_lon": 0.0, "lat": 38.92062166666667, "is_disabled": 0, "name": "54e6851a2539dd3d59f8cc3856a77f8c", "fusion_lat": 0.0, "rental_uris": {"ios": "https://dc.lft.to/lastmile_qr_scan", "android": "https://dc.lft.to/lastmile_qr_scan"}, "lon": -77.04252633333333, "type": "electric_scooter"}, {"bike_id": "bf921697c0c41d89a9a70459b0ee429c", "is_reserved": 0, "fusion_lon": 0.0, "lat": 38.8975685, "is_disabled": 0, "name": "bf921697c0c41d89a9a70459b0ee429c", "fusion_lat": 0.0, "rental_uris": {"ios": "https://dc.lft.to/lastmile_qr_scan", "android": "https://dc.lft.to/lastmile_qr_scan"}, "lon": -76.94182583333334, "type": "electric_scooter"}, {"bike_id": "61817da93360d556f78553c813d3875c", "is_reserved": 0, "fusion_lon": 0.0, "lat": 38.954807, "is_disabled": 0, "name": "61817da93360d556f78553c813d3875c", "fusion_lat": 0.0, "rental_uris": {"ios": "https://dc.lft.to/lastmile_qr_scan", "android": "https://dc.lft.to/lastmile_qr_scan"}, "lon": -77.082389, "type": "electric_bike"}, {"bike_id": "9d8185833caefb25399746d7a3dbc642", "is_reserved": 0, "fusion_lon": 0.0, "lat": 38.863574166666666, "is_disabled": 0, "name": "9d8185833caefb25399746d7a3dbc642", "fusion_lat": 0.0, "rental_uris": {"ios": "https://dc.lft.to/lastmile_qr_scan", "android": "https://dc.lft.to/lastmile_qr_scan"}, "lon": -76.99065166666666, "type": "electric_scooter"}, {"bike_id": "02891054280667462bdfeaf2a04935b3", "is_reserved": 0, "fusion_lon": 0.0, "lat": 38.9045795, "is_disabled": 0, "name": "02891054280667462bdfeaf2a04935b3", "fusion_lat": 0.0, "rental_uris": {"ios": "https://dc.lft.to/lastmile_qr_scan", "android": "https://dc.lft.to/lastmile_qr_scan"}, "lon": -77.04894783333333, "type": "electric_scooter"}, {"bike_id": "73c0d49e61462721b34719226ce3c946", "is_reserved": 0, "fusion_lon": 0.0, "lat": 38.924760666666664, "is_disabled": 0, "name": "73c0d49e61462721b34719226ce3c946", "fusion_lat": 0.0, "rental_uris": {"ios": "https://dc.lft.to/lastmile_qr_scan", "android": "https://dc.lft.to/lastmile_qr_scan"}, "lon": -77.03538033333334, "type": "electric_scooter"}, {"bike_id": "cb1ce79dbac94ec37873dc6ee98d3f33", "is_reserved": 0, "fusion_lon": 0.0, "lat": 38.928217, "is_disabled": 0, "name": "cb1ce79dbac94ec37873dc6ee98d3f33", "fusion_lat": 0.0, "rental_uris": {"ios": "https://dc.lft.to/lastmile_qr_scan", "android": "https://dc.lft.to/lastmile_qr_scan"}, "lon": -77.02298233333333, "type": "electric_scooter"}, {"bike_id": "2f94b689cfbf0de008fe82524391ca77", "is_reserved": 0, "fusion_lon": 0.0, "lat": 38.91108883333333, "is_disabled": 0, "name": "2f94b689cfbf0de008fe82524391ca77", "fusion_lat": 0.0, "rental_uris": {"ios": "https://dc.lft.to/lastmile_qr_scan", "android": "https://dc.lft.to/lastmile_qr_scan"}, "lon": -77.03601016666667, "type": "electric_scooter"}, {"bike_id": "b6981033a490ab5d7643eba25d8b3c64", "is_reserved": 0, "fusion_lon": 0.0, "lat": 38.92087983333333, "is_disabled": 0, "name": "b6981033a490ab5d7643eba25d8b3c64", "fusion_lat": 0.0, "rental_uris": {"ios": "https://dc.lft.to/lastmile_qr_scan", "android": "https://dc.lft.to/lastmile_qr_scan"}, "lon": -77.0258765, "type": "electric_scooter"}, {"bike_id": "33ab07bc60288b8f552e6105b797fe08", "is_reserved": 0, "fusion_lon": 0.0, "lat": 38.926034333333334, "is_disabled": 0, "name": "33ab07bc60288b8f552e6105b797fe08", "fusion_lat": 0.0, "rental_uris": {"ios": "https://dc.lft.to/lastmile_qr_scan", "android": "https://dc.lft.to/lastmile_qr_scan"}, "lon": -77.0048485, "type": "electric_scooter"}, {"bike_id": "826bf33714143634d8a612b5c9b96b68", "is_reserved": 0, "fusion_lon": 0.0, "lat": 38.91330583333333, "is_disabled": 0, "name": "826bf33714143634d8a612b5c9b96b68", "fusion_lat": 0.0, "rental_uris": {"ios": "https://dc.lft.to/lastmile_qr_scan", "android": "https://dc.lft.to/lastmile_qr_scan"}, "lon": -77.00222516666666, "type": "electric_scooter"}, {"bike_id": "299e8a570da722ef2d3e62452dd37bd0", "is_reserved": 0, "fusion_lon": 0.0, "lat": 38.88435583333333, "is_disabled": 0, "name": "299e8a570da722ef2d3e62452dd37bd0", "fusion_lat": 0.0, "rental_uris": {"ios": "https://dc.lft.to/lastmile_qr_scan", "android": "https://dc.lft.to/lastmile_qr_scan"}, "lon": -76.95751633333333, "type": "electric_scooter"}, {"bike_id": "ec467d62615369e01514d0f0ee30be95", "is_reserved": 0, "fusion_lon": 0.0, "lat": 38.9168065, "is_disabled": 0, "name": "ec467d62615369e01514d0f0ee30be95", "fusion_lat": 0.0, "rental_uris": {"ios": "https://dc.lft.to/lastmile_qr_scan", "android": "https://dc.lft.to/lastmile_qr_scan"}, "lon": -77.02715016666667, "type": "electric_scooter"}, {"bike_id": "15b94b4698616ce94cad4ef58fce8f20", "is_reserved": 0, "fusion_lon": 0.0, "lat": 38.92126566666666, "is_disabled": 0, "name": "15b94b4698616ce94cad4ef58fce8f20", "fusion_lat": 0.0, "rental_uris": {"ios": "https://dc.lft.to/lastmile_qr_scan", "android": "https://dc.lft.to/lastmile_qr_scan"}, "lon": -77.02200366666666, "type": "electric_scooter"}, {"bike_id": "11718c7718b30e3098809b4b49322074", "is_reserved": 0, "fusion_lon": 0.0, "lat": 38.90675916666667, "is_disabled": 0, "name": "11718c7718b30e3098809b4b49322074", "fusion_lat": 0.0, "rental_uris": {"ios": "https://dc.lft.to/lastmile_qr_scan", "android": "https://dc.lft.to/lastmile_qr_scan"}, "lon": -77.00956966666666, "type": "electric_scooter"}, {"bike_id": "b63bef592578ea4303f735629bbbb882", "is_reserved": 0, "fusion_lon": 0.0, "lat": 38.975139666666664, "is_disabled": 0, "name": "b63bef592578ea4303f735629bbbb882", "fusion_lat": 0.0, "rental_uris": {"ios": "https://dc.lft.to/lastmile_qr_scan", "android": "https://dc.lft.to/lastmile_qr_scan"}, "lon": -77.0173995, "type": "electric_scooter"}, {"bike_id": "e2a540734c927eccbe5bf2f948b4c456", "is_reserved": 0, "fusion_lon": 0.0, "lat": 38.84296783333333, "is_disabled": 0, "name": "e2a540734c927eccbe5bf2f948b4c456", "fusion_lat": 0.0, "rental_uris": {"ios": "https://dc.lft.to/lastmile_qr_scan", "android": "https://dc.lft.to/lastmile_qr_scan"}, "lon": -76.99946583333333, "type": "electric_scooter"}, {"bike_id": "22a7af1b1c62776572a263f2516d4ce3", "is_reserved": 0, "fusion_lon": 0.0, "lat": 38.8524715, "is_disabled": 0, "name": "22a7af1b1c62776572a263f2516d4ce3", "fusion_lat": 0.0, "rental_uris": {"ios": "https://dc.lft.to/lastmile_qr_scan", "android": "https://dc.lft.to/lastmile_qr_scan"}, "lon": -77.11428133333334, "type": "electric_bike"}, {"bike_id": "96b1944a71dc12fd84fd98ec42409cdd", "is_reserved": 0, "fusion_lon": 0.0, "lat": 38.9051305, "is_disabled": 0, "name": "96b1944a71dc12fd84fd98ec42409cdd", "fusion_lat": 0.0, "rental_uris": {"ios": "https://dc.lft.to/lastmile_qr_scan", "android": "https://dc.lft.to/lastmile_qr_scan"}, "lon": -77.06380783333333, "type": "electric_scooter"}, {"bike_id": "183d9bf69005ea93caa0cc172586f49e", "is_reserved": 0, "fusion_lon": 0.0, "lat": 38.903045666666664, "is_disabled": 0, "name": "183d9bf69005ea93caa0cc172586f49e", "fusion_lat": 0.0, "rental_uris": {"ios": "https://dc.lft.to/lastmile_qr_scan", "android": "https://dc.lft.to/lastmile_qr_scan"}, "lon": -77.034585, "type": "electric_scooter"}, {"bike_id": "e010f699d7204ffd61b38fcf315db2ce", "is_reserved": 0, "fusion_lon": 0.0, "lat": 38.90258333333333, "is_disabled": 0, "name": "e010f699d7204ffd61b38fcf315db2ce", "fusion_lat": 0.0, "rental_uris": {"ios": "https://dc.lft.to/lastmile_qr_scan", "android": "https://dc.lft.to/lastmile_qr_scan"}, "lon": -77.03947733333334, "type": "electric_scooter"}, {"bike_id": "5f4d17399506d5164dba52898c62d198", "is_reserved": 0, "fusion_lon": 0.0, "lat": 38.883956166666664, "is_disabled": 0, "name": "5f4d17399506d5164dba52898c62d198", "fusion_lat": 0.0, "rental_uris": {"ios": "https://dc.lft.to/lastmile_qr_scan", "android": "https://dc.lft.to/lastmile_qr_scan"}, "lon": -77.01956716666666, "type": "electric_scooter"}, {"bike_id": "11ecb9ec4aa3a174978e6fe68cc5045c", "is_reserved": 0, "fusion_lon": 0.0, "lat": 38.9011295, "is_disabled": 0, "name": "11ecb9ec4aa3a174978e6fe68cc5045c", "fusion_lat": 0.0, "rental_uris": {"ios": "https://dc.lft.to/lastmile_qr_scan", "android": "https://dc.lft.to/lastmile_qr_scan"}, "lon": -77.04980883333333, "type": "electric_scooter"}, {"bike_id": "823c3d5c4148d93ca55fd9487602cbde", "is_reserved": 0, "fusion_lon": 0.0, "lat": 38.91046766666667, "is_disabled": 0, "name": "823c3d5c4148d93ca55fd9487602cbde", "fusion_lat": 0.0, "rental_uris": {"ios": "https://dc.lft.to/lastmile_qr_scan", "android": "https://dc.lft.to/lastmile_qr_scan"}, "lon": -77.02206383333333, "type": "electric_scooter"}, {"bike_id": "64113408ad07e016154ff720ee14a6b7", "is_reserved": 0, "fusion_lon": 0.0, "lat": 38.89952266666667, "is_disabled": 0, "name": "64113408ad07e016154ff720ee14a6b7", "fusion_lat": 0.0, "rental_uris": {"ios": "https://dc.lft.to/lastmile_qr_scan", "android": "https://dc.lft.to/lastmile_qr_scan"}, "lon": -77.029699, "type": "electric_scooter"}, {"bike_id": "25ab408a423d74c4d1acae0649aa4d0a", "is_reserved": 0, "fusion_lon": 0.0, "lat": 38.9275465, "is_disabled": 0, "name": "25ab408a423d74c4d1acae0649aa4d0a", "fusion_lat": 0.0, "rental_uris": {"ios": "https://dc.lft.to/lastmile_qr_scan", "android": "https://dc.lft.to/lastmile_qr_scan"}, "lon": -77.05370066666667, "type": "electric_scooter"}, {"bike_id": "0eb9d592bc8722607f468854f955665c", "is_reserved": 0, "fusion_lon": 0.0, "lat": 38.88676916666667, "is_disabled": 0, "name": "0eb9d592bc8722607f468854f955665c", "fusion_lat": 0.0, "rental_uris": {"ios": "https://dc.lft.to/lastmile_qr_scan", "android": "https://dc.lft.to/lastmile_qr_scan"}, "lon": -77.01371866666666, "type": "electric_scooter"}, {"bike_id": "f6dc2f14a0e0219593a6bbeb493862bb", "is_reserved": 0, "fusion_lon": 0.0, "lat": 38.91552933333333, "is_disabled": 0, "name": "f6dc2f14a0e0219593a6bbeb493862bb", "fusion_lat": 0.0, "rental_uris": {"ios": "https://dc.lft.to/lastmile_qr_scan", "android": "https://dc.lft.to/lastmile_qr_scan"}, "lon": -77.02362483333333, "type": "electric_scooter"}, {"bike_id": "de2a409fdbfa3816d8615a3c0b53a6b9", "is_reserved": 0, "fusion_lon": 0.0, "lat": 38.912173833333334, "is_disabled": 0, "name": "de2a409fdbfa3816d8615a3c0b53a6b9", "fusion_lat": 0.0, "rental_uris": {"ios": "https://dc.lft.to/lastmile_qr_scan", "android": "https://dc.lft.to/lastmile_qr_scan"}, "lon": -77.02957883333333, "type": "electric_scooter"}, {"bike_id": "303de25065d349a958c2fdd625008298", "is_reserved": 0, "fusion_lon": 0.0, "lat": 38.935188, "is_disabled": 0, "name": "303de25065d349a958c2fdd625008298", "fusion_lat": 0.0, "rental_uris": {"ios": "https://dc.lft.to/lastmile_qr_scan", "android": "https://dc.lft.to/lastmile_qr_scan"}, "lon": -77.03298083333334, "type": "electric_scooter"}, {"bike_id": "82089e7e9cb26a1aaeb2fa12019bc4e0", "is_reserved": 0, "fusion_lon": 0.0, "lat": 38.902711833333335, "is_disabled": 0, "name": "82089e7e9cb26a1aaeb2fa12019bc4e0", "fusion_lat": 0.0, "rental_uris": {"ios": "https://dc.lft.to/lastmile_qr_scan", "android": "https://dc.lft.to/lastmile_qr_scan"}, "lon": -77.03846283333333, "type": "electric_scooter"}, {"bike_id": "f29692ecb8a915ec71fe67488a85ed59", "is_reserved": 0, "fusion_lon": 0.0, "lat": 38.8955755, "is_disabled": 0, "name": "f29692ecb8a915ec71fe67488a85ed59", "fusion_lat": 0.0, "rental_uris": {"ios": "https://dc.lft.to/lastmile_qr_scan", "android": "https://dc.lft.to/lastmile_qr_scan"}, "lon": -76.9304455, "type": "electric_scooter"}, {"bike_id": "7d51182a0ce4db66eb602a3b49e83044", "is_reserved": 0, "fusion_lon": 0.0, "lat": 39.058116, "is_disabled": 0, "name": "7d51182a0ce4db66eb602a3b49e83044", "fusion_lat": 0.0, "rental_uris": {"ios": "https://dc.lft.to/lastmile_qr_scan", "android": "https://dc.lft.to/lastmile_qr_scan"}, "lon": -77.12624883333334, "type": "electric_bike"}, {"bike_id": "77dbc3e07193f4cbfc3304598022208e", "is_reserved": 0, "fusion_lon": 0.0, "lat": 38.898983, "is_disabled": 0, "name": "77dbc3e07193f4cbfc3304598022208e", "fusion_lat": 0.0, "rental_uris": {"ios": "https://dc.lft.to/lastmile_qr_scan", "android": "https://dc.lft.to/lastmile_qr_scan"}, "lon": -77.03276716666667, "type": "electric_scooter"}, {"bike_id": "73457d8c57e4f2581574a419647f6363", "is_reserved": 0, "fusion_lon": 0.0, "lat": 38.915947833333334, "is_disabled": 0, "name": "73457d8c57e4f2581574a419647f6363", "fusion_lat": 0.0, "rental_uris": {"ios": "https://dc.lft.to/lastmile_qr_scan", "android": "https://dc.lft.to/lastmile_qr_scan"}, "lon": -76.983733, "type": "electric_scooter"}, {"bike_id": "10f4b3bff6aacd8830dd21cc49c55418", "is_reserved": 0, "fusion_lon": 0.0, "lat": 38.89834366666667, "is_disabled": 0, "name": "10f4b3bff6aacd8830dd21cc49c55418", "fusion_lat": 0.0, "rental_uris": {"ios": "https://dc.lft.to/lastmile_qr_scan", "android": "https://dc.lft.to/lastmile_qr_scan"}, "lon": -77.0287475, "type": "electric_scooter"}, {"bike_id": "b01da0c83ebc7f5a92f37041e1d98db9", "is_reserved": 0, "fusion_lon": 0.0, "lat": 38.846070833333336, "is_disabled": 0, "name": "b01da0c83ebc7f5a92f37041e1d98db9", "fusion_lat": 0.0, "rental_uris": {"ios": "https://dc.lft.to/lastmile_qr_scan", "android": "https://dc.lft.to/lastmile_qr_scan"}, "lon": -76.97833816666666, "type": "electric_bike"},