{"data": {"bikes": [{"lon": -77.04391616666666, "bike_id": "14f7dd123682d6189e9e4bd8b1b0e1a3", "lat": 39.04717083333333, "fusion_lon": 0.0, "fusion_lat": 0.0, "type": "electric_bike", "name": "14f7dd123682d6189e9e4bd8b1b0e1a3", "is_disabled": 0, "rental_uris": {"ios": "https://dc.lft.to/lastmile_qr_scan", "android": "https://dc.lft.to/lastmile_qr_scan"}, "is_reserved": 0}, {"lon": -77.02224666666666, "bike_id": "f7ac0806ca260a0c04ed1ae765e4b6d3", "lat": 38.926216, "fusion_lon": 0.0, "fusion_lat": 0.0, "type": "electric_scooter", "name": "f7ac0806ca260a0c04ed1ae765e4b6d3", "is_disabled": 0, "rental_uris": {"ios": "https://dc.lft.to/lastmile_qr_scan", "android": "https://dc.lft.to/lastmile_qr_scan"}, "is_reserved": 0}, {"lon": -76.95576183333333, "bike_id": "8852505967629d99af411485cb9dc3f4", "lat": 38.8876615, "fusion_lon": 0.0, "fusion_lat": 0.0, "type": "electric_scooter", "name": "8852505967629d99af411485cb9dc3f4", "is_disabled": 0, "rental_uris": {"ios": "https://dc.lft.to/lastmile_qr_scan", "android": "https://dc.lft.to/lastmile_qr_scan"}, "is_reserved": 0}, {"lon": -77.02237466666666, "bike_id": "5c76676d4dad14cbf6a97edb955802d4", "lat": 38.96213566666667, "fusion_lon": 0.0, "fusion_lat": 0.0, "type": "electric_bike", "name": "5c76676d4dad14cbf6a97edb955802d4", "is_disabled": 0, "rental_uris": {"ios": "https://dc.lft.to/lastmile_qr_scan", "android": "https://dc.lft.to/lastmile_qr_scan"}, "is_reserved": 0}, {"lon": -77.02846466666666, "bike_id": "cfe8a8d16251cb4a93e2e62d82e3f057", "lat": 38.925743833333335, "fusion_lon": 0.0, "fusion_lat": 0.0, "type": "electric_scooter", "name": "cfe8a8d16251cb4a93e2e62d82e3f057", "is_disabled": 0, "rental_uris": {"ios": "https://dc.lft.to/lastmile_qr_scan", "android": "https://dc.lft.to/lastmile_qr_scan"}, "is_reserved": 0}, {"lon": -77.0526325, "bike_id": "23872c39f52c8dde0bc73a151d516266", "lat": 38.89998383333333, "fusion_lon": 0.0, "fusion_lat": 0.0, "type": "electric_scooter", "name": "23872c39f52c8dde0bc73a151d516266", "is_disabled": 0, "rental_uris": {"ios": "https://dc.lft.to/lastmile_qr_scan", "android": "https://dc.lft.to/lastmile_qr_scan"}, "is_reserved": 0}, {"lon": -77.02031516666666, "bike_id": "27135e715df34d547f326b3258b6532f", "lat": 38.92415066666667, "fusion_lon": 0.0, "fusion_lat": 0.0, "type": "electric_scooter", "name": "27135e715df34d547f326b3258b6532f", "is_disabled": 0, "rental_uris": {"ios": "https://dc.lft.to/lastmile_qr_scan", "android": "https://dc.lft.to/lastmile_qr_scan"}, "is_reserved": 0}, {"lon": -77.0327975, "bike_id": "52fe0629d032be70f89074f6d6c300f6", "lat": 38.907279333333335, "fusion_lon": 0.0, "fusion_lat": 0.0, "type": "electric_scooter", "name": "52fe0629d032be70f89074f6d6c300f6", "is_disabled": 0, "rental_uris": {"ios": "https://dc.lft.to/lastmile_qr_scan", "android": "https://dc.lft.to/lastmile_qr_scan"}, "is_reserved": 0}, {"lon": -76.98923383333333, "bike_id": "3ea6a53d258757891abfaee587d6cd50", "lat": 38.858108, "fusion_lon": 0.0, "fusion_lat": 0.0, "type": "electric_scooter", "name": "3ea6a53d258757891abfaee587d6cd50", "is_disabled": 0, "rental_uris": {"ios": "https://dc.lft.to/lastmile_qr_scan", "android": "https://dc.lft.to/lastmile_qr_scan"}, "is_reserved": 0}, {"lon": -77.0342075, "bike_id": "4f79ff7af2e27918cb1a97f096e842f0", "lat": 38.918007833333334, "fusion_lon": 0.0, "fusion_lat": 0.0, "type": "electric_scooter", "name": "4f79ff7af2e27918cb1a97f096e842f0", "is_disabled": 0, "rental_uris": {"ios": "https://dc.lft.to/lastmile_qr_scan", "android": "https://dc.lft.to/lastmile_qr_scan"}, "is_reserved": 0}, {"lon": -77.03375483333333, "bike_id": "45ef6029a3db04d12ec58595943b26be", "lat": 38.909782166666666, "fusion_lon": 0.0, "fusion_lat": 0.0, "type": "electric_scooter", "name": "45ef6029a3db04d12ec58595943b26be", "is_disabled": 0, "rental_uris": {"ios": "https://dc.lft.to/lastmile_qr_scan", "android": "https://dc.lft.to/lastmile_qr_scan"}, "is_reserved": 0}, {"lon": -77.04326533333334, "bike_id": "80a4ff71f4a39deed25b58d954ba17c2", "lat": 38.9073625, "fusion_lon": 0.0, "fusion_lat": 0.0, "type": "electric_scooter", "name": "80a4ff71f4a39deed25b58d954ba17c2", "is_disabled": 0, "rental_uris": {"ios": "https://dc.lft.to/lastmile_qr_scan", "android": "https://dc.lft.to/lastmile_qr_scan"}, "is_reserved": 0}, {"lon": -77.0344725, "bike_id": "da7167ccf8681f9fdc3dda6e7c311958", "lat": 38.909517666666666, "fusion_lon": 0.0, "fusion_lat": 0.0, "type": "electric_scooter", "name": "da7167ccf8681f9fdc3dda6e7c311958", "is_disabled": 0, "rental_uris": {"ios": "https://dc.lft.to/lastmile_qr_scan", "android": "https://dc.lft.to/lastmile_qr_scan"}, "is_reserved": 0}, {"lon": -77.022629, "bike_id": "f412693cb1307e635721aefa4e547349", "lat": 38.937611, "fusion_lon": 0.0, "fusion_lat": 0.0, "type": "electric_scooter", "name": "f412693cb1307e635721aefa4e547349", "is_disabled": 0, "rental_uris": {"ios": "https://dc.lft.to/lastmile_qr_scan", "android": "https://dc.lft.to/lastmile_qr_scan"}, "is_reserved": 0}, {"lon": -77.002054, "bike_id": "b9f1634a531d0d0fe94886019858fd12", "lat": 38.89540216666666, "fusion_lon": 0.0, "fusion_lat": 0.0, "type": "electric_scooter", "name": "b9f1634a531d0d0fe94886019858fd12", "is_disabled": 0, "rental_uris": {"ios": "https://dc.lft.to/lastmile_qr_scan", "android": "https://dc.lft.to/lastmile_qr_scan"}, "is_reserved": 0}, {"lon": -77.02187066666667, "bike_id": "4b3116f53753c10e6f096a7b32722f36", "lat": 38.9151155, "fusion_lon": 0.0, "fusion_lat": 0.0, "type": "electric_scooter", "name": "4b3116f53753c10e6f096a7b32722f36", "is_disabled": 0, "rental_uris": {"ios": "https://dc.lft.to/lastmile_qr_scan", "android": "https://dc.lft.to/lastmile_qr_scan"}, "is_reserved": 0}, {"lon": -77.05408666666666, "bike_id": "b04c9c74648374678b551e8caf330777", "lat": 38.9504655, "fusion_lon": 0.0, "fusion_lat": 0.0, "type": "electric_scooter", "name": "b04c9c74648374678b551e8caf330777", "is_disabled": 0, "rental_uris": {"ios": "https://dc.lft.to/lastmile_qr_scan", "android": "https://dc.lft.to/lastmile_qr_scan"}, "is_reserved": 0}, {"lon": -77.03174583333333, "bike_id": "a2f02870563ff1c76273897b6ea121bc", "lat": 38.884125166666664, "fusion_lon": 0.0, "fusion_lat": 0.0, "type": "electric_scooter", "name": "a2f02870563ff1c76273897b6ea121bc", "is_disabled": 0, "rental_uris": {"ios": "https://dc.lft.to/lastmile_qr_scan", "android": "https://dc.lft.to/lastmile_qr_scan"}, "is_reserved": 0}, {"lon": -76.98340533333334, "bike_id": "8f5c9e92b2a168e7b3f19a9b2bd547d1", "lat": 38.9009875, "fusion_lon": 0.0, "fusion_lat": 0.0, "type": "electric_scooter", "name": "8f5c9e92b2a168e7b3f19a9b2bd547d1", "is_disabled": 0, "rental_uris": {"ios": "https://dc.lft.to/lastmile_qr_scan", "android": "https://dc.lft.to/lastmile_qr_scan"}, "is_reserved": 0}, {"lon": -77.020383, "bike_id": "239d728a4e635137d31ea6352dffa577", "lat": 38.90865983333333, "fusion_lon": 0.0, "fusion_lat": 0.0, "type": "electric_scooter", "name": "239d728a4e635137d31ea6352dffa577", "is_disabled": 0, "rental_uris": {"ios": "https://dc.lft.to/lastmile_qr_scan", "android": "https://dc.lft.to/lastmile_qr_scan"}, "is_reserved": 0}, {"lon": -77.02210983333333, "bike_id": "e87ec3b05a937ae6c20006d8ea1b54e8", "lat": 38.89356266666667, "fusion_lon": 0.0, "fusion_lat": 0.0, "type": "electric_scooter", "name": "e87ec3b05a937ae6c20006d8ea1b54e8", "is_disabled": 0, "rental_uris": {"ios": "https://dc.lft.to/lastmile_qr_scan", "android": "https://dc.lft.to/lastmile_qr_scan"}, "is_reserved": 0}, {"lon": -77.014726, "bike_id": "cb5663e4a22358bf454f1339939e76ae", "lat": 38.94061633333333, "fusion_lon": 0.0, "fusion_lat": 0.0, "type": "electric_bike", "name": "cb5663e4a22358bf454f1339939e76ae", "is_disabled": 0, "rental_uris": {"ios": "https://dc.lft.to/lastmile_qr_scan", "android": "https://dc.lft.to/lastmile_qr_scan"}, "is_reserved": 0}, {"lon": -77.00531533333333, "bike_id": "e0d55c84d4ca0f3ac190e0dfbb8f868b", "lat": 38.92974683333333, "fusion_lon": 0.0, "fusion_lat": 0.0, "type": "electric_scooter", "name": "e0d55c84d4ca0f3ac190e0dfbb8f868b", "is_disabled": 0, "rental_uris": {"ios": "https://dc.lft.to/lastmile_qr_scan", "android": "https://dc.lft.to/lastmile_qr_scan"}, "is_reserved": 0}, {"lon": -77.02805366666666, "bike_id": "85257f68a22d6b3cc6a2937c2ee4c1b8", "lat": 38.916843166666666, "fusion_lon": 0.0, "fusion_lat": 0.0, "type": "electric_scooter", "name": "85257f68a22d6b3cc6a2937c2ee4c1b8", "is_disabled": 0, "rental_uris": {"ios": "https://dc.lft.to/lastmile_qr_scan", "android": "https://dc.lft.to/lastmile_qr_scan"}, "is_reserved": 0}, {"lon": -76.92623233333333, "bike_id": "11bff74003145a9135e3fbe4cc4b3775", "lat": 38.884609166666664, "fusion_lon": 0.0, "fusion_lat": 0.0, "type": "electric_scooter", "name": "11bff74003145a9135e3fbe4cc4b3775", "is_disabled": 0, "rental_uris": {"ios": "https://dc.lft.to/lastmile_qr_scan", "android": "https://dc.lft.to/lastmile_qr_scan"}, "is_reserved": 0}, {"lon": -77.02204466666667, "bike_id": "3d83acc0e6ca4416480e591094f3b1d0", "lat": 38.9056295, "fusion_lon": 0.0, "fusion_lat": 0.0, "type": "electric_scooter", "name": "3d83acc0e6ca4416480e591094f3b1d0", "is_disabled": 0, "rental_uris": {"ios": "https://dc.lft.to/lastmile_qr_scan", "android": "https://dc.lft.to/lastmile_qr_scan"}, "is_reserved": 0}, {"lon": -77.05159216666667, "bike_id": "abd1d0fe79fd1333209c90b63e0dc2a6", "lat": 39.043069333333335, "fusion_lon": 0.0, "fusion_lat": 0.0, "type": "electric_bike", "name": "abd1d0fe79fd1333209c90b63e0dc2a6", "is_disabled": 0, "rental_uris": {"ios": "https://dc.lft.to/lastmile_qr_scan", "android": "https://dc.lft.to/lastmile_qr_scan"}, "is_reserved": 0}, {"lon": -77.03179766666666, "bike_id": "549a3900d4144501d2e654adb3cd08db", "lat": 38.93696516666667, "fusion_lon": 0.0, "fusion_lat": 0.0, "type": "electric_scooter", "name": "549a3900d4144501d2e654adb3cd08db", "is_disabled": 0, "rental_uris": {"ios": "https://dc.lft.to/lastmile_qr_scan", "android": "https://dc.lft.to/lastmile_qr_scan"}, "is_reserved": 0}, {"lon": -77.01208383333334, "bike_id": "ffe89927170d3a5fb0bd64a5eb237386", "lat": 38.921198833333335, "fusion_lon": 0.0, "fusion_lat": 0.0, "type": "electric_scooter", "name": "ffe89927170d3a5fb0bd64a5eb237386", "is_disabled": 0, "rental_uris": {"ios": "https://dc.lft.to/lastmile_qr_scan", "android": "https://dc.lft.to/lastmile_qr_scan"}, "is_reserved": 0}, {"lon": -77.05696316666666, "bike_id": "0f8740fd98f4e2c16ec98be6ba8e601c", "lat": 38.937138833333336, "fusion_lon": 0.0, "fusion_lat": 0.0, "type": "electric_scooter", "name": "0f8740fd98f4e2c16ec98be6ba8e601c", "is_disabled": 0, "rental_uris": {"ios": "https://dc.lft.to/lastmile_qr_scan", "android": "https://dc.lft.to/lastmile_qr_scan"}, "is_reserved": 0}, {"lon": -77.00624483333333, "bike_id": "8ab86f9bc88531ed9ba17bf990c4d3ba", "lat": 38.91258216666667, "fusion_lon": 0.0, "fusion_lat": 0.0, "type": "electric_scooter", "name": "8ab86f9bc88531ed9ba17bf990c4d3ba", "is_disabled": 0, "rental_uris": {"ios": "https://dc.lft.to/lastmile_qr_scan", "android": "https://dc.lft.to/lastmile_qr_scan"}, "is_reserved": 0}, {"lon": -76.97538766666666, "bike_id": "6b69255040d4f4958f73253dfb9ea8ae", "lat": 38.86425366666667, "fusion_lon": 0.0, "fusion_lat": 0.0, "type": "electric_scooter", "name": "6b69255040d4f4958f73253dfb9ea8ae", "is_disabled": 0, "rental_uris": {"ios": "https://dc.lft.to/lastmile_qr_scan", "android": "https://dc.lft.to/lastmile_qr_scan"}, "is_reserved": 0}, {"lon": -76.93001483333333, "bike_id": "d0b76d16e1e91ab2b6fd3312b150fe9c", "lat": 38.89195466666666, "fusion_lon": 0.0, "fusion_lat": 0.0, "type": "electric_scooter", "name": "d0b76d16e1e91ab2b6fd3312b150fe9c", "is_disabled": 0, "rental_uris": {"ios": "https://dc.lft.to/lastmile_qr_scan", "android": "https://dc.lft.to/lastmile_qr_scan"}, "is_reserved": 0}, {"lon": -77.057351, "bike_id": "b07f5b15096fc5911e50c8528172ef8c", "lat": 38.933683333333335, "fusion_lon": 0.0, "fusion_lat": 0.0, "type": "electric_scooter", "name": "b07f5b15096fc5911e50c8528172ef8c", "is_disabled": 0, "rental_uris": {"ios": "https://dc.lft.to/lastmile_qr_scan", "android": "https://dc.lft.to/lastmile_qr_scan"}, "is_reserved": 0}, {"lon": -76.99529416666667, "bike_id": "3bb0af2e95e3add92cc08c0f647a98c1", "lat": 38.883671, "fusion_lon": 0.0, "fusion_lat": 0.0, "type": "electric_scooter", "name": "3bb0af2e95e3add92cc08c0f647a98c1", "is_disabled": 0, "rental_uris": {"ios": "https://dc.lft.to/lastmile_qr_scan", "android": "https://dc.lft.to/lastmile_qr_scan"}, "is_reserved": 0}, {"lon": -77.01875033333333, "bike_id": "be12700ba14d59cb5005913b0392fb4d", "lat": 38.91827766666667, "fusion_lon": 0.0, "fusion_lat": 0.0, "type": "electric_scooter", "name": "be12700ba14d59cb5005913b0392fb4d", "is_disabled": 0, "rental_uris": {"ios": "https://dc.lft.to/lastmile_qr_scan", "android": "https://dc.lft.to/lastmile_qr_scan"}, "is_reserved": 0}, {"lon": -76.98230366666667, "bike_id": "5233ec112c266a16ba6c6cf1ead4b2ab", "lat": 38.8864595, "fusion_lon": 0.0, "fusion_lat": 0.0, "type": "electric_scooter", "name": "5233ec112c266a16ba6c6cf1ead4b2ab", "is_disabled": 0, "rental_uris": {"ios": "https://dc.lft.to/lastmile_qr_scan", "android": "https://dc.lft.to/lastmile_qr_scan"}, "is_reserved": 0}, {"lon": -77.04333533333333, "bike_id": "f8fb00791d27ca7fda3cb59f2c0e5879", "lat": 38.922186333333336, "fusion_lon": 0.0, "fusion_lat": 0.0, "type": "electric_scooter", "name": "f8fb00791d27ca7fda3cb59f2c0e5879", "is_disabled": 0, "rental_uris": {"ios": "https://dc.lft.to/lastmile_qr_scan", "android": "https://dc.lft.to/lastmile_qr_scan"}, "is_reserved": 0}, {"lon": -77.0006115, "bike_id": "e44fce58859da98609bf6bbdde90157e", "lat": 38.89493316666667, "fusion_lon": 0.0, "fusion_lat": 0.0, "type": "electric_scooter", "name": "e44fce58859da98609bf6bbdde90157e", "is_disabled": 0, "rental_uris": {"ios": "https://dc.lft.to/lastmile_qr_scan", "android": "https://dc.lft.to/lastmile_qr_scan"}, "is_reserved": 0}, {"lon": -77.0441825, "bike_id": "c22275a3026b5758ec03a3c84eb8fe74", "lat": 38.921171, "fusion_lon": 0.0, "fusion_lat": 0.0, "type": "electric_scooter", "name": "c22275a3026b5758ec03a3c84eb8fe74", "is_disabled": 0, "rental_uris": {"ios": "https://dc.lft.to/lastmile_qr_scan", "android": "https://dc.lft.to/lastmile_qr_scan"}, "is_reserved": 0}, {"lon": -77.10482683333333, "bike_id": "a8208f746e43d20f76621395df426a5b", "lat": 38.856056333333335, "fusion_lon": 0.0, "fusion_lat": 0.0, "type": "electric_bike", "name": "a8208f746e43d20f76621395df426a5b", "is_disabled": 0, "rental_uris": {"ios": "https://dc.lft.to/lastmile_qr_scan", "android": "https://dc.lft.to/lastmile_qr_scan"}, "is_reserved": 0}, {"lon": -77.03764933333333, "bike_id": "6a1e5d3e2a789bf9e3e793d1b23efab5", "lat": 38.907805833333335, "fusion_lon": 0.0, "fusion_lat": 0.0, "type": "electric_scooter", "name": "6a1e5d3e2a789bf9e3e793d1b23efab5", "is_disabled": 0, "rental_uris": {"ios": "https://dc.lft.to/lastmile_qr_scan", "android": "https://dc.lft.to/lastmile_qr_scan"}, "is_reserved": 0}, {"lon": -77.01894533333333, "bike_id": "a1c74e53c9b1277dc5444870f7adf2b2", "lat": 38.874646166666665, "fusion_lon": 0.0, "fusion_lat": 0.0, "type": "electric_scooter", "name": "a1c74e53c9b1277dc5444870f7adf2b2", "is_disabled": 0, "rental_uris": {"ios": "https://dc.lft.to/lastmile_qr_scan", "android": "https://dc.lft.to/lastmile_qr_scan"}, "is_reserved": 0}, {"lon": -77.03261516666667, "bike_id": "1e058bad58ae5d323bcec75524a2a7a7", "lat": 38.932659, "fusion_lon": 0.0, "fusion_lat": 0.0, "type": "electric_scooter", "name": "1e058bad58ae5d323bcec75524a2a7a7", "is_disabled": 0, "rental_uris": {"ios": "https://dc.lft.to/lastmile_qr_scan", "android": "https://dc.lft.to/lastmile_qr_scan"}, "is_reserved": 0}, {"lon": -77.03713766666667, "bike_id": "e25f3aa36eda4fcc055bdaae7f548d78", "lat": 38.91480933333333, "fusion_lon": 0.0, "fusion_lat": 0.0, "type": "electric_scooter", "name": "e25f3aa36eda4fcc055bdaae7f548d78", "is_disabled": 0, "rental_uris": {"ios": "https://dc.lft.to/lastmile_qr_scan", "android": "https://dc.lft.to/lastmile_qr_scan"}, "is_reserved": 0}, {"lon": -77.03437, "bike_id": "250888ba1a23ac7fb248caa1c0ef04f6", "lat": 38.90975783333333, "fusion_lon": 0.0, "fusion_lat": 0.0, "type": "electric_scooter", "name": "250888ba1a23ac7fb248caa1c0ef04f6", "is_disabled": 0, "rental_uris": {"ios": "https://dc.lft.to/lastmile_qr_scan", "android": "https://dc.lft.to/lastmile_qr_scan"}, "is_reserved": 0}, {"lon": -77.00259, "bike_id": "0cfaf003a3a0474818bc862ed894bc62", "lat": 38.918175833333336, "fusion_lon": 0.0, "fusion_lat": 0.0, "type": "electric_scooter", "name": "0cfaf003a3a0474818bc862ed894bc62", "is_disabled": 0, "rental_uris": {"ios": "https://dc.lft.to/lastmile_qr_scan", "android": "https://dc.lft.to/lastmile_qr_scan"}, "is_reserved": 0}, {"lon": -77.02708966666667, "bike_id": "efcfa5069943fd3011cddf2884b53a07", "lat": 38.90666516666667, "fusion_lon": 0.0, "fusion_lat": 0.0, "type": "electric_scooter", "name": "efcfa5069943fd3011cddf2884b53a07", "is_disabled": 0, "rental_uris": {"ios": "https://dc.lft.to/lastmile_qr_scan", "android": "https://dc.lft.to/lastmile_qr_scan"}, "is_reserved": 0}, {"lon": -77.040359, "bike_id": "826dd34273ee54601c8e361d58cb2f35", "lat": 38.900221333333334, "fusion_lon": 0.0, "fusion_lat": 0.0, "type": "electric_scooter", "name": "826dd34273ee54601c8e361d58cb2f35", "is_disabled": 0, "rental_uris": {"ios": "https://dc.lft.to/lastmile_qr_scan", "android": "https://dc.lft.to/lastmile_qr_scan"}, "is_reserved": 0}, {"lon": -77.00102116666666, "bike_id": "bb974792ca13e6a0bee3259557031bb4", "lat": 38.91704166666667, "fusion_lon": 0.0, "fusion_lat": 0.0, "type": "electric_scooter", "name": "bb974792ca13e6a0bee3259557031bb4", "is_disabled": 0, "rental_uris": {"ios": "https://dc.lft.to/lastmile_qr_scan", "android": "https://dc.lft.to/lastmile_qr_scan"}, "is_reserved": 0}, {"lon": -77.03329, "bike_id": "8525f8cf8d9af1f03cb4ffc089501e9b", "lat": 38.919733, "fusion_lon": 0.0, "fusion_lat": 0.0, "type": "electric_scooter", "name": "8525f8cf8d9af1f03cb4ffc089501e9b", "is_disabled": 0, "rental_uris": {"ios": "https://dc.lft.to/lastmile_qr_scan", "android": "https://dc.lft.to/lastmile_qr_scan"}, "is_reserved": 0}, {"lon": -77.05864016666666, "bike_id": "2517cb16c0c76dea7d7aaa7ff62224d4", "lat": 38.936079, "fusion_lon": 0.0, "fusion_lat": 0.0, "type": "electric_scooter", "name": "2517cb16c0c76dea7d7aaa7ff62224d4", "is_disabled": 0, "rental_uris": {"ios": "https://dc.lft.to/lastmile_qr_scan", "android": "https://dc.lft.to/lastmile_qr_scan"}, "is_reserved": 0}, {"lon": -77.05809616666667, "bike_id": "a14883e4abca09cd6a8d878a2761d7fb", "lat": 38.82395133333333, "fusion_lon": 0.0, "fusion_lat": 0.0, "type": "electric_bike", "name": "a14883e4abca09cd6a8d878a2761d7fb", "is_disabled": 0, "rental_uris": {"ios": "https://dc.lft.to/lastmile_qr_scan", "android": "https://dc.lft.to/lastmile_qr_scan"}, "is_reserved": 0}, {"lon": -76.94921883333333, "bike_id": "fc16b9b8835a9934f0e11012ca09797b", "lat": 38.89353783333333, "fusion_lon": 0.0, "fusion_lat": 0.0, "type": "electric_scooter", "name": "fc16b9b8835a9934f0e11012ca09797b", "is_disabled": 0, "rental_uris": {"ios": "https://dc.lft.to/lastmile_qr_scan", "android": "https://dc.lft.to/lastmile_qr_scan"}, "is_reserved": 0}, {"lon": -76.98719466666667, "bike_id": "0066ea2931b2fc4acd13b8720a00f604", "lat": 38.866309666666666, "fusion_lon": 0.0, "fusion_lat": 0.0, "type": "electric_scooter", "name": "0066ea2931b2fc4acd13b8720a00f604", "is_disabled": 0, "rental_uris": {"ios": "https://dc.lft.to/lastmile_qr_scan", "android": "https://dc.lft.to/lastmile_qr_scan"}, "is_reserved": 0}, {"lon": -77.02200516666667, "bike_id": "6319a852fb2d05847f6c643b9f2fd647", "lat": 38.90039383333333, "fusion_lon": 0.0, "fusion_lat": 0.0, "type": "electric_scooter", "name": "6319a852fb2d05847f6c643b9f2fd647", "is_disabled": 0, "rental_uris": {"ios": "https://dc.lft.to/lastmile_qr_scan", "android": "https://dc.lft.to/lastmile_qr_scan"}, "is_reserved": 0}, {"lon": -77.07431166666667, "bike_id": "e07f0b94ecb42f0aed7ec8881bcd9925", "lat": 38.999468, "fusion_lon": 0.0, "fusion_lat": 0.0, "type": "electric_bike", "name": "e07f0b94ecb42f0aed7ec8881bcd9925", "is_disabled": 0, "rental_uris": {"ios": "https://dc.lft.to/lastmile_qr_scan", "android": "https://dc.lft.to/lastmile_qr_scan"}, "is_reserved": 0}, {"lon": -77.0640065, "bike_id": "62e42748d458cd0b8a68375fc234ea8d", "lat": 38.907795, "fusion_lon": 0.0, "fusion_lat": 0.0, "type": "electric_scooter", "name": "62e42748d458cd0b8a68375fc234ea8d", "is_disabled": 0, "rental_uris": {"ios": "https://dc.lft.to/lastmile_qr_scan", "android": "https://dc.lft.to/lastmile_qr_scan"}, "is_reserved": 0}, {"lon": -77.03181533333333, "bike_id": "0763a8eb282f14515282d4b9052cff98", "lat": 38.9134585, "fusion_lon": 0.0, "fusion_lat": 0.0, "type": "electric_scooter", "name": "0763a8eb282f14515282d4b9052cff98", "is_disabled": 0, "rental_uris": {"ios": "https://dc.lft.to/lastmile_qr_scan", "android": "https://dc.lft.to/lastmile_qr_scan"}, "is_reserved": 0}, {"lon": -77.02006833333333, "bike_id": "4e565216d1313f3e73b7da00bff27106", "lat": 38.92413766666667, "fusion_lon": 0.0, "fusion_lat": 0.0, "type": "electric_scooter", "name": "4e565216d1313f3e73b7da00bff27106", "is_disabled": 0, "rental_uris": {"ios": "https://dc.lft.to/lastmile_qr_scan", "android": "https://dc.lft.to/lastmile_qr_scan"}, "is_reserved": 0}, {"lon": -77.02857966666667, "bike_id": "11fc98ba26b48b039c20aeb7adadc9ee", "lat": 38.933238333333335, "fusion_lon": 0.0, "fusion_lat": 0.0, "type": "electric_scooter", "name": "11fc98ba26b48b039c20aeb7adadc9ee", "is_disabled": 0, "rental_uris": {"ios": "https://dc.lft.to/lastmile_qr_scan", "android": "https://dc.lft.to/lastmile_qr_scan"}, "is_reserved": 0}, {"lon": -77.0137165, "bike_id": "5f802f81261d40d9771f0752263100d7", "lat": 38.886737333333336, "fusion_lon": 0.0, "fusion_lat": 0.0, "type": "electric_scooter", "name": "5f802f81261d40d9771f0752263100d7", "is_disabled": 0, "rental_uris": {"ios": "https://dc.lft.to/lastmile_qr_scan", "android": "https://dc.lft.to/lastmile_qr_scan"}, "is_reserved": 0}, {"lon": -77.00022233333334, "bike_id": "65a1a066d086b92b2e88d94e3998b88d", "lat": 38.91984766666667, "fusion_lon": 0.0, "fusion_lat": 0.0, "type": "electric_scooter", "name": "65a1a066d086b92b2e88d94e3998b88d", "is_disabled": 0, "rental_uris": {"ios": "https://dc.lft.to/lastmile_qr_scan", "android": "https://dc.lft.to/lastmile_qr_scan"}, "is_reserved": 0}, {"lon": -76.98347666666666, "bike_id": "d250fe8ee2ae8197c694bdd16e08ad26", "lat": 38.90453433333333, "fusion_lon": 0.0, "fusion_lat": 0.0, "type": "electric_scooter", "name": "d250fe8ee2ae8197c694bdd16e08ad26", "is_disabled": 0, "rental_uris": {"ios": "https://dc.lft.to/lastmile_qr_scan", "android": "https://dc.lft.to/lastmile_qr_scan"}, "is_reserved": 0}, {"lon": -77.00976333333334, "bike_id": "769755b436ed0b9d2765a391f904cb1c", "lat": 38.894844, "fusion_lon": 0.0, "fusion_lat": 0.0, "type": "electric_scooter", "name": "769755b436ed0b9d2765a391f904cb1c", "is_disabled": 0, "rental_uris": {"ios": "https://dc.lft.to/lastmile_qr_scan", "android": "https://dc.lft.to/lastmile_qr_scan"}, "is_reserved": 0}, {"lon": -77.02979866666666, "bike_id": "6f34fa521f0d286f7a284c3c0214f5b8", "lat": 38.906540166666666, "fusion_lon": 0.0, "fusion_lat": 0.0, "type": "electric_scooter", "name": "6f34fa521f0d286f7a284c3c0214f5b8", "is_disabled": 0, "rental_uris": {"ios": "https://dc.lft.to/lastmile_qr_scan", "android": "https://dc.lft.to/lastmile_qr_scan"}, "is_reserved": 0}, {"lon": -76.93374566666667, "bike_id": "a1a45c31a17999caa7a816eed4368d92", "lat": 38.899130666666665, "fusion_lon": 0.0, "fusion_lat": 0.0, "type": "electric_scooter", "name": "a1a45c31a17999caa7a816eed4368d92", "is_disabled": 0, "rental_uris": {"ios": "https://dc.lft.to/lastmile_qr_scan", "android": "https://dc.lft.to/lastmile_qr_scan"}, "is_reserved": 0}, {"lon": -77.03143583333333, "bike_id": "d46565dace27482e0c23f0a6849990d7", "lat": 38.920060666666664, "fusion_lon": 0.0, "fusion_lat": 0.0, "type": "electric_scooter", "name": "d46565dace27482e0c23f0a6849990d7", "is_disabled": 0, "rental_uris": {"ios": "https://dc.lft.to/lastmile_qr_scan", "android": "https://dc.lft.to/lastmile_qr_scan"}, "is_reserved": 0}, {"lon": -77.02696383333334, "bike_id": "4f9a394fcd200123e5f8c757aa8d9c14", "lat": 38.906229, "fusion_lon": 0.0, "fusion_lat": 0.0, "type": "electric_scooter", "name": "4f9a394fcd200123e5f8c757aa8d9c14", "is_disabled": 0, "rental_uris": {"ios": "https://dc.lft.to/lastmile_qr_scan", "android": "https://dc.lft.to/lastmile_qr_scan"}, "is_reserved": 0}, {"lon": -77.06754983333333, "bike_id": "acbd4505de83a440bf2e7aa382073c56", "lat": 38.9034055, "fusion_lon": 0.0, "fusion_lat": 0.0, "type": "electric_scooter", "name": "acbd4505de83a440bf2e7aa382073c56", "is_disabled": 0, "rental_uris": {"ios": "https://dc.lft.to/lastmile_qr_scan", "android": "https://dc.lft.to/lastmile_qr_scan"}, "is_reserved": 0}, {"lon": -77.0297615, "bike_id": "cb83c8a5c95e6f04db07025c9da59a17", "lat": 38.932804833333336, "fusion_lon": 0.0, "fusion_lat": 0.0, "type": "electric_scooter", "name": "cb83c8a5c95e6f04db07025c9da59a17", "is_disabled": 0, "rental_uris": {"ios": "https://dc.lft.to/lastmile_qr_scan", "android": "https://dc.lft.to/lastmile_qr_scan"}, "is_reserved": 0}, {"lon": -77.023834, "bike_id": "1ce99a8b2f999da3f973371b602611fb", "lat": 38.90731266666667, "fusion_lon": 0.0, "fusion_lat": 0.0, "type": "electric_scooter", "name": "1ce99a8b2f999da3f973371b602611fb", "is_disabled": 0, "rental_uris": {"ios": "https://dc.lft.to/lastmile_qr_scan", "android": "https://dc.lft.to/lastmile_qr_scan"}, "is_reserved": 0}, {"lon": -77.0394035, "bike_id": "d8f05337c3616fb30a964b4ed11a0373", "lat": 38.930594166666666, "fusion_lon": 0.0, "fusion_lat": 0.0, "type": "electric_scooter", "name": "d8f05337c3616fb30a964b4ed11a0373", "is_disabled": 0, "rental_uris": {"ios": "https://dc.lft.to/lastmile_qr_scan", "android": "https://dc.lft.to/lastmile_qr_scan"}, "is_reserved": 0}, {"lon": -77.03863366666667, "bike_id": "d0884fcb5b6b699509b10c4237f99f89", "lat": 38.91262866666667, "fusion_lon": 0.0, "fusion_lat": 0.0, "type": "electric_scooter", "name": "d0884fcb5b6b699509b10c4237f99f89", "is_disabled": 0, "rental_uris": {"ios": "https://dc.lft.to/lastmile_qr_scan", "android": "https://dc.lft.to/lastmile_qr_scan"}, "is_reserved": 0}, {"lon": -77.04477366666667, "bike_id": "023e6ebee533191ecc0369484863d755", "lat": 38.900839166666664, "fusion_lon": 0.0, "fusion_lat": 0.0, "type": "electric_scooter", "name": "023e6ebee533191ecc0369484863d755", "is_disabled": 0, "rental_uris": {"ios": "https://dc.lft.to/lastmile_qr_scan", "android": "https://dc.lft.to/lastmile_qr_scan"}, "is_reserved": 0}, {"lon": -77.03207366666666, "bike_id": "3744fa01c564dc36950e1181dbd70580", "lat": 38.88724466666667, "fusion_lon": 0.0, "fusion_lat": 0.0, "type": "electric_scooter", "name": "3744fa01c564dc36950e1181dbd70580", "is_disabled": 0, "rental_uris": {"ios": "https://dc.lft.to/lastmile_qr_scan", "android": "https://dc.lft.to/lastmile_qr_scan"}, "is_reserved": 0}, {"lon": -77.04338016666667, "bike_id": "6ae4ddffed0e1a125d32b0163b3d6b0e", "lat": 38.929709333333335, "fusion_lon": 0.0, "fusion_lat": 0.0, "type": "electric_scooter", "name": "6ae4ddffed0e1a125d32b0163b3d6b0e", "is_disabled": 0, "rental_uris": {"ios": "https://dc.lft.to/lastmile_qr_scan", "android": "https://dc.lft.to/lastmile_qr_scan"}, "is_reserved": 0}, {"lon": -76.98370683333333, "bike_id": "a4ef668c842291a8853247ed21bf5301", "lat": 38.89978283333333, "fusion_lon": 0.0, "fusion_lat": 0.0, "type": "electric_scooter", "name": "a4ef668c842291a8853247ed21bf5301", "is_disabled": 0, "rental_uris": {"ios": "https://dc.lft.to/lastmile_qr_scan", "android": "https://dc.lft.to/lastmile_qr_scan"}, "is_reserved": 0}, {"lon": -77.02289416666666, "bike_id": "73ce207c4f22fbf4b5514de9d902bd19", "lat": 38.90979816666667, "fusion_lon": 0.0, "fusion_lat": 0.0, "type": "electric_scooter", "name": "73ce207c4f22fbf4b5514de9d902bd19", "is_disabled": 0, "rental_uris": {"ios": "https://dc.lft.to/lastmile_qr_scan", "android": "https://dc.lft.to/lastmile_qr_scan"}, "is_reserved": 0}, {"lon": -77.02695616666666, "bike_id": "9feed38d81260ae5fd30c1df4f0cc02f", "lat": 38.908429, "fusion_lon": 0.0, "fusion_lat": 0.0, "type": "electric_scooter", "name": "9feed38d81260ae5fd30c1df4f0cc02f", "is_disabled": 0, "rental_uris": {"ios": "https://dc.lft.to/lastmile_qr_scan", "android": "https://dc.lft.to/lastmile_qr_scan"}, "is_reserved": 0}, {"lon": -76.98713216666667, "bike_id": "589c12c903bc739404c0174c091ce090", "lat": 38.86697866666667, "fusion_lon": 0.0, "fusion_lat": 0.0, "type": "electric_scooter", "name": "589c12c903bc739404c0174c091ce090", "is_disabled": 0, "rental_uris": {"ios": "https://dc.lft.to/lastmile_qr_scan", "android": "https://dc.lft.to/lastmile_qr_scan"}, "is_reserved": 0}, {"lon": -77.01987666666666, "bike_id": "b870d03b17679e23fcc5aa0229d2a645", "lat": 38.960285999999996, "fusion_lon": 0.0, "fusion_lat": 0.0, "type": "electric_scooter", "name": "b870d03b17679e23fcc5aa0229d2a645", "is_disabled": 0, "rental_uris": {"ios": "https://dc.lft.to/lastmile_qr_scan", "android": "https://dc.lft.to/lastmile_qr_scan"}, "is_reserved": 0}, {"lon": -76.99185966666667, "bike_id": "d3a91affb1299bc3c99e6dfe4d51a858", "lat": 38.908380666666666, "fusion_lon": 0.0, "fusion_lat": 0.0, "type": "electric_scooter", "name": "d3a91affb1299bc3c99e6dfe4d51a858", "is_disabled": 0, "rental_uris": {"ios": "https://dc.lft.to/lastmile_qr_scan", "android": "https://dc.lft.to/lastmile_qr_scan"}, "is_reserved": 0}, {"lon": -77.03176016666667, "bike_id": "e05281b643eea16a389ec0efc38203f6", "lat": 38.88729083333333, "fusion_lon": 0.0, "fusion_lat": 0.0, "type": "electric_scooter", "name": "e05281b643eea16a389ec0efc38203f6", "is_disabled": 0, "rental_uris": {"ios": "https://dc.lft.to/lastmile_qr_scan", "android": "https://dc.lft.to/lastmile_qr_scan"}, "is_reserved": 0}, {"lon": -77.00881783333334, "bike_id": "632e0f724edcf41d641353267acca660", "lat": 38.9179415, "fusion_lon": 0.0, "fusion_lat": 0.0, "type": "electric_scooter", "name": "632e0f724edcf41d641353267acca660", "is_disabled": 0, "rental_uris": {"ios": "https://dc.lft.to/lastmile_qr_scan", "android": "https://dc.lft.to/lastmile_qr_scan"}, "is_reserved": 0}, {"lon": -76.93177283333333, "bike_id": "9b95334806d1eadb326787c64185500c", "lat": 38.898839833333334, "fusion_lon": 0.0, "fusion_lat": 0.0, "type": "electric_scooter", "name": "9b95334806d1eadb326787c64185500c", "is_disabled": 0, "rental_uris": {"ios": "https://dc.lft.to/lastmile_qr_scan", "android": "https://dc.lft.to/lastmile_qr_scan"}, "is_reserved": 0}, {"lon": -77.00751, "bike_id": "19d550c35d61acfc50c70ae55aed00b2", "lat": 38.897800833333335, "fusion_lon": 0.0, "fusion_lat": 0.0, "type": "electric_bike", "name": "19d550c35d61acfc50c70ae55aed00b2", "is_disabled": 0, "rental_uris": {"ios": "https://dc.lft.to/lastmile_qr_scan", "android": "https://dc.lft.to/lastmile_qr_scan"}, "is_reserved": 0}, {"lon": -77.02080816666667, "bike_id": "a352a795399eaed649cde637e82cc3ad", "lat": 38.92713916666666, "fusion_lon": 0.0, "fusion_lat": 0.0, "type": "electric_scooter", "name": "a352a795399eaed649cde637e82cc3ad", "is_disabled": 0, "rental_uris": {"ios": "https://dc.lft.to/lastmile_qr_scan", "android": "https://dc.lft.to/lastmile_qr_scan"}, "is_reserved": 0}, {"lon": -77.01406383333334, "bike_id": "d14663b091180c58a1af9a190289bfec", "lat": 38.92844933333333, "fusion_lon": 0.0, "fusion_lat": 0.0, "type": "electric_scooter", "name": "d14663b091180c58a1af9a190289bfec", "is_disabled": 0, "rental_uris": {"ios": "https://dc.lft.to/lastmile_qr_scan", "android": "https://dc.lft.to/lastmile_qr_scan"}, "is_reserved": 0}, {"lon": -77.01231183333333, "bike_id": "6541bf0ad03a9d26cf173cb6d9dd281b", "lat": 38.90046866666667, "fusion_lon": 0.0, "fusion_lat": 0.0, "type": "electric_bike", "name": "6541bf0ad03a9d26cf173cb6d9dd281b", "is_disabled": 0, "rental_uris": {"ios": "https://dc.lft.to/lastmile_qr_scan", "android": "https://dc.lft.to/lastmile_qr_scan"}, "is_reserved": 0}, {"lon": -77.03079833333334, "bike_id": "e65bed12db988cedc37c5b48985742be", "lat": 38.935253, "fusion_lon": 0.0, "fusion_lat": 0.0, "type": "electric_scooter", "name": "e65bed12db988cedc37c5b48985742be", "is_disabled": 0, "rental_uris": {"ios": "https://dc.lft.to/lastmile_qr_scan", "android": "https://dc.lft.to/lastmile_qr_scan"}, "is_reserved": 0}, {"lon": -76.98709183333334, "bike_id": "a8c7af1d558b8a2bca55520ce21c4ed2", "lat": 38.86697916666667, "fusion_lon": 0.0, "fusion_lat": 0.0, "type": "electric_scooter", "name": "a8c7af1d558b8a2bca55520ce21c4ed2", "is_disabled": 0, "rental_uris": {"ios": "https://dc.lft.to/lastmile_qr_scan", "android": "https://dc.lft.to/lastmile_qr_scan"}, "is_reserved": 0}, {"lon": -77.02134566666666, "bike_id": "58fc5d240caa4031ee0c82805ab1eb1b", "lat": 38.894926833333336, "fusion_lon": 0.0, "fusion_lat": 0.0, "type": "electric_scooter", "name": "58fc5d240caa4031ee0c82805ab1eb1b", "is_disabled": 0, "rental_uris": {"ios": "https://dc.lft.to/lastmile_qr_scan", "android": "https://dc.lft.to/lastmile_qr_scan"}, "is_reserved": 0}, {"lon": -77.05486033333334, "bike_id": "a66afc38f01ea03c9064f68520f49295", "lat": 38.93550916666667, "fusion_lon": 0.0, "fusion_lat": 0.0, "type": "electric_scooter", "name": "a66afc38f01ea03c9064f68520f49295", "is_disabled": 0, "rental_uris": {"ios": "https://dc.lft.to/lastmile_qr_scan", "android": "https://dc.lft.to/lastmile_qr_scan"}, "is_reserved": 0}, {"lon": -77.0015765, "bike_id": "134a479fdf767c6c0777b3211f9a7223", "lat": 38.84283416666667, "fusion_lon": 0.0, "fusion_lat": 0.0, "type": "electric_scooter", "name": "134a479fdf767c6c0777b3211f9a7223", "is_disabled": 0, "rental_uris": {"ios": "https://dc.lft.to/lastmile_qr_scan", "android": "https://dc.lft.to/lastmile_qr_scan"}, "is_reserved": 0}, {"lon": -77.0320475, "bike_id": "465d814c311bfce65dde57a54964fbcd", "lat": 38.93876133333333, "fusion_lon": 0.0, "fusion_lat": 0.0, "type": "electric_scooter", "name": "465d814c311bfce65dde57a54964fbcd", "is_disabled": 0, "rental_uris": {"ios": "https://dc.lft.to/lastmile_qr_scan", "android": "https://dc.lft.to/lastmile_qr_scan"}, "is_reserved": 0}, {"lon": -77.03171933333333, "bike_id": "13d4b6936ee6130b50531a80cbab40ee", "lat": 38.884144666666664, "fusion_lon": 0.0, "fusion_lat": 0.0, "type": "electric_scooter", "name": "13d4b6936ee6130b50531a80cbab40ee", "is_disabled": 0, "rental_uris": {"ios": "https://dc.lft.to/lastmile_qr_scan", "android": "https://dc.lft.to/lastmile_qr_scan"}, "is_reserved": 0}, {"lon": -77.11705983333333, "bike_id": "e7528bdfc3e4ceef9acf3549e4f5d93e", "lat": 38.867428833333335, "fusion_lon": 0.0, "fusion_lat": 0.0, "type": "electric_bike", "name": "e7528bdfc3e4ceef9acf3549e4f5d93e", "is_disabled": 0, "rental_uris": {"ios": "https://dc.lft.to/lastmile_qr_scan", "android": "https://dc.lft.to/lastmile_qr_scan"}, "is_reserved": 0}, {"lon": -77.03219066666666, "bike_id": "59f795a0ca215160ce9ca90d1bbabbcb", "lat": 38.90740383333333, "fusion_lon": 0.0, "fusion_lat": 0.0, "type": "electric_scooter", "name": "59f795a0ca215160ce9ca90d1bbabbcb", "is_disabled": 0, "rental_uris": {"ios": "https://dc.lft.to/lastmile_qr_scan", "android": "https://dc.lft.to/lastmile_qr_scan"}, "is_reserved": 0}, {"lon": -77.04056683333333, "bike_id": "718e42aa505ee4b58bcd437869536552", "lat": 38.92881233333333, "fusion_lon": 0.0, "fusion_lat": 0.0, "type": "electric_scooter", "name": "718e42aa505ee4b58bcd437869536552", "is_disabled": 0, "rental_uris": {"ios": "https://dc.lft.to/lastmile_qr_scan", "android": "https://dc.lft.to/lastmile_qr_scan"}, "is_reserved": 0}, {"lon": -77.000473, "bike_id": "1926d8ba597a91b9a99ad0ce50257ac7", "lat": 38.92401616666667, "fusion_lon": 0.0, "fusion_lat": 0.0, "type": "electric_scooter", "name": "1926d8ba597a91b9a99ad0ce50257ac7", "is_disabled": 0, "rental_uris": {"ios": "https://dc.lft.to/lastmile_qr_scan", "android": "https://dc.lft.to/lastmile_qr_scan"}, "is_reserved": 0}, {"lon": -77.03021583333333, "bike_id": "97c5b7cf7a1aabc9147ae3a26aafaf98", "lat": 38.8844305, "fusion_lon": 0.0, "fusion_lat": 0.0, "type": "electric_scooter", "name": "97c5b7cf7a1aabc9147ae3a26aafaf98", "is_disabled": 0, "rental_uris": {"ios": "https://dc.lft.to/lastmile_qr_scan", "android": "https://dc.lft.to/lastmile_qr_scan"}, "is_reserved": 0}, {"lon": -77.02308066666667, "bike_id": "e2287762d7c3f528c3225c94530ef554", "lat": 38.89497183333334, "fusion_lon": 0.0, "fusion_lat": 0.0, "type": "electric_scooter", "name": "e2287762d7c3f528c3225c94530ef554", "is_disabled": 0, "rental_uris": {"ios": "https://dc.lft.to/lastmile_qr_scan", "android": "https://dc.lft.to/lastmile_qr_scan"}, "is_reserved": 0}, {"lon": -77.04652433333334, "bike_id": "877fe1bf458bbd911e2f3d7dc492bebc", "lat": 38.909626, "fusion_lon": 0.0, "fusion_lat": 0.0, "type": "electric_scooter", "name": "877fe1bf458bbd911e2f3d7dc492bebc", "is_disabled": 0, "rental_uris": {"ios": "https://dc.lft.to/lastmile_qr_scan", "android": "https://dc.lft.to/lastmile_qr_scan"}, "is_reserved": 0}, {"lon": -77.0297795, "bike_id": "aec5c9710f996b09ef92ce81424ea51d", "lat": 38.92274966666667, "fusion_lon": 0.0, "fusion_lat": 0.0, "type": "electric_scooter", "name": "aec5c9710f996b09ef92ce81424ea51d", "is_disabled": 0, "rental_uris": {"ios": "https://dc.lft.to/lastmile_qr_scan", "android": "https://dc.lft.to/lastmile_qr_scan"}, "is_reserved": 0}, {"lon": -76.99803766666666, "bike_id": "255906f13aeefbf230769a6b7604bb67", "lat": 38.82925016666667, "fusion_lon": 0.0, "fusion_lat": 0.0, "type": "electric_bike", "name": "255906f13aeefbf230769a6b7604bb67", "is_disabled": 0, "rental_uris": {"ios": "https://dc.lft.to/lastmile_qr_scan", "android": "https://dc.lft.to/lastmile_qr_scan"}, "is_reserved": 0}, {"lon": -76.95753616666667, "bike_id": "93d3d46d29ccccb273b9606f07f4e452", "lat": 38.884268666666664, "fusion_lon": 0.0, "fusion_lat": 0.0, "type": "electric_scooter", "name": "93d3d46d29ccccb273b9606f07f4e452", "is_disabled": 0, "rental_uris": {"ios": "https://dc.lft.to/lastmile_qr_scan", "android": "https://dc.lft.to/lastmile_qr_scan"}, "is_reserved": 0}, {"lon": -77.003396, "bike_id": "858c00cc7573d26115a262ef36c6c392", "lat": 38.89192, "fusion_lon": 0.0, "fusion_lat": 0.0, "type": "electric_scooter", "name": "858c00cc7573d26115a262ef36c6c392", "is_disabled": 0, "rental_uris": {"ios": "https://dc.lft.to/lastmile_qr_scan", "android": "https://dc.lft.to/lastmile_qr_scan"}, "is_reserved": 0}, {"lon": -76.9808155, "bike_id": "ceae86624c684eb3f03ae28327ad534d", "lat": 38.879334166666666, "fusion_lon": 0.0, "fusion_lat": 0.0, "type": "electric_bike", "name": "ceae86624c684eb3f03ae28327ad534d", "is_disabled": 0, "rental_uris": {"ios": "https://dc.lft.to/lastmile_qr_scan", "android": "https://dc.lft.to/lastmile_qr_scan"}, "is_reserved": 0}, {"lon": -77.02360616666667, "bike_id": "360002a972b32563a873c7a472bdec7d", "lat": 38.9222295, "fusion_lon": 0.0, "fusion_lat": 0.0, "type": "electric_scooter", "name": "360002a972b32563a873c7a472bdec7d", "is_disabled": 0, "rental_uris": {"ios": "https://dc.lft.to/lastmile_qr_scan", "android": "https://dc.lft.to/lastmile_qr_scan"}, "is_reserved": 0}, {"lon": -77.03657133333333, "bike_id": "a35562495895860eae9d90e120614047", "lat": 38.91742583333333, "fusion_lon": 0.0, "fusion_lat": 0.0, "type": "electric_scooter", "name": "a35562495895860eae9d90e120614047", "is_disabled": 0, "rental_uris": {"ios": "https://dc.lft.to/lastmile_qr_scan", "android": "https://dc.lft.to/lastmile_qr_scan"}, "is_reserved": 0}, {"lon": -77.00147333333334, "bike_id": "6866a082d913b182ed5b197c8439fcb6", "lat": 38.910751, "fusion_lon": 0.0, "fusion_lat": 0.0, "type": "electric_scooter", "name": "6866a082d913b182ed5b197c8439fcb6", "is_disabled": 0, "rental_uris": {"ios": "https://dc.lft.to/lastmile_qr_scan", "android": "https://dc.lft.to/lastmile_qr_scan"}, "is_reserved": 0}, {"lon": -76.985454, "bike_id": "d207e349d262bc307ac6bb19bddce215", "lat": 38.903156333333335, "fusion_lon": 0.0, "fusion_lat": 0.0, "type": "electric_scooter", "name": "d207e349d262bc307ac6bb19bddce215", "is_disabled": 0, "rental_uris": {"ios": "https://dc.lft.to/lastmile_qr_scan", "android": "https://dc.lft.to/lastmile_qr_scan"}, "is_reserved": 0}, {"lon": -77.03184983333334, "bike_id": "1bd0b359c7bbc72ded10096ff4723289", "lat": 38.897684166666664, "fusion_lon": 0.0, "fusion_lat": 0.0, "type": "electric_scooter", "name": "1bd0b359c7bbc72ded10096ff4723289", "is_disabled": 0, "rental_uris": {"ios": "https://dc.lft.to/lastmile_qr_scan", "android": "https://dc.lft.to/lastmile_qr_scan"}, "is_reserved": 0}, {"lon": -76.99497233333334, "bike_id": "349c4137341b54238e77ac9e9edd1cd7", "lat": 38.8624275, "fusion_lon": 0.0, "fusion_lat": 0.0, "type": "electric_scooter", "name": "349c4137341b54238e77ac9e9edd1cd7", "is_disabled": 0, "rental_uris": {"ios": "https://dc.lft.to/lastmile_qr_scan", "android": "https://dc.lft.to/lastmile_qr_scan"}, "is_reserved": 0}, {"lon": -77.01132166666666, "bike_id": "37e013236967c71ff2af4aa511748e45", "lat": 38.90726683333333, "fusion_lon": 0.0, "fusion_lat": 0.0, "type": "electric_scooter", "name": "37e013236967c71ff2af4aa511748e45", "is_disabled": 0, "rental_uris": {"ios": "https://dc.lft.to/lastmile_qr_scan", "android": "https://dc.lft.to/lastmile_qr_scan"}, "is_reserved": 0}, {"lon": -76.9276855, "bike_id": "5580866b006eb6ff0fa314e97771741f", "lat": 38.900859833333335, "fusion_lon": 0.0, "fusion_lat": 0.0, "type": "electric_scooter", "name": "5580866b006eb6ff0fa314e97771741f", "is_disabled": 0, "rental_uris": {"ios": "https://dc.lft.to/lastmile_qr_scan", "android": "https://dc.lft.to/lastmile_qr_scan"}, "is_reserved": 0}, {"lon": -77.0345725, "bike_id": "5f5997d03e8d0bd600ee780352e34149", "lat": 38.910103666666664, "fusion_lon": 0.0, "fusion_lat": 0.0, "type": "electric_scooter", "name": "5f5997d03e8d0bd600ee780352e34149", "is_disabled": 0, "rental_uris": {"ios": "https://dc.lft.to/lastmile_qr_scan", "android": "https://dc.lft.to/lastmile_qr_scan"}, "is_reserved": 0}, {"lon": -77.00192583333333, "bike_id": "d0dcd91740bedcf5404311b6f0264c22", "lat": 38.900403, "fusion_lon": 0.0, "fusion_lat": 0.0, "type": "electric_scooter", "name": "d0dcd91740bedcf5404311b6f0264c22", "is_disabled": 0, "rental_uris": {"ios": "https://dc.lft.to/lastmile_qr_scan", "android": "https://dc.lft.to/lastmile_qr_scan"}, "is_reserved": 0}, {"lon": -77.0492335, "bike_id": "e8cdfd9be2577da33a99d736f30f838a", "lat": 38.91178516666667, "fusion_lon": 0.0, "fusion_lat": 0.0, "type": "electric_bike", "name": "e8cdfd9be2577da33a99d736f30f838a", "is_disabled": 0, "rental_uris": {"ios": "https://dc.lft.to/lastmile_qr_scan", "android": "https://dc.lft.to/lastmile_qr_scan"}, "is_reserved": 0}, {"lon": -77.0437835, "bike_id": "1a4cb35f5f6eb5c8fc10b1c116614aa8", "lat": 38.886516, "fusion_lon": 0.0, "fusion_lat": 0.0, "type": "electric_scooter", "name": "1a4cb35f5f6eb5c8fc10b1c116614aa8", "is_disabled": 0, "rental_uris": {"ios": "https://dc.lft.to/lastmile_qr_scan", "android": "https://dc.lft.to/lastmile_qr_scan"}, "is_reserved": 0}, {"lon": -76.9888585, "bike_id": "82a8f86270be0492b582b8303ceb09e5", "lat": 38.866575, "fusion_lon": 0.0, "fusion_lat": 0.0, "type": "electric_scooter", "name": "82a8f86270be0492b582b8303ceb09e5", "is_disabled": 0, "rental_uris": {"ios": "https://dc.lft.to/lastmile_qr_scan", "android": "https://dc.lft.to/lastmile_qr_scan"}, "is_reserved": 0}, {"lon": -76.98717466666666, "bike_id": "c7c1fbfa9a8212885914bb6ebf0de349", "lat": 38.866263333333336, "fusion_lon": 0.0, "fusion_lat": 0.0, "type": "electric_scooter", "name": "c7c1fbfa9a8212885914bb6ebf0de349", "is_disabled": 0, "rental_uris": {"ios": "https://dc.lft.to/lastmile_qr_scan", "android": "https://dc.lft.to/lastmile_qr_scan"}, "is_reserved": 0}, {"lon": -76.994598, "bike_id": "81e57998865c052765a9c0b5ef993274", "lat": 38.94066933333333, "fusion_lon": 0.0, "fusion_lat": 0.0, "type": "electric_scooter", "name": "81e57998865c052765a9c0b5ef993274", "is_disabled": 0, "rental_uris": {"ios": "https://dc.lft.to/lastmile_qr_scan", "android": "https://dc.lft.to/lastmile_qr_scan"}, "is_reserved": 0}, {"lon": -77.0792875, "bike_id": "ef3db25d87aa67a165416872109830ca", "lat": 38.93122066666667, "fusion_lon": 0.0, "fusion_lat": 0.0, "type": "electric_scooter", "name": "ef3db25d87aa67a165416872109830ca", "is_disabled": 0, "rental_uris": {"ios": "https://dc.lft.to/lastmile_qr_scan", "android": "https://dc.lft.to/lastmile_qr_scan"}, "is_reserved": 0}, {"lon": -77.07127416666667, "bike_id": "d2758a8ebf5f6c875749f309332e6251", "lat": 38.91987266666667, "fusion_lon": 0.0, "fusion_lat": 0.0, "type": "electric_scooter", "name": "d2758a8ebf5f6c875749f309332e6251", "is_disabled": 0, "rental_uris": {"ios": "https://dc.lft.to/lastmile_qr_scan", "android": "https://dc.lft.to/lastmile_qr_scan"}, "is_reserved": 0}, {"lon": -77.03355, "bike_id": "4832432a20d9914182510339f3a9ebcd", "lat": 38.923453, "fusion_lon": 0.0, "fusion_lat": 0.0, "type": "electric_scooter", "name": "4832432a20d9914182510339f3a9ebcd", "is_disabled": 0, "rental_uris": {"ios": "https://dc.lft.to/lastmile_qr_scan", "android": "https://dc.lft.to/lastmile_qr_scan"}, "is_reserved": 0}, {"lon": -77.038107, "bike_id": "7a1339626c51c21a3dbd845743893408", "lat": 38.91697583333333, "fusion_lon": 0.0, "fusion_lat": 0.0, "type": "electric_scooter", "name": "7a1339626c51c21a3dbd845743893408", "is_disabled": 0, "rental_uris": {"ios": "https://dc.lft.to/lastmile_qr_scan", "android": "https://dc.lft.to/lastmile_qr_scan"}, "is_reserved": 0}, {"lon": -76.98862266666667, "bike_id": "12585e4e780280d0448e503d4af07913", "lat": 38.8917255, "fusion_lon": 0.0, "fusion_lat": 0.0, "type": "electric_scooter", "name": "12585e4e780280d0448e503d4af07913", "is_disabled": 0, "rental_uris": {"ios": "https://dc.lft.to/lastmile_qr_scan", "android": "https://dc.lft.to/lastmile_qr_scan"}, "is_reserved": 0}, {"lon": -77.04202083333334, "bike_id": "994d0455d2dc6b3b6544264c1f6ca21f", "lat": 38.921014, "fusion_lon": 0.0, "fusion_lat": 0.0, "type": "electric_scooter", "name": "994d0455d2dc6b3b6544264c1f6ca21f", "is_disabled": 0, "rental_uris": {"ios": "https://dc.lft.to/lastmile_qr_scan", "android": "https://dc.lft.to/lastmile_qr_scan"}, "is_reserved": 0}, {"lon": -77.01785583333333, "bike_id": "84d8bf461fb9f9565520c4c72a7e7b0f", "lat": 38.904063, "fusion_lon": 0.0, "fusion_lat": 0.0, "type": "electric_scooter", "name": "84d8bf461fb9f9565520c4c72a7e7b0f", "is_disabled": 0, "rental_uris": {"ios": "https://dc.lft.to/lastmile_qr_scan", "android": "https://dc.lft.to/lastmile_qr_scan"}, "is_reserved": 0}, {"lon": -77.02446, "bike_id": "2ab9ab75619de80427097fa0548a3c99", "lat": 38.925047, "fusion_lon": 0.0, "fusion_lat": 0.0, "type": "electric_scooter", "name": "2ab9ab75619de80427097fa0548a3c99", "is_disabled": 0, "rental_uris": {"ios": "https://dc.lft.to/lastmile_qr_scan", "android": "https://dc.lft.to/lastmile_qr_scan"}, "is_reserved": 0}, {"lon": -77.04251033333334, "bike_id": "5ca7f13b724e8a6cc34fefb8b8b07c75", "lat": 38.90959133333333, "fusion_lon": 0.0, "fusion_lat": 0.0, "type": "electric_scooter", "name": "5ca7f13b724e8a6cc34fefb8b8b07c75", "is_disabled": 0, "rental_uris": {"ios": "https://dc.lft.to/lastmile_qr_scan", "android": "https://dc.lft.to/lastmile_qr_scan"}, "is_reserved": 0}, {"lon": -76.98798033333334, "bike_id": "56d8610ce6b5914e3cfc7654ef798980", "lat": 38.867291333333334, "fusion_lon": 0.0, "fusion_lat": 0.0, "type": "electric_scooter", "name": "56d8610ce6b5914e3cfc7654ef798980", "is_disabled": 0, "rental_uris": {"ios": "https://dc.lft.to/lastmile_qr_scan", "android": "https://dc.lft.to/lastmile_qr_scan"}, "is_reserved": 0}, {"lon": -77.041051, "bike_id": "619ffa375a73fb08a310a6f344c2b8f4", "lat": 38.908978, "fusion_lon": 0.0, "fusion_lat": 0.0, "type": "electric_scooter", "name": "619ffa375a73fb08a310a6f344c2b8f4", "is_disabled": 0, "rental_uris": {"ios": "https://dc.lft.to/lastmile_qr_scan", "android": "https://dc.lft.to/lastmile_qr_scan"}, "is_reserved": 0}, {"lon": -77.0168475, "bike_id": "26aa55778be4046cfdb035e40db14c09", "lat": 38.902398166666664, "fusion_lon": 0.0, "fusion_lat": 0.0, "type": "electric_scooter", "name": "26aa55778be4046cfdb035e40db14c09", "is_disabled": 0, "rental_uris": {"ios": "https://dc.lft.to/lastmile_qr_scan", "android": "https://dc.lft.to/lastmile_qr_scan"}, "is_reserved": 0}, {"lon": -77.03829983333334, "bike_id": "f967c21f4a2b701286537ccb177464fa", "lat": 38.90675433333333, "fusion_lon": 0.0, "fusion_lat": 0.0, "type": "electric_scooter", "name": "f967c21f4a2b701286537ccb177464fa", "is_disabled": 0, "rental_uris": {"ios": "https://dc.lft.to/lastmile_qr_scan", "android": "https://dc.lft.to/lastmile_qr_scan"}, "is_reserved": 0}, {"lon": -77.04332066666667, "bike_id": "32cd53d8a7b6cfbfefb67fbf7e3a1ad4", "lat": 38.90733783333334, "fusion_lon": 0.0, "fusion_lat": 0.0, "type": "electric_scooter", "name": "32cd53d8a7b6cfbfefb67fbf7e3a1ad4", "is_disabled": 0, "rental_uris": {"ios": "https://dc.lft.to/lastmile_qr_scan", "android": "https://dc.lft.to/lastmile_qr_scan"}, "is_reserved": 0}, {"lon": -77.02417016666666, "bike_id": "1c2ca1e66b87be5bbf5ff3123d304bd5", "lat": 38.892316, "fusion_lon": 0.0, "fusion_lat": 0.0, "type": "electric_scooter", "name": "1c2ca1e66b87be5bbf5ff3123d304bd5", "is_disabled": 0, "rental_uris": {"ios": "https://dc.lft.to/lastmile_qr_scan", "android": "https://dc.lft.to/lastmile_qr_scan"}, "is_reserved": 0}, {"lon": -77.03108633333333, "bike_id": "0e31a0aa2ddd891061e92d816818caad", "lat": 38.9155755, "fusion_lon": 0.0, "fusion_lat": 0.0, "type": "electric_scooter", "name": "0e31a0aa2ddd891061e92d816818caad", "is_disabled": 0, "rental_uris": {"ios": "https://dc.lft.to/lastmile_qr_scan", "android": "https://dc.lft.to/lastmile_qr_scan"}, "is_reserved": 0}, {"lon": -76.976718, "bike_id": "04d187372f03bb74744e359ecbd2d926", "lat": 38.952478666666664, "fusion_lon": 0.0, "fusion_lat": 0.0, "type": "electric_bike", "name": "04d187372f03bb74744e359ecbd2d926", "is_disabled": 0, "rental_uris": {"ios": "https://dc.lft.to/lastmile_qr_scan", "android": "https://dc.lft.to/lastmile_qr_scan"}, "is_reserved": 0}, {"lon": -77.053476, "bike_id": "ad99aa523c85139bbcf9414236934be9", "lat": 38.92337883333333, "fusion_lon": 0.0, "fusion_lat": 0.0, "type": "electric_scooter", "name": "ad99aa523c85139bbcf9414236934be9", "is_disabled": 0, "rental_uris": {"ios": "https://dc.lft.to/lastmile_qr_scan", "android": "https://dc.lft.to/lastmile_qr_scan"}, "is_reserved": 0}, {"lon": -76.981615, "bike_id": "81b7ff800724fc5a23ef0290f5d830be", "lat": 38.90325383333333, "fusion_lon": 0.0, "fusion_lat": 0.0, "type": "electric_scooter", "name": "81b7ff800724fc5a23ef0290f5d830be", "is_disabled": 0, "rental_uris": {"ios": "https://dc.lft.to/lastmile_qr_scan", "android": "https://dc.lft.to/lastmile_qr_scan"}, "is_reserved": 0}, {"lon": -77.043789, "bike_id": "b2f17cef4680b6f2335d2d65b57e46b8", "lat": 38.920702, "fusion_lon": 0.0, "fusion_lat": 0.0, "type": "electric_scooter", "name": "b2f17cef4680b6f2335d2d65b57e46b8", "is_disabled": 0, "rental_uris": {"ios": "https://dc.lft.to/lastmile_qr_scan", "android": "https://dc.lft.to/lastmile_qr_scan"}, "is_reserved": 0}, {"lon": -77.0049795, "bike_id": "f57ab895ee06e17b74b5d76ab031f45d", "lat": 38.905724, "fusion_lon": 0.0, "fusion_lat": 0.0, "type": "electric_scooter", "name": "f57ab895ee06e17b74b5d76ab031f45d", "is_disabled": 0, "rental_uris": {"ios": "https://dc.lft.to/lastmile_qr_scan", "android": "https://dc.lft.to/lastmile_qr_scan"}, "is_reserved": 0}, {"lon": -77.01661983333334, "bike_id": "7c44d48d89244be221eba96040ed5f9d", "lat": 38.9289725, "fusion_lon": 0.0, "fusion_lat": 0.0, "type": "electric_scooter", "name": "7c44d48d89244be221eba96040ed5f9d", "is_disabled": 0, "rental_uris": {"ios": "https://dc.lft.to/lastmile_qr_scan", "android": "https://dc.lft.to/lastmile_qr_scan"}, "is_reserved": 0}, {"lon": -77.0219595, "bike_id": "fdb88ad7584c02b79fec8ef1805ed0cc", "lat": 38.901932, "fusion_lon": 0.0, "fusion_lat": 0.0, "type": "electric_scooter", "name": "fdb88ad7584c02b79fec8ef1805ed0cc", "is_disabled": 0, "rental_uris": {"ios": "https://dc.lft.to/lastmile_qr_scan", "android": "https://dc.lft.to/lastmile_qr_scan"}, "is_reserved": 0}, {"lon": -77.02792666666667, "bike_id": "8e36e8fa2110c8bed3af822dd1996779", "lat": 38.930137, "fusion_lon": 0.0, "fusion_lat": 0.0, "type": "electric_scooter", "name": "8e36e8fa2110c8bed3af822dd1996779", "is_disabled": 0, "rental_uris": {"ios": "https://dc.lft.to/lastmile_qr_scan", "android": "https://dc.lft.to/lastmile_qr_scan"}, "is_reserved": 0}, {"lon": -77.0398235, "bike_id": "a8a8632d38fcbf20c198580ac8ac0b3e", "lat": 38.905938166666665, "fusion_lon": 0.0, "fusion_lat": 0.0, "type": "electric_scooter", "name": "a8a8632d38fcbf20c198580ac8ac0b3e", "is_disabled": 0, "rental_uris": {"ios": "https://dc.lft.to/lastmile_qr_scan", "android": "https://dc.lft.to/lastmile_qr_scan"}, "is_reserved": 0}, {"lon": -77.0637265, "bike_id": "7b6bcda573e75fb1c3f41bc5418426f1", "lat": 38.944752, "fusion_lon": 0.0, "fusion_lat": 0.0, "type": "electric_scooter", "name": "7b6bcda573e75fb1c3f41bc5418426f1", "is_disabled": 0, "rental_uris": {"ios": "https://dc.lft.to/lastmile_qr_scan", "android": "https://dc.lft.to/lastmile_qr_scan"}, "is_reserved": 0}, {"lon": -77.07764116666667, "bike_id": "c7d247614199a5a35c4a2dadfadf886b", "lat": 38.92556233333333, "fusion_lon": 0.0, "fusion_lat": 0.0, "type": "electric_scooter", "name": "c7d247614199a5a35c4a2dadfadf886b", "is_disabled": 0, "rental_uris": {"ios": "https://dc.lft.to/lastmile_qr_scan", "android": "https://dc.lft.to/lastmile_qr_scan"}, "is_reserved": 0}, {"lon": -77.0416075, "bike_id": "050eb655f83b8a27132ffd06bcd7cf99", "lat": 38.9124865, "fusion_lon": 0.0, "fusion_lat": 0.0, "type": "electric_scooter", "name": "050eb655f83b8a27132ffd06bcd7cf99", "is_disabled": 0, "rental_uris": {"ios": "https://dc.lft.to/lastmile_qr_scan", "android": "https://dc.lft.to/lastmile_qr_scan"}, "is_reserved": 0}, {"lon": -77.03346783333333, "bike_id": "98379aa08d98ef3c8ad4df8669ed055a", "lat": 38.8990135, "fusion_lon": 0.0, "fusion_lat": 0.0, "type": "electric_scooter", "name": "98379aa08d98ef3c8ad4df8669ed055a", "is_disabled": 0, "rental_uris": {"ios": "https://dc.lft.to/lastmile_qr_scan", "android": "https://dc.lft.to/lastmile_qr_scan"}, "is_reserved": 0}, {"lon": -77.024999, "bike_id": "3e5d5ff2e874e1290e0d7fa6290bc214", "lat": 38.930975333333336, "fusion_lon": 0.0, "fusion_lat": 0.0, "type": "electric_scooter", "name": "3e5d5ff2e874e1290e0d7fa6290bc214", "is_disabled": 0, "rental_uris": {"ios": "https://dc.lft.to/lastmile_qr_scan", "android": "https://dc.lft.to/lastmile_qr_scan"}, "is_reserved": 0}, {"lon": -76.93733116666667, "bike_id": "557913bc18f60547df7195e00a3b59fc", "lat": 38.89023816666667, "fusion_lon": 0.0, "fusion_lat": 0.0, "type": "electric_scooter", "name": "557913bc18f60547df7195e00a3b59fc", "is_disabled": 0, "rental_uris": {"ios": "https://dc.lft.to/lastmile_qr_scan", "android": "https://dc.lft.to/lastmile_qr_scan"}, "is_reserved": 0}, {"lon": -77.02201966666667, "bike_id": "5bca55cbf6b764ac90370bee769c75ce", "lat": 38.911365833333335, "fusion_lon": 0.0, "fusion_lat": 0.0, "type": "electric_scooter", "name": "5bca55cbf6b764ac90370bee769c75ce", "is_disabled": 0, "rental_uris": {"ios": "https://dc.lft.to/lastmile_qr_scan", "android": "https://dc.lft.to/lastmile_qr_scan"}, "is_reserved": 0}, {"lon": -77.04422883333334, "bike_id": "752581cba44c51bd31d40afab0a52ab6", "lat": 38.92120633333333, "fusion_lon": 0.0, "fusion_lat": 0.0, "type": "electric_scooter", "name": "752581cba44c51bd31d40afab0a52ab6", "is_disabled": 0, "rental_uris": {"ios": "https://dc.lft.to/lastmile_qr_scan", "android": "https://dc.lft.to/lastmile_qr_scan"}, "is_reserved": 0}, {"lon": -76.9953145, "bike_id": "22f725af7b227bfe915df365788e958f", "lat": 38.8837, "fusion_lon": 0.0, "fusion_lat": 0.0, "type": "electric_scooter", "name": "22f725af7b227bfe915df365788e958f", "is_disabled": 0, "rental_uris": {"ios": "https://dc.lft.to/lastmile_qr_scan", "android": "https://dc.lft.to/lastmile_qr_scan"}, "is_reserved": 0}, {"lon": -77.042248, "bike_id": "5e5419710147c8f3c788f5abc38091d4", "lat": 38.9169925, "fusion_lon": 0.0, "fusion_lat": 0.0, "type": "electric_scooter", "name": "5e5419710147c8f3c788f5abc38091d4", "is_disabled": 0, "rental_uris": {"ios": "https://dc.lft.to/lastmile_qr_scan", "android": "https://dc.lft.to/lastmile_qr_scan"}, "is_reserved": 0}, {"lon": -77.019014, "bike_id": "51771633c009fe7810c44718fac9f596", "lat": 38.8864135, "fusion_lon": 0.0, "fusion_lat": 0.0, "type": "electric_scooter", "name": "51771633c009fe7810c44718fac9f596", "is_disabled": 0, "rental_uris": {"ios": "https://dc.lft.to/lastmile_qr_scan", "android": "https://dc.lft.to/lastmile_qr_scan"}, "is_reserved": 0}, {"lon": -77.02622666666667, "bike_id": "a98ba7cc09527cc77a7084ede1cf9c01", "lat": 38.9622085, "fusion_lon": 0.0, "fusion_lat": 0.0, "type": "electric_bike", "name": "a98ba7cc09527cc77a7084ede1cf9c01", "is_disabled": 0, "rental_uris": {"ios": "https://dc.lft.to/lastmile_qr_scan", "android": "https://dc.lft.to/lastmile_qr_scan"}, "is_reserved": 0}, {"lon": -77.00998683333333, "bike_id": "7a8c840002980ba2d6317a7a773a5e39", "lat": 38.894752833333335, "fusion_lon": 0.0, "fusion_lat": 0.0, "type": "electric_scooter", "name": "7a8c840002980ba2d6317a7a773a5e39", "is_disabled": 0, "rental_uris": {"ios": "https://dc.lft.to/lastmile_qr_scan", "android": "https://dc.lft.to/lastmile_qr_scan"}, "is_reserved": 0}, {"lon": -77.02530133333333, "bike_id": "0c1beefea67606b0f8baac8fb3dc1b53", "lat": 38.927407, "fusion_lon": 0.0, "fusion_lat": 0.0, "type": "electric_scooter", "name": "0c1beefea67606b0f8baac8fb3dc1b53", "is_disabled": 0, "rental_uris": {"ios": "https://dc.lft.to/lastmile_qr_scan", "android": "https://dc.lft.to/lastmile_qr_scan"}, "is_reserved": 0}, {"lon": -77.03850233333333, "bike_id": "fcd7d0285c12456c698b8584373e40c5", "lat": 38.91162933333333, "fusion_lon": 0.0, "fusion_lat": 0.0, "type": "electric_scooter", "name": "fcd7d0285c12456c698b8584373e40c5", "is_disabled": 0, "rental_uris": {"ios": "https://dc.lft.to/lastmile_qr_scan", "android": "https://dc.lft.to/lastmile_qr_scan"}, "is_reserved": 0}, {"lon": -77.055992, "bike_id": "06c5e563e75a4686d41ea41942d7ce55", "lat": 38.93703133333333, "fusion_lon": 0.0, "fusion_lat": 0.0, "type": "electric_scooter", "name": "06c5e563e75a4686d41ea41942d7ce55", "is_disabled": 0, "rental_uris": {"ios": "https://dc.lft.to/lastmile_qr_scan", "android": "https://dc.lft.to/lastmile_qr_scan"}, "is_reserved": 0}, {"lon": -76.932783, "bike_id": "1205e5e525a36d847728bbb7fe15b306", "lat": 38.95424333333333, "fusion_lon": 0.0, "fusion_lat": 0.0, "type": "electric_bike", "name": "1205e5e525a36d847728bbb7fe15b306", "is_disabled": 0, "rental_uris": {"ios": "https://dc.lft.to/lastmile_qr_scan", "android": "https://dc.lft.to/lastmile_qr_scan"}, "is_reserved": 0}, {"lon": -77.02298483333334, "bike_id": "7fd17c31c098778f0c72d618fade470a", "lat": 38.916808833333334, "fusion_lon": 0.0, "fusion_lat": 0.0, "type": "electric_scooter", "name": "7fd17c31c098778f0c72d618fade470a", "is_disabled": 0, "rental_uris": {"ios": "https://dc.lft.to/lastmile_qr_scan", "android": "https://dc.lft.to/lastmile_qr_scan"}, "is_reserved": 0}, {"lon": -77.03631066666667, "bike_id": "40b18772b16f77026e1717191409e1f4", "lat": 38.9155855, "fusion_lon": 0.0, "fusion_lat": 0.0, "type": "electric_scooter", "name": "40b18772b16f77026e1717191409e1f4", "is_disabled": 0, "rental_uris": {"ios": "https://dc.lft.to/lastmile_qr_scan", "android": "https://dc.lft.to/lastmile_qr_scan"}, "is_reserved": 0}, {"lon": -77.01648233333333, "bike_id": "c616e478fba126d689283e6e8ade1aa3", "lat": 38.899809833333336, "fusion_lon": 0.0, "fusion_lat": 0.0, "type": "electric_scooter", "name": "c616e478fba126d689283e6e8ade1aa3", "is_disabled": 0, "rental_uris": {"ios": "https://dc.lft.to/lastmile_qr_scan", "android": "https://dc.lft.to/lastmile_qr_scan"}, "is_reserved": 0}, {"lon": -77.0295685, "bike_id": "b83294bee3695ea4243345a90de68cc8", "lat": 38.8965075, "fusion_lon": 0.0, "fusion_lat": 0.0, "type": "electric_scooter", "name": "b83294bee3695ea4243345a90de68cc8", "is_disabled": 0, "rental_uris": {"ios": "https://dc.lft.to/lastmile_qr_scan", "android": "https://dc.lft.to/lastmile_qr_scan"}, "is_reserved": 0}, {"lon": -77.0012845, "bike_id": "c8726a74d63340fffd55f43d724f3570", "lat": 38.87825733333333, "fusion_lon": 0.0, "fusion_lat": 0.0, "type": "electric_scooter", "name": "c8726a74d63340fffd55f43d724f3570", "is_disabled": 0, "rental_uris": {"ios": "https://dc.lft.to/lastmile_qr_scan", "android": "https://dc.lft.to/lastmile_qr_scan"}, "is_reserved": 0}, {"lon": -77.005383, "bike_id": "d68b67240bb615a147e9635e939f7139", "lat": 38.875455, "fusion_lon": 0.0, "fusion_lat": 0.0, "type": "electric_scooter", "name": "d68b67240bb615a147e9635e939f7139", "is_disabled": 0, "rental_uris": {"ios": "https://dc.lft.to/lastmile_qr_scan", "android": "https://dc.lft.to/lastmile_qr_scan"}, "is_reserved": 0}, {"lon": -77.03500283333334, "bike_id": "055559de5d91a26283baa640a7d625d3", "lat": 38.91184833333333, "fusion_lon": 0.0, "fusion_lat": 0.0, "type": "electric_scooter", "name": "055559de5d91a26283baa640a7d625d3", "is_disabled": 0, "rental_uris": {"ios": "https://dc.lft.to/lastmile_qr_scan", "android": "https://dc.lft.to/lastmile_qr_scan"}, "is_reserved": 0}, {"lon": -77.02383233333333, "bike_id": "643b14d5c2a9ebb65c00611f0786f887", "lat": 38.90620416666667, "fusion_lon": 0.0, "fusion_lat": 0.0, "type": "electric_scooter", "name": "643b14d5c2a9ebb65c00611f0786f887", "is_disabled": 0, "rental_uris": {"ios": "https://dc.lft.to/lastmile_qr_scan", "android": "https://dc.lft.to/lastmile_qr_scan"}, "is_reserved": 0}, {"lon": -77.0450245, "bike_id": "3e8c702dd45b6a31ba4052855af29d1a", "lat": 38.91111883333333, "fusion_lon": 0.0, "fusion_lat": 0.0, "type": "electric_scooter", "name": "3e8c702dd45b6a31ba4052855af29d1a", "is_disabled": 0, "rental_uris": {"ios": "https://dc.lft.to/lastmile_qr_scan", "android": "https://dc.lft.to/lastmile_qr_scan"}, "is_reserved": 0}, {"lon": -77.02091416666667, "bike_id": "edd0fa595e64c37737813f22a31af8db", "lat": 38.929173166666665, "fusion_lon": 0.0, "fusion_lat": 0.0, "type": "electric_scooter", "name": "edd0fa595e64c37737813f22a31af8db", "is_disabled": 0, "rental_uris": {"ios": "https://dc.lft.to/lastmile_qr_scan", "android": "https://dc.lft.to/lastmile_qr_scan"}, "is_reserved": 0}, {"lon": -77.03277433333334, "bike_id": "1d45c46924fd2c672b32a173bd591504", "lat": 38.92864766666667, "fusion_lon": 0.0, "fusion_lat": 0.0, "type": "electric_scooter", "name": "1d45c46924fd2c672b32a173bd591504", "is_disabled": 0, "rental_uris": {"ios": "https://dc.lft.to/lastmile_qr_scan", "android": "https://dc.lft.to/lastmile_qr_scan"}, "is_reserved": 0}, {"lon": -77.0319955, "bike_id": "c4e58e79bccfe8e843eb60dd4248f540", "lat": 38.915671, "fusion_lon": 0.0, "fusion_lat": 0.0, "type": "electric_scooter", "name": "c4e58e79bccfe8e843eb60dd4248f540", "is_disabled": 0, "rental_uris": {"ios": "https://dc.lft.to/lastmile_qr_scan", "android": "https://dc.lft.to/lastmile_qr_scan"}, "is_reserved": 0}, {"lon": -77.0612185, "bike_id": "44973dd7d09bdffd400fa9af38923319", "lat": 38.904805333333336, "fusion_lon": 0.0, "fusion_lat": 0.0, "type": "electric_scooter", "name": "44973dd7d09bdffd400fa9af38923319", "is_disabled": 0, "rental_uris": {"ios": "https://dc.lft.to/lastmile_qr_scan", "android": "https://dc.lft.to/lastmile_qr_scan"}, "is_reserved": 0}, {"lon": -77.03210566666667, "bike_id": "3f6f064d22aa08722e74f9deb6218e82", "lat": 38.936186166666666, "fusion_lon": 0.0, "fusion_lat": 0.0, "type": "electric_scooter", "name": "3f6f064d22aa08722e74f9deb6218e82", "is_disabled": 0, "rental_uris": {"ios": "https://dc.lft.to/lastmile_qr_scan", "android": "https://dc.lft.to/lastmile_qr_scan"}, "is_reserved": 0}, {"lon": -77.0065655, "bike_id": "782b9b91a5f0256a23c2354d1c858125", "lat": 38.9446255, "fusion_lon": 0.0, "fusion_lat": 0.0, "type": "electric_scooter", "name": "782b9b91a5f0256a23c2354d1c858125", "is_disabled": 0, "rental_uris": {"ios": "https://dc.lft.to/lastmile_qr_scan", "android": "https://dc.lft.to/lastmile_qr_scan"}, "is_reserved": 0}, {"lon": -77.031745, "bike_id": "03294b4810c980cb58f76f0b13fc42ba", "lat": 38.936088, "fusion_lon": 0.0, "fusion_lat": 0.0, "type": "electric_scooter", "name": "03294b4810c980cb58f76f0b13fc42ba", "is_disabled": 0, "rental_uris": {"ios": "https://dc.lft.to/lastmile_qr_scan", "android": "https://dc.lft.to/lastmile_qr_scan"}, "is_reserved": 0}, {"lon": -77.034449, "bike_id": "c1c76b8863f3067b3550dff15ae421e1", "lat": 38.91012666666666, "fusion_lon": 0.0, "fusion_lat": 0.0, "type": "electric_scooter", "name": "c1c76b8863f3067b3550dff15ae421e1", "is_disabled": 0, "rental_uris": {"ios": "https://dc.lft.to/lastmile_qr_scan", "android": "https://dc.lft.to/lastmile_qr_scan"}, "is_reserved": 0}, {"lon": -76.97730033333333, "bike_id": "9606d66717961a46e5a1eab0cf72b7d8", "lat": 38.8648585, "fusion_lon": 0.0, "fusion_lat": 0.0, "type": "electric_bike", "name": "9606d66717961a46e5a1eab0cf72b7d8", "is_disabled": 0, "rental_uris": {"ios": "https://dc.lft.to/lastmile_qr_scan", "android": "https://dc.lft.to/lastmile_qr_scan"}, "is_reserved": 0}, {"lon": -77.18559866666666, "bike_id": "0a18a72d05b5e983cadc12a9b8fee741", "lat": 39.099765, "fusion_lon": 0.0, "fusion_lat": 0.0, "type": "electric_bike", "name": "0a18a72d05b5e983cadc12a9b8fee741", "is_disabled": 0, "rental_uris": {"ios": "https://dc.lft.to/lastmile_qr_scan", "android": "https://dc.lft.to/lastmile_qr_scan"}, "is_reserved": 0}, {"lon": -76.9625935, "bike_id": "2620dc18f4990782db93c4b1fc02b1e2", "lat": 38.88245, "fusion_lon": 0.0, "fusion_lat": 0.0, "type": "electric_bike", "name": "2620dc18f4990782db93c4b1fc02b1e2", "is_disabled": 0, "rental_uris": {"ios": "https://dc.lft.to/lastmile_qr_scan", "android": "https://dc.lft.to/lastmile_qr_scan"}, "is_reserved": 0}, {"lon": -77.02398766666667, "bike_id": "d21d61dd4b216dcb3e3a9a96b5f881f2", "lat": 38.9199345, "fusion_lon": 0.0, "fusion_lat": 0.0, "type": "electric_scooter", "name": "d21d61dd4b216dcb3e3a9a96b5f881f2", "is_disabled": 0, "rental_uris": {"ios": "https://dc.lft.to/lastmile_qr_scan", "android": "https://dc.lft.to/lastmile_qr_scan"}, "is_reserved": 0}, {"lon": -77.00745516666667, "bike_id": "4d112f25da5f5ef240c7b8a1ac43fffb", "lat": 38.87096866666667, "fusion_lon": 0.0, "fusion_lat": 0.0, "type": "electric_scooter", "name": "4d112f25da5f5ef240c7b8a1ac43fffb", "is_disabled": 0, "rental_uris": {"ios": "https://dc.lft.to/lastmile_qr_scan", "android": "https://dc.lft.to/lastmile_qr_scan"}, "is_reserved": 0}, {"lon": -77.03850416666667, "bike_id": "959c27ae1f39563c57f5f19bf0c3501b", "lat": 38.91174083333333, "fusion_lon": 0.0, "fusion_lat": 0.0, "type": "electric_scooter", "name": "959c27ae1f39563c57f5f19bf0c3501b", "is_disabled": 0, "rental_uris": {"ios": "https://dc.lft.to/lastmile_qr_scan", "android": "https://dc.lft.to/lastmile_qr_scan"}, "is_reserved": 0}, {"lon": -76.96530816666667, "bike_id": "ce919cea3b6eced54a936b1bd4d12c65", "lat": 38.87484083333333, "fusion_lon": 0.0, "fusion_lat": 0.0, "type": "electric_scooter", "name": "ce919cea3b6eced54a936b1bd4d12c65", "is_disabled": 0, "rental_uris": {"ios": "https://dc.lft.to/lastmile_qr_scan", "android": "https://dc.lft.to/lastmile_qr_scan"}, "is_reserved": 0}, {"lon": -77.033389, "bike_id": "f4ae280f75b7eb4b4046df1541cee522", "lat": 38.898292, "fusion_lon": 0.0, "fusion_lat": 0.0, "type": "electric_scooter", "name": "f4ae280f75b7eb4b4046df1541cee522", "is_disabled": 0, "rental_uris": {"ios": "https://dc.lft.to/lastmile_qr_scan", "android": "https://dc.lft.to/lastmile_qr_scan"}, "is_reserved": 0}, {"lon": -77.03272483333333, "bike_id": "b9b8ca66fcae7376e8759b70d0716ef6", "lat": 38.929044, "fusion_lon": 0.0, "fusion_lat": 0.0, "type": "electric_scooter", "name": "b9b8ca66fcae7376e8759b70d0716ef6", "is_disabled": 0, "rental_uris": {"ios": "https://dc.lft.to/lastmile_qr_scan", "android": "https://dc.lft.to/lastmile_qr_scan"}, "is_reserved": 0}, {"lon": -77.02563483333333, "bike_id": "16d99d7f176e32ee8fa633e2d9f145f2", "lat": 38.93354766666667, "fusion_lon": 0.0, "fusion_lat": 0.0, "type": "electric_scooter", "name": "16d99d7f176e32ee8fa633e2d9f145f2", "is_disabled": 0, "rental_uris": {"ios": "https://dc.lft.to/lastmile_qr_scan", "android": "https://dc.lft.to/lastmile_qr_scan"}, "is_reserved": 0}, {"lon": -77.02116066666666, "bike_id": "92748a96522f2f949dadb7595d14862c", "lat": 38.89517416666666, "fusion_lon": 0.0, "fusion_lat": 0.0, "type": "electric_scooter", "name": "92748a96522f2f949dadb7595d14862c", "is_disabled": 0, "rental_uris": {"ios": "https://dc.lft.to/lastmile_qr_scan", "android": "https://dc.lft.to/lastmile_qr_scan"}, "is_reserved": 0}, {"lon": -76.94633183333333, "bike_id": "f2461761527addabb1257f85a0ce2ef0", "lat": 38.898337166666664, "fusion_lon": 0.0, "fusion_lat": 0.0, "type": "electric_scooter", "name": "f2461761527addabb1257f85a0ce2ef0", "is_disabled": 0, "rental_uris": {"ios": "https://dc.lft.to/lastmile_qr_scan", "android": "https://dc.lft.to/lastmile_qr_scan"}, "is_reserved": 0}, {"lon": -77.072229, "bike_id": "48108d239dc066f451906ffb5709d4cb", "lat": 38.92262366666667, "fusion_lon": 0.0, "fusion_lat": 0.0, "type": "electric_scooter", "name": "48108d239dc066f451906ffb5709d4cb", "is_disabled": 0, "rental_uris": {"ios": "https://dc.lft.to/lastmile_qr_scan", "android": "https://dc.lft.to/lastmile_qr_scan"}, "is_reserved": 0}, {"lon": -77.02436383333334, "bike_id": "f6fe7427dfb3fa01631ed96f94f780e5", "lat": 38.92039483333333, "fusion_lon": 0.0, "fusion_lat": 0.0, "type": "electric_scooter", "name": "f6fe7427dfb3fa01631ed96f94f780e5", "is_disabled": 0, "rental_uris": {"ios": "https://dc.lft.to/lastmile_qr_scan", "android": "https://dc.lft.to/lastmile_qr_scan"}, "is_reserved": 0}, {"lon": -77.02244083333333, "bike_id": "3801a558b3f6050d90485f9b7b4008a6", "lat": 38.92895166666667, "fusion_lon": 0.0, "fusion_lat": 0.0, "type": "electric_scooter", "name": "3801a558b3f6050d90485f9b7b4008a6", "is_disabled": 0, "rental_uris": {"ios": "https://dc.lft.to/lastmile_qr_scan", "android": "https://dc.lft.to/lastmile_qr_scan"}, "is_reserved": 0}, {"lon": -76.99201116666667, "bike_id": "ba8313106b4d9b8244ab75b831f01258", "lat": 38.8982805, "fusion_lon": 0.0, "fusion_lat": 0.0, "type": "electric_scooter", "name": "ba8313106b4d9b8244ab75b831f01258", "is_disabled": 0, "rental_uris": {"ios": "https://dc.lft.to/lastmile_qr_scan", "android": "https://dc.lft.to/lastmile_qr_scan"}, "is_reserved": 0}, {"lon": -76.98086466666666, "bike_id": "9791e6de711d97c39bc78ca370afba6b", "lat": 38.907082833333334, "fusion_lon": 0.0, "fusion_lat": 0.0, "type": "electric_scooter", "name": "9791e6de711d97c39bc78ca370afba6b", "is_disabled": 0, "rental_uris": {"ios": "https://dc.lft.to/lastmile_qr_scan", "android": "https://dc.lft.to/lastmile_qr_scan"}, "is_reserved": 0}, {"lon": -77.03178933333334, "bike_id": "5b1649ee432a16ba57644ac31dd41786", "lat": 38.899591, "fusion_lon": 0.0, "fusion_lat": 0.0, "type": "electric_scooter", "name": "5b1649ee432a16ba57644ac31dd41786", "is_disabled": 0, "rental_uris": {"ios": "https://dc.lft.to/lastmile_qr_scan", "android": "https://dc.lft.to/lastmile_qr_scan"}, "is_reserved": 0}, {"lon": -77.052388, "bike_id": "c98f71b0f9337919499e14d65b7fcba5", "lat": 38.923426, "fusion_lon": 0.0, "fusion_lat": 0.0, "type": "electric_scooter", "name": "c98f71b0f9337919499e14d65b7fcba5", "is_disabled": 0, "rental_uris": {"ios": "https://dc.lft.to/lastmile_qr_scan", "android": "https://dc.lft.to/lastmile_qr_scan"}, "is_reserved": 0}, {"lon": -77.03865233333333, "bike_id": "2e66cfe1e82e48d30fc96f6c7d603da4", "lat": 38.912553833333334, "fusion_lon": 0.0, "fusion_lat": 0.0, "type": "electric_scooter", "name": "2e66cfe1e82e48d30fc96f6c7d603da4", "is_disabled": 0, "rental_uris": {"ios": "https://dc.lft.to/lastmile_qr_scan", "android": "https://dc.lft.to/lastmile_qr_scan"}, "is_reserved": 0}, {"lon": -77.00523083333333, "bike_id": "839162a5cf6abcf9c9f227073c2ad58a", "lat": 38.87544233333333, "fusion_lon": 0.0, "fusion_lat": 0.0, "type": "electric_scooter", "name": "839162a5cf6abcf9c9f227073c2ad58a", "is_disabled": 0, "rental_uris": {"ios": "https://dc.lft.to/lastmile_qr_scan", "android": "https://dc.lft.to/lastmile_qr_scan"}, "is_reserved": 0}, {"lon": -76.99003416666666, "bike_id": "31d9dc67b75a6bc0e161bc6acdaa2938", "lat": 38.86502866666667, "fusion_lon": 0.0, "fusion_lat": 0.0, "type": "electric_scooter", "name": "31d9dc67b75a6bc0e161bc6acdaa2938", "is_disabled": 0, "rental_uris": {"ios": "https://dc.lft.to/lastmile_qr_scan", "android": "https://dc.lft.to/lastmile_qr_scan"}, "is_reserved": 0}, {"lon": -77.026939, "bike_id": "094eb7bd1a8518afbf55072a44489665", "lat": 38.9068305, "fusion_lon": 0.0, "fusion_lat": 0.0, "type": "electric_scooter", "name": "094eb7bd1a8518afbf55072a44489665", "is_disabled": 0, "rental_uris": {"ios": "https://dc.lft.to/lastmile_qr_scan", "android": "https://dc.lft.to/lastmile_qr_scan"}, "is_reserved": 0}, {"lon": -77.04337133333334, "bike_id": "5b05967e0728156ed61ebdd2b0336673", "lat": 38.911046, "fusion_lon": 0.0, "fusion_lat": 0.0, "type": "electric_scooter", "name": "5b05967e0728156ed61ebdd2b0336673", "is_disabled": 0, "rental_uris": {"ios": "https://dc.lft.to/lastmile_qr_scan", "android": "https://dc.lft.to/lastmile_qr_scan"}, "is_reserved": 0}, {"lon": -77.10837866666667, "bike_id": "285e688a139ec6146bcd100e3c8496c9", "lat": 38.81203516666667, "fusion_lon": 0.0, "fusion_lat": 0.0, "type": "electric_bike", "name": "285e688a139ec6146bcd100e3c8496c9", "is_disabled": 0, "rental_uris": {"ios": "https://dc.lft.to/lastmile_qr_scan", "android": "https://dc.lft.to/lastmile_qr_scan"}, "is_reserved": 0}, {"lon": -77.00333266666667, "bike_id": "332454547f8a219113da641b845a28d4", "lat": 38.897316000000004, "fusion_lon": 0.0, "fusion_lat": 0.0, "type": "electric_scooter", "name": "332454547f8a219113da641b845a28d4", "is_disabled": 0, "rental_uris": {"ios": "https://dc.lft.to/lastmile_qr_scan", "android": "https://dc.lft.to/lastmile_qr_scan"}, "is_reserved": 0}, {"lon": -77.02762383333334, "bike_id": "57215b67f6cacd7f6836b0dff96e7954", "lat": 38.954294833333336, "fusion_lon": 0.0, "fusion_lat": 0.0, "type": "electric_scooter", "name": "57215b67f6cacd7f6836b0dff96e7954", "is_disabled": 0, "rental_uris": {"ios": "https://dc.lft.to/lastmile_qr_scan", "android": "https://dc.lft.to/lastmile_qr_scan"}, "is_reserved": 0}, {"lon": -77.02803916666667, "bike_id": "9d3a80db9c6387908cda3c7bc60e0f31", "lat": 38.930766166666665, "fusion_lon": 0.0, "fusion_lat": 0.0, "type": "electric_scooter", "name": "9d3a80db9c6387908cda3c7bc60e0f31", "is_disabled": 0, "rental_uris": {"ios": "https://dc.lft.to/lastmile_qr_scan", "android": "https://dc.lft.to/lastmile_qr_scan"}, "is_reserved": 0}, {"lon": -77.04425183333333, "bike_id": "161abfc8d59d613a734b4a3fb66385b9", "lat": 38.911333, "fusion_lon": 0.0, "fusion_lat": 0.0, "type": "electric_scooter", "name": "161abfc8d59d613a734b4a3fb66385b9", "is_disabled": 0, "rental_uris": {"ios": "https://dc.lft.to/lastmile_qr_scan", "android": "https://dc.lft.to/lastmile_qr_scan"}, "is_reserved": 0}, {"lon": -77.0318695, "bike_id": "cb02a54f05433e08be10ef3c38e5cfa6", "lat": 38.91827133333334, "fusion_lon": 0.0, "fusion_lat": 0.0, "type": "electric_scooter", "name": "cb02a54f05433e08be10ef3c38e5cfa6", "is_disabled": 0, "rental_uris": {"ios": "https://dc.lft.to/lastmile_qr_scan", "android": "https://dc.lft.to/lastmile_qr_scan"}, "is_reserved": 0}, {"lon": -77.03265333333333, "bike_id": "2309282e373a66592f7b151dd3290bbb", "lat": 38.93206516666667, "fusion_lon": 0.0, "fusion_lat": 0.0, "type": "electric_scooter", "name": "2309282e373a66592f7b151dd3290bbb", "is_disabled": 0, "rental_uris": {"ios": "https://dc.lft.to/lastmile_qr_scan", "android": "https://dc.lft.to/lastmile_qr_scan"}, "is_reserved": 0}, {"lon": -77.02763583333333, "bike_id": "9b78d8dad0ba66d4966ff02ea0ca675d", "lat": 38.916917166666664, "fusion_lon": 0.0, "fusion_lat": 0.0, "type": "electric_scooter", "name": "9b78d8dad0ba66d4966ff02ea0ca675d", "is_disabled": 0, "rental_uris": {"ios": "https://dc.lft.to/lastmile_qr_scan", "android": "https://dc.lft.to/lastmile_qr_scan"}, "is_reserved": 0}, {"lon": -77.04164583333333, "bike_id": "7b24028ec08b0c4293ab89bb94b8555f", "lat": 38.9055215, "fusion_lon": 0.0, "fusion_lat": 0.0, "type": "electric_scooter", "name": "7b24028ec08b0c4293ab89bb94b8555f", "is_disabled": 0, "rental_uris": {"ios": "https://dc.lft.to/lastmile_qr_scan", "android": "https://dc.lft.to/lastmile_qr_scan"}, "is_reserved": 0}, {"lon": -77.02170183333334, "bike_id": "f77be3e4f7c8ba20826ad0f77e4f5f4e", "lat": 38.929929333333334, "fusion_lon": 0.0, "fusion_lat": 0.0, "type": "electric_scooter", "name": "f77be3e4f7c8ba20826ad0f77e4f5f4e", "is_disabled": 0, "rental_uris": {"ios": "https://dc.lft.to/lastmile_qr_scan", "android": "https://dc.lft.to/lastmile_qr_scan"}, "is_reserved": 0}, {"lon": -77.0038715, "bike_id": "08290741939abaeb1e3b86d7b12484c0", "lat": 38.83600966666667, "fusion_lon": 0.0, "fusion_lat": 0.0, "type": "electric_bike", "name": "08290741939abaeb1e3b86d7b12484c0", "is_disabled": 0, "rental_uris": {"ios": "https://dc.lft.to/lastmile_qr_scan", "android": "https://dc.lft.to/lastmile_qr_scan"}, "is_reserved": 0}, {"lon": -77.03146366666667, "bike_id": "f533dc93b225466993c43714b76b9210", "lat": 38.93252, "fusion_lon": 0.0, "fusion_lat": 0.0, "type": "electric_scooter", "name": "f533dc93b225466993c43714b76b9210", "is_disabled": 0, "rental_uris": {"ios": "https://dc.lft.to/lastmile_qr_scan", "android": "https://dc.lft.to/lastmile_qr_scan"}, "is_reserved": 0}, {"lon": -77.007375, "bike_id": "8b5c017ab58acf1011b8bd2fcc008b09", "lat": 38.897876, "fusion_lon": 0.0, "fusion_lat": 0.0, "type": "electric_bike", "name": "8b5c017ab58acf1011b8bd2fcc008b09", "is_disabled": 0, "rental_uris": {"ios": "https://dc.lft.to/lastmile_qr_scan", "android": "https://dc.lft.to/lastmile_qr_scan"}, "is_reserved": 0}, {"lon": -77.03189766666667, "bike_id": "e0b4ffa8cd202eb1c3b69e55a5f0df10", "lat": 38.917506333333336, "fusion_lon": 0.0, "fusion_lat": 0.0, "type": "electric_scooter", "name": "e0b4ffa8cd202eb1c3b69e55a5f0df10", "is_disabled": 0, "rental_uris": {"ios": "https://dc.lft.to/lastmile_qr_scan", "android": "https://dc.lft.to/lastmile_qr_scan"}, "is_reserved": 0}, {"lon": -77.0467645, "bike_id": "394c7a514635cf2d45f27115ffbfb99c", "lat": 38.907197333333336, "fusion_lon": 0.0, "fusion_lat": 0.0, "type": "electric_scooter", "name": "394c7a514635cf2d45f27115ffbfb99c", "is_disabled": 0, "rental_uris": {"ios": "https://dc.lft.to/lastmile_qr_scan", "android": "https://dc.lft.to/lastmile_qr_scan"}, "is_reserved": 0}, {"lon": -77.03263916666667, "bike_id": "6fc75833abedd04d49be068ad3e680e3", "lat": 38.9377705, "fusion_lon": 0.0, "fusion_lat": 0.0, "type": "electric_scooter", "name": "6fc75833abedd04d49be068ad3e680e3", "is_disabled": 0, "rental_uris": {"ios": "https://dc.lft.to/lastmile_qr_scan", "android": "https://dc.lft.to/lastmile_qr_scan"}, "is_reserved": 0}, {"lon": -77.033299, "bike_id": "13fb9614808aa4fbdb95d26f76475384", "lat": 38.947132, "fusion_lon": 0.0, "fusion_lat": 0.0, "type": "electric_scooter", "name": "13fb9614808aa4fbdb95d26f76475384", "is_disabled": 0, "rental_uris": {"ios": "https://dc.lft.to/lastmile_qr_scan", "android": "https://dc.lft.to/lastmile_qr_scan"}, "is_reserved": 0}, {"lon": -77.03584966666666, "bike_id": "7fd5ba2cad211c788f8703de4b607192", "lat": 38.910407166666666, "fusion_lon": 0.0, "fusion_lat": 0.0, "type": "electric_scooter", "name": "7fd5ba2cad211c788f8703de4b607192", "is_disabled": 0, "rental_uris": {"ios": "https://dc.lft.to/lastmile_qr_scan", "android": "https://dc.lft.to/lastmile_qr_scan"}, "is_reserved": 0}, {"lon": -77.04221416666667, "bike_id": "6247af3e252d46e2869c411cd08ead7d", "lat": 38.913472166666665, "fusion_lon": 0.0, "fusion_lat": 0.0, "type": "electric_scooter", "name": "6247af3e252d46e2869c411cd08ead7d", "is_disabled": 0, "rental_uris": {"ios": "https://dc.lft.to/lastmile_qr_scan", "android": "https://dc.lft.to/lastmile_qr_scan"}, "is_reserved": 0}, {"lon": -77.0435365, "bike_id": "cd46f523aa2c549e788e71f49db6300f", "lat": 38.923468166666666, "fusion_lon": 0.0, "fusion_lat": 0.0, "type": "electric_scooter", "name": "cd46f523aa2c549e788e71f49db6300f", "is_disabled": 0, "rental_uris": {"ios": "https://dc.lft.to/lastmile_qr_scan", "android": "https://dc.lft.to/lastmile_qr_scan"}, "is_reserved": 0}, {"lon": -76.9929245, "bike_id": "a8c06088b554aaeb23c1fd21e99f9448", "lat": 38.898845333333334, "fusion_lon": 0.0, "fusion_lat": 0.0, "type": "electric_scooter", "name": "a8c06088b554aaeb23c1fd21e99f9448", "is_disabled": 0, "rental_uris": {"ios": "https://dc.lft.to/lastmile_qr_scan", "android": "https://dc.lft.to/lastmile_qr_scan"}, "is_reserved": 0}, {"lon": -77.0250475, "bike_id": "3fbb3d751d09145c36871c8de7f78d6a", "lat": 38.920778, "fusion_lon": 0.0, "fusion_lat": 0.0, "type": "electric_scooter", "name": "3fbb3d751d09145c36871c8de7f78d6a", "is_disabled": 0, "rental_uris": {"ios": "https://dc.lft.to/lastmile_qr_scan", "android": "https://dc.lft.to/lastmile_qr_scan"}, "is_reserved": 0}, {"lon": -77.02833416666667, "bike_id": "4cd0bf2505b854485a4c1f866df1692e", "lat": 38.934604666666665, "fusion_lon": 0.0, "fusion_lat": 0.0, "type": "electric_scooter", "name": "4cd0bf2505b854485a4c1f866df1692e", "is_disabled": 0, "rental_uris": {"ios": "https://dc.lft.to/lastmile_qr_scan", "android": "https://dc.lft.to/lastmile_qr_scan"}, "is_reserved": 0}, {"lon": -77.03129266666667, "bike_id": "650921e256872b27cd837aca8f6ac065", "lat": 38.91487133333333, "fusion_lon": 0.0, "fusion_lat": 0.0, "type": "electric_scooter", "name": "650921e256872b27cd837aca8f6ac065", "is_disabled": 0, "rental_uris": {"ios": "https://dc.lft.to/lastmile_qr_scan", "android": "https://dc.lft.to/lastmile_qr_scan"}, "is_reserved": 0}, {"lon": -77.04863266666666, "bike_id": "7abb6a819e91e407541d7a43532bb102", "lat": 38.90959733333333, "fusion_lon": 0.0, "fusion_lat": 0.0, "type": "electric_scooter", "name": "7abb6a819e91e407541d7a43532bb102", "is_disabled": 0, "rental_uris": {"ios": "https://dc.lft.to/lastmile_qr_scan", "android": "https://dc.lft.to/lastmile_qr_scan"}, "is_reserved": 0}, {"lon": -77.01922866666666, "bike_id": "08d5d4255b18e0ff8b3fb95318f94ba1", "lat": 38.93197983333334, "fusion_lon": 0.0, "fusion_lat": 0.0, "type": "electric_scooter", "name": "08d5d4255b18e0ff8b3fb95318f94ba1", "is_disabled": 0, "rental_uris": {"ios": "https://dc.lft.to/lastmile_qr_scan", "android": "https://dc.lft.to/lastmile_qr_scan"}, "is_reserved": 0}, {"lon": -77.01726016666667, "bike_id": "425ce400f744f77dcacad0475a80e68d", "lat": 38.872953, "fusion_lon": 0.0, "fusion_lat": 0.0, "type": "electric_scooter", "name": "425ce400f744f77dcacad0475a80e68d", "is_disabled": 0, "rental_uris": {"ios": "https://dc.lft.to/lastmile_qr_scan", "android": "https://dc.lft.to/lastmile_qr_scan"}, "is_reserved": 0}, {"lon": -77.0283865, "bike_id": "4767d69c92f9b3e9fb672b53b7e4093c", "lat": 38.925768166666664, "fusion_lon": 0.0, "fusion_lat": 0.0, "type": "electric_scooter", "name": "4767d69c92f9b3e9fb672b53b7e4093c", "is_disabled": 0, "rental_uris": {"ios": "https://dc.lft.to/lastmile_qr_scan", "android": "https://dc.lft.to/lastmile_qr_scan"}, "is_reserved": 0}, {"lon": -76.95757533333334, "bike_id": "d8b8bba325d654b378f0d43f4ed5f6f1", "lat": 38.88429633333333, "fusion_lon": 0.0, "fusion_lat": 0.0, "type": "electric_scooter", "name": "d8b8bba325d654b378f0d43f4ed5f6f1", "is_disabled": 0, "rental_uris": {"ios": "https://dc.lft.to/lastmile_qr_scan", "android": "https://dc.lft.to/lastmile_qr_scan"}, "is_reserved": 0}, {"lon": -77.05234216666666, "bike_id": "3623b49d9e49cec55ad33b31ecb33040", "lat": 38.9245855, "fusion_lon": 0.0, "fusion_lat": 0.0, "type": "electric_scooter", "name": "3623b49d9e49cec55ad33b31ecb33040", "is_disabled": 0, "rental_uris": {"ios": "https://dc.lft.to/lastmile_qr_scan", "android": "https://dc.lft.to/lastmile_qr_scan"}, "is_reserved": 0}, {"lon": -76.99081666666666, "bike_id": "fabc982b659112d3892aef3c4238b74d", "lat": 38.900299833333335, "fusion_lon": 0.0, "fusion_lat": 0.0, "type": "electric_scooter", "name": "fabc982b659112d3892aef3c4238b74d", "is_disabled": 0, "rental_uris": {"ios": "https://dc.lft.to/lastmile_qr_scan", "android": "https://dc.lft.to/lastmile_qr_scan"}, "is_reserved": 0}, {"lon": -77.01902616666666, "bike_id": "06b8d935e9fdbf8ca4c0a3c76c6cc962", "lat": 38.89969633333333, "fusion_lon": 0.0, "fusion_lat": 0.0, "type": "electric_scooter", "name": "06b8d935e9fdbf8ca4c0a3c76c6cc962", "is_disabled": 0, "rental_uris": {"ios": "https://dc.lft.to/lastmile_qr_scan", "android": "https://dc.lft.to/lastmile_qr_scan"}, "is_reserved": 0}, {"lon": -77.0317185, "bike_id": "701929eb1ee3818a0214ec91827ff106", "lat": 38.9182795, "fusion_lon": 0.0, "fusion_lat": 0.0, "type": "electric_scooter", "name": "701929eb1ee3818a0214ec91827ff106", "is_disabled": 0, "rental_uris": {"ios": "https://dc.lft.to/lastmile_qr_scan", "android": "https://dc.lft.to/lastmile_qr_scan"}, "is_reserved": 0}, {"lon": -77.0381535, "bike_id": "6a1decfc586ff511126d5ff33da9409d", "lat": 38.93112, "fusion_lon": 0.0, "fusion_lat": 0.0, "type": "electric_scooter", "name": "6a1decfc586ff511126d5ff33da9409d", "is_disabled": 0, "rental_uris": {"ios": "https://dc.lft.to/lastmile_qr_scan", "android": "https://dc.lft.to/lastmile_qr_scan"}, "is_reserved": 0}, {"lon": -77.02757966666667, "bike_id": "b7ca2245807117adc6c5ab6cb9714984", "lat": 38.954288, "fusion_lon": 0.0, "fusion_lat": 0.0, "type": "electric_scooter", "name": "b7ca2245807117adc6c5ab6cb9714984", "is_disabled": 0, "rental_uris": {"ios": "https://dc.lft.to/lastmile_qr_scan", "android": "https://dc.lft.to/lastmile_qr_scan"}, "is_reserved": 0}, {"lon": -77.04815083333334, "bike_id": "ed578f52f95c95ba8ced884191263dfe", "lat": 38.911117833333336, "fusion_lon": 0.0, "fusion_lat": 0.0, "type": "electric_scooter", "name": "ed578f52f95c95ba8ced884191263dfe", "is_disabled": 0, "rental_uris": {"ios": "https://dc.lft.to/lastmile_qr_scan", "android": "https://dc.lft.to/lastmile_qr_scan"}, "is_reserved": 0}, {"lon": -77.0412455, "bike_id": "6febf2b16c4de8f014c33c5c5a87e5da", "lat": 38.917072833333336, "fusion_lon": 0.0, "fusion_lat": 0.0, "type": "electric_scooter", "name": "6febf2b16c4de8f014c33c5c5a87e5da", "is_disabled": 0, "rental_uris": {"ios": "https://dc.lft.to/lastmile_qr_scan", "android": "https://dc.lft.to/lastmile_qr_scan"}, "is_reserved": 0}, {"lon": -76.90737116666666, "bike_id": "b11ef56fc0d61e17e5536496324ae462", "lat": 38.896185833333334, "fusion_lon": 0.0, "fusion_lat": 0.0, "type": "electric_bike", "name": "b11ef56fc0d61e17e5536496324ae462", "is_disabled": 0, "rental_uris": {"ios": "https://dc.lft.to/lastmile_qr_scan", "android": "https://dc.lft.to/lastmile_qr_scan"}, "is_reserved": 0}, {"lon": -77.02292266666667, "bike_id": "5e0ac8e467968c9c3c3cee570f0fcd00", "lat": 38.922298166666664, "fusion_lon": 0.0, "fusion_lat": 0.0, "type": "electric_scooter", "name": "5e0ac8e467968c9c3c3cee570f0fcd00", "is_disabled": 0, "rental_uris": {"ios": "https://dc.lft.to/lastmile_qr_scan", "android": "https://dc.lft.to/lastmile_qr_scan"}, "is_reserved": 0}, {"lon": -77.044739, "bike_id": "50459f9989e9b7b1a39a6036e4adee44", "lat": 38.92390816666666, "fusion_lon": 0.0, "fusion_lat": 0.0, "type": "electric_scooter", "name": "50459f9989e9b7b1a39a6036e4adee44", "is_disabled": 0, "rental_uris": {"ios": "https://dc.lft.to/lastmile_qr_scan", "android": "https://dc.lft.to/lastmile_qr_scan"}, "is_reserved": 0}, {"lon": -77.00562266666667, "bike_id": "50ad22e5c27851360f4b508422395b21", "lat": 38.874704666666666, "fusion_lon": 0.0, "fusion_lat": 0.0, "type": "electric_scooter", "name": "50ad22e5c27851360f4b508422395b21", "is_disabled": 0, "rental_uris": {"ios": "https://dc.lft.to/lastmile_qr_scan", "android": "https://dc.lft.to/lastmile_qr_scan"}, "is_reserved": 0}, {"lon": -76.97425916666667, "bike_id": "426249224f024d297071b0a8326f549b", "lat": 38.903960166666664, "fusion_lon": 0.0, "fusion_lat": 0.0, "type": "electric_scooter", "name": "426249224f024d297071b0a8326f549b", "is_disabled": 0, "rental_uris": {"ios": "https://dc.lft.to/lastmile_qr_scan", "android": "https://dc.lft.to/lastmile_qr_scan"}, "is_reserved": 0}, {"lon": -77.00493283333333, "bike_id": "1f891b905cf51a5c83af9ee6d440966d", "lat": 38.905796333333335, "fusion_lon": 0.0, "fusion_lat": 0.0, "type": "electric_scooter", "name": "1f891b905cf51a5c83af9ee6d440966d", "is_disabled": 0, "rental_uris": {"ios": "https://dc.lft.to/lastmile_qr_scan", "android": "https://dc.lft.to/lastmile_qr_scan"}, "is_reserved": 0}, {"lon": -77.02700433333334, "bike_id": "bd17b54c3897cde345db70273d52c3ac", "lat": 38.9178045, "fusion_lon": 0.0, "fusion_lat": 0.0, "type": "electric_scooter", "name": "bd17b54c3897cde345db70273d52c3ac", "is_disabled": 0, "rental_uris": {"ios": "https://dc.lft.to/lastmile_qr_scan", "android": "https://dc.lft.to/lastmile_qr_scan"}, "is_reserved": 0}, {"lon": -76.9852665, "bike_id": "8d09dc4376a76723491f7ca5bbdb6219", "lat": 38.866838333333334, "fusion_lon": 0.0, "fusion_lat": 0.0, "type": "electric_scooter", "name": "8d09dc4376a76723491f7ca5bbdb6219", "is_disabled": 0, "rental_uris": {"ios": "https://dc.lft.to/lastmile_qr_scan", "android": "https://dc.lft.to/lastmile_qr_scan"}, "is_reserved": 0}, {"lon": -77.0325005, "bike_id": "a86ca7f6c046e85028be074ef0e810e8", "lat": 38.91403116666667, "fusion_lon": 0.0, "fusion_lat": 0.0, "type": "electric_scooter", "name": "a86ca7f6c046e85028be074ef0e810e8", "is_disabled": 0, "rental_uris": {"ios": "https://dc.lft.to/lastmile_qr_scan", "android": "https://dc.lft.to/lastmile_qr_scan"}, "is_reserved": 0}, {"lon": -77.124956, "bike_id": "d6afc0a498dfb54153703f9e96de4405", "lat": 38.827817833333334, "fusion_lon": 0.0, "fusion_lat": 0.0, "type": "electric_bike", "name": "d6afc0a498dfb54153703f9e96de4405", "is_disabled": 0, "rental_uris": {"ios": "https://dc.lft.to/lastmile_qr_scan", "android": "https://dc.lft.to/lastmile_qr_scan"}, "is_reserved": 0}, {"lon": -77.03409366666666, "bike_id": "d0b54658c27162b7e34aa6d3fbf8830f", "lat": 38.96028283333333, "fusion_lon": 0.0, "fusion_lat": 0.0, "type": "electric_bike", "name": "d0b54658c27162b7e34aa6d3fbf8830f", "is_disabled": 0, "rental_uris": {"ios": "https://dc.lft.to/lastmile_qr_scan", "android": "https://dc.lft.to/lastmile_qr_scan"}, "is_reserved": 0}, {"lon": -77.01614566666667, "bike_id": "35bae314b0cebfe4663815f4aa0b59ab", "lat": 38.901695333333336, "fusion_lon": 0.0, "fusion_lat": 0.0, "type": "electric_scooter", "name": "35bae314b0cebfe4663815f4aa0b59ab", "is_disabled": 0, "rental_uris": {"ios": "https://dc.lft.to/lastmile_qr_scan", "android": "https://dc.lft.to/lastmile_qr_scan"}, "is_reserved": 0}, {"lon": -77.027136, "bike_id": "91391c530c5f02cac540e8dab7470b7b", "lat": 38.93474116666667, "fusion_lon": 0.0, "fusion_lat": 0.0, "type": "electric_scooter", "name": "91391c530c5f02cac540e8dab7470b7b", "is_disabled": 0, "rental_uris": {"ios": "https://dc.lft.to/lastmile_qr_scan", "android": "https://dc.lft.to/lastmile_qr_scan"}, "is_reserved": 0}, {"lon": -77.064238, "bike_id": "17be305b167a82060e8a6071b9530fca", "lat": 38.908858333333335, "fusion_lon": 0.0, "fusion_lat": 0.0, "type": "electric_scooter", "name": "17be305b167a82060e8a6071b9530fca", "is_disabled": 0, "rental_uris": {"ios": "https://dc.lft.to/lastmile_qr_scan", "android": "https://dc.lft.to/lastmile_qr_scan"}, "is_reserved": 0}, {"lon": -77.00283266666666, "bike_id": "130374135943714cf90e7f7c2771ff4c", "lat": 38.95710566666666, "fusion_lon": 0.0, "fusion_lat": 0.0, "type": "electric_bike", "name": "130374135943714cf90e7f7c2771ff4c", "is_disabled": 0, "rental_uris": {"ios": "https://dc.lft.to/lastmile_qr_scan", "android": "https://dc.lft.to/lastmile_qr_scan"}, "is_reserved": 0}, {"lon": -77.00387533333334, "bike_id": "8e23961c13a04b1a0278bfd673bec71e", "lat": 38.906189499999996, "fusion_lon": 0.0, "fusion_lat": 0.0, "type": "electric_scooter", "name": "8e23961c13a04b1a0278bfd673bec71e", "is_disabled": 0, "rental_uris": {"ios": "https://dc.lft.to/lastmile_qr_scan", "android": "https://dc.lft.to/lastmile_qr_scan"}, "is_reserved": 0}, {"lon": -77.04321083333333, "bike_id": "710965d2389f59b067f6ac779e994ad1", "lat": 38.91874133333334, "fusion_lon": 0.0, "fusion_lat": 0.0, "type": "electric_scooter", "name": "710965d2389f59b067f6ac779e994ad1", "is_disabled": 0, "rental_uris": {"ios": "https://dc.lft.to/lastmile_qr_scan", "android": "https://dc.lft.to/lastmile_qr_scan"}, "is_reserved": 0}, {"lon": -76.9658065, "bike_id": "abfcc345f7dbf6d55d55b9005dca8bb5", "lat": 38.87133766666667, "fusion_lon": 0.0, "fusion_lat": 0.0, "type": "electric_scooter", "name": "abfcc345f7dbf6d55d55b9005dca8bb5", "is_disabled": 0, "rental_uris": {"ios": "https://dc.lft.to/lastmile_qr_scan", "android": "https://dc.lft.to/lastmile_qr_scan"}, "is_reserved": 0}, {"lon": -77.03427716666667, "bike_id": "c0d8bee3f0ec11df9b2e5c777319dfcc", "lat": 38.92748, "fusion_lon": 0.0, "fusion_lat": 0.0, "type": "electric_scooter", "name": "c0d8bee3f0ec11df9b2e5c777319dfcc", "is_disabled": 0, "rental_uris": {"ios": "https://dc.lft.to/lastmile_qr_scan", "android": "https://dc.lft.to/lastmile_qr_scan"}, "is_reserved": 0}, {"lon": -76.99854066666667, "bike_id": "22f0c04ed3c97aa69afa6fd49f05f24f", "lat": 38.84161066666667, "fusion_lon": 0.0, "fusion_lat": 0.0, "type": "electric_scooter", "name": "22f0c04ed3c97aa69afa6fd49f05f24f", "is_disabled": 0, "rental_uris": {"ios": "https://dc.lft.to/lastmile_qr_scan", "android": "https://dc.lft.to/lastmile_qr_scan"}, "is_reserved": 0}, {"lon": -77.03993683333333, "bike_id": "50b23059888863e7f905ec005681d34e", "lat": 38.927289, "fusion_lon": 0.0, "fusion_lat": 0.0, "type": "electric_scooter", "name": "50b23059888863e7f905ec005681d34e", "is_disabled": 0, "rental_uris": {"ios": "https://dc.lft.to/lastmile_qr_scan", "android": "https://dc.lft.to/lastmile_qr_scan"}, "is_reserved": 0}, {"lon": -77.02211066666666, "bike_id": "6a194321342b0883b706cb5f5d427710", "lat": 38.914131, "fusion_lon": 0.0, "fusion_lat": 0.0, "type": "electric_scooter", "name": "6a194321342b0883b706cb5f5d427710", "is_disabled": 0, "rental_uris": {"ios": "https://dc.lft.to/lastmile_qr_scan", "android": "https://dc.lft.to/lastmile_qr_scan"}, "is_reserved": 0}, {"lon": -76.98553766666667, "bike_id": "ff1d564f12f5a71f707a3e2458b5009c", "lat": 38.89952183333333, "fusion_lon": 0.0, "fusion_lat": 0.0, "type": "electric_scooter", "name": "ff1d564f12f5a71f707a3e2458b5009c", "is_disabled": 0, "rental_uris": {"ios": "https://dc.lft.to/lastmile_qr_scan", "android": "https://dc.lft.to/lastmile_qr_scan"}, "is_reserved": 0}, {"lon": -77.02096433333334, "bike_id": "8a3273e05c5793a90c2ccbf7e47d81bb", "lat": 38.9311445, "fusion_lon": 0.0, "fusion_lat": 0.0, "type": "electric_scooter", "name": "8a3273e05c5793a90c2ccbf7e47d81bb", "is_disabled": 0, "rental_uris": {"ios": "https://dc.lft.to/lastmile_qr_scan", "android": "https://dc.lft.to/lastmile_qr_scan"}, "is_reserved": 0}, {"lon": -77.02684633333334, "bike_id": "8c5867cd44a9c38e374a9b8d938ec368", "lat": 38.900352166666664, "fusion_lon": 0.0, "fusion_lat": 0.0, "type": "electric_scooter", "name": "8c5867cd44a9c38e374a9b8d938ec368", "is_disabled": 0, "rental_uris": {"ios": "https://dc.lft.to/lastmile_qr_scan", "android": "https://dc.lft.to/lastmile_qr_scan"}, "is_reserved": 0}, {"lon": -77.021697, "bike_id": "2a4a61d326ca40b41518c3fa1cef41e4", "lat": 38.89743333333333, "fusion_lon": 0.0, "fusion_lat": 0.0, "type": "electric_scooter", "name": "2a4a61d326ca40b41518c3fa1cef41e4", "is_disabled": 0, "rental_uris": {"ios": "https://dc.lft.to/lastmile_qr_scan", "android": "https://dc.lft.to/lastmile_qr_scan"}, "is_reserved": 0}, {"lon": -76.990491, "bike_id": "61a8a692dd42a4c6df612ab4f838c509", "lat": 38.884159333333336, "fusion_lon": 0.0, "fusion_lat": 0.0, "type": "electric_scooter", "name": "61a8a692dd42a4c6df612ab4f838c509", "is_disabled": 0, "rental_uris": {"ios": "https://dc.lft.to/lastmile_qr_scan", "android": "https://dc.lft.to/lastmile_qr_scan"}, "is_reserved": 0}, {"lon": -77.05862733333333, "bike_id": "8ef029deb68fb9228334efa0360c4025", "lat": 38.93604116666667, "fusion_lon": 0.0, "fusion_lat": 0.0, "type": "electric_scooter", "name": "8ef029deb68fb9228334efa0360c4025", "is_disabled": 0, "rental_uris": {"ios": "https://dc.lft.to/lastmile_qr_scan", "android": "https://dc.lft.to/lastmile_qr_scan"}, "is_reserved": 0}, {"lon": -76.94885316666667, "bike_id": "ec8f9e926b5b2f8c82abb89354940ce8", "lat": 38.89510633333333, "fusion_lon": 0.0, "fusion_lat": 0.0, "type": "electric_scooter", "name": "ec8f9e926b5b2f8c82abb89354940ce8", "is_disabled": 0, "rental_uris": {"ios": "https://dc.lft.to/lastmile_qr_scan", "android": "https://dc.lft.to/lastmile_qr_scan"}, "is_reserved": 0}, {"lon": -76.97320766666667, "bike_id": "77aa6c757540df24ddbdb2e851f7fe7d", "lat": 38.90483366666667, "fusion_lon": 0.0, "fusion_lat": 0.0, "type": "electric_bike", "name": "77aa6c757540df24ddbdb2e851f7fe7d", "is_disabled": 0, "rental_uris": {"ios": "https://dc.lft.to/lastmile_qr_scan", "android": "https://dc.lft.to/lastmile_qr_scan"}, "is_reserved": 0}, {"lon": -77.03398716666666, "bike_id": "fa33660e074e8b1bacc28381977eb056", "lat": 38.9171755, "fusion_lon": 0.0, "fusion_lat": 0.0, "type": "electric_scooter", "name": "fa33660e074e8b1bacc28381977eb056", "is_disabled": 0, "rental_uris": {"ios": "https://dc.lft.to/lastmile_qr_scan", "android": "https://dc.lft.to/lastmile_qr_scan"}, "is_reserved": 0}, {"lon": -76.9160015, "bike_id": "d26d0c5aa93eb2a1cace243d494faac5", "lat": 38.87983766666667, "fusion_lon": 0.0, "fusion_lat": 0.0, "type": "electric_bike", "name": "d26d0c5aa93eb2a1cace243d494faac5", "is_disabled": 0, "rental_uris": {"ios": "https://dc.lft.to/lastmile_qr_scan", "android": "https://dc.lft.to/lastmile_qr_scan"}, "is_reserved": 0}, {"lon": -77.0221255, "bike_id": "dd8e64bb0cfdee65af63f59aeed7e41a", "lat": 38.91062433333333, "fusion_lon": 0.0, "fusion_lat": 0.0, "type": "electric_scooter", "name": "dd8e64bb0cfdee65af63f59aeed7e41a", "is_disabled": 0, "rental_uris": {"ios": "https://dc.lft.to/lastmile_qr_scan", "android": "https://dc.lft.to/lastmile_qr_scan"}, "is_reserved": 0}, {"lon": -77.04248433333333, "bike_id": "68f809fe86091f2af1684481ee3f79f5", "lat": 38.92430783333333, "fusion_lon": 0.0, "fusion_lat": 0.0, "type": "electric_scooter", "name": "68f809fe86091f2af1684481ee3f79f5", "is_disabled": 0, "rental_uris": {"ios": "https://dc.lft.to/lastmile_qr_scan", "android": "https://dc.lft.to/lastmile_qr_scan"}, "is_reserved": 0}, {"lon": -77.0558135, "bike_id": "ada1e8b7c97c83e3975719507ff28bf7", "lat": 38.916011, "fusion_lon": 0.0, "fusion_lat": 0.0, "type": "electric_scooter", "name": "ada1e8b7c97c83e3975719507ff28bf7", "is_disabled": 0, "rental_uris": {"ios": "https://dc.lft.to/lastmile_qr_scan", "android": "https://dc.lft.to/lastmile_qr_scan"}, "is_reserved": 0}, {"lon": -77.05133883333333, "bike_id": "a55c019460c88f84fad9cab96efd80dd", "lat": 38.92364233333333, "fusion_lon": 0.0, "fusion_lat": 0.0, "type": "electric_scooter", "name": "a55c019460c88f84fad9cab96efd80dd", "is_disabled": 0, "rental_uris": {"ios": "https://dc.lft.to/lastmile_qr_scan", "android": "https://dc.lft.to/lastmile_qr_scan"}, "is_reserved": 0}, {"lon": -76.99510716666667, "bike_id": "ae8db4f52552614939ba217de8237264", "lat": 38.883046, "fusion_lon": 0.0, "fusion_lat": 0.0, "type": "electric_scooter", "name": "ae8db4f52552614939ba217de8237264", "is_disabled": 0, "rental_uris": {"ios": "https://dc.lft.to/lastmile_qr_scan", "android": "https://dc.lft.to/lastmile_qr_scan"}, "is_reserved": 0}, {"lon": -76.94105366666666, "bike_id": "9d555947ef8e736b33ba94dcbb6bed2b", "lat": 38.88645433333333, "fusion_lon": 0.0, "fusion_lat": 0.0, "type": "electric_scooter", "name": "9d555947ef8e736b33ba94dcbb6bed2b", "is_disabled": 0, "rental_uris": {"ios": "https://dc.lft.to/lastmile_qr_scan", "android": "https://dc.lft.to/lastmile_qr_scan"}, "is_reserved": 0},