{"data": {"bikes": [{"fusion_lon": 0.0, "bike_id": "75e547afa5f03d160cb6fdd73486d597", "is_disabled": 0, "is_reserved": 0, "lat": 38.8867075, "name": "75e547afa5f03d160cb6fdd73486d597", "rental_uris": {"ios": "https://dc.lft.to/lastmile_qr_scan", "android": "https://dc.lft.to/lastmile_qr_scan"}, "type": "electric_scooter", "fusion_lat": 0.0, "lon": -76.99144316666667}, {"fusion_lon": 0.0, "bike_id": "db48317477197762630928297b670788", "is_disabled": 0, "is_reserved": 0, "lat": 38.89888283333333, "name": "db48317477197762630928297b670788", "rental_uris": {"ios": "https://dc.lft.to/lastmile_qr_scan", "android": "https://dc.lft.to/lastmile_qr_scan"}, "type": "electric_scooter", "fusion_lat": 0.0, "lon": -77.032794}, {"fusion_lon": 0.0, "bike_id": "5a05eed029df760dbd0479d30f00ac0c", "is_disabled": 0, "is_reserved": 0, "lat": 38.91235616666667, "name": "5a05eed029df760dbd0479d30f00ac0c", "rental_uris": {"ios": "https://dc.lft.to/lastmile_qr_scan", "android": "https://dc.lft.to/lastmile_qr_scan"}, "type": "electric_scooter", "fusion_lat": 0.0, "lon": -77.0487445}, {"fusion_lon": 0.0, "bike_id": "5864ccc1c38e5b083069edf21493b970", "is_disabled": 0, "is_reserved": 0, "lat": 38.91708233333333, "name": "5864ccc1c38e5b083069edf21493b970", "rental_uris": {"ios": "https://dc.lft.to/lastmile_qr_scan", "android": "https://dc.lft.to/lastmile_qr_scan"}, "type": "electric_scooter", "fusion_lat": 0.0, "lon": -77.024187}, {"fusion_lon": 0.0, "bike_id": "6dc57f745e73da3bae10ca9c2e886f56", "is_disabled": 0, "is_reserved": 0, "lat": 38.892346, "name": "6dc57f745e73da3bae10ca9c2e886f56", "rental_uris": {"ios": "https://dc.lft.to/lastmile_qr_scan", "android": "https://dc.lft.to/lastmile_qr_scan"}, "type": "electric_scooter", "fusion_lat": 0.0, "lon": -77.04999316666667}, {"fusion_lon": 0.0, "bike_id": "d2df38be4d7ebf82f3a6efdb50cfa3a0", "is_disabled": 0, "is_reserved": 0, "lat": 38.99104233333333, "name": "d2df38be4d7ebf82f3a6efdb50cfa3a0", "rental_uris": {"ios": "https://dc.lft.to/lastmile_qr_scan", "android": "https://dc.lft.to/lastmile_qr_scan"}, "type": "electric_bike", "fusion_lat": 0.0, "lon": -76.993868}, {"fusion_lon": 0.0, "bike_id": "21651d719e47541c5bf4b887f4df4357", "is_disabled": 0, "is_reserved": 0, "lat": 38.86635883333334, "name": "21651d719e47541c5bf4b887f4df4357", "rental_uris": {"ios": "https://dc.lft.to/lastmile_qr_scan", "android": "https://dc.lft.to/lastmile_qr_scan"}, "type": "electric_bike", "fusion_lat": 0.0, "lon": -76.9900635}, {"fusion_lon": 0.0, "bike_id": "43c1dfd672d94e1e32bc2818445574c1", "is_disabled": 0, "is_reserved": 0, "lat": 38.9267075, "name": "43c1dfd672d94e1e32bc2818445574c1", "rental_uris": {"ios": "https://dc.lft.to/lastmile_qr_scan", "android": "https://dc.lft.to/lastmile_qr_scan"}, "type": "electric_scooter", "fusion_lat": 0.0, "lon": -77.0146225}, {"fusion_lon": 0.0, "bike_id": "c4de1ddaf9eeacc018e4ee1098ad84e3", "is_disabled": 0, "is_reserved": 0, "lat": 38.939320333333335, "name": "c4de1ddaf9eeacc018e4ee1098ad84e3", "rental_uris": {"ios": "https://dc.lft.to/lastmile_qr_scan", "android": "https://dc.lft.to/lastmile_qr_scan"}, "type": "electric_scooter", "fusion_lat": 0.0, "lon": -77.0606725}, {"fusion_lon": 0.0, "bike_id": "b92e8782b67e31edf01bff2b48c291da", "is_disabled": 0, "is_reserved": 0, "lat": 38.879089666666665, "name": "b92e8782b67e31edf01bff2b48c291da", "rental_uris": {"ios": "https://dc.lft.to/lastmile_qr_scan", "android": "https://dc.lft.to/lastmile_qr_scan"}, "type": "electric_scooter", "fusion_lat": 0.0, "lon": -76.94474383333333}, {"fusion_lon": 0.0, "bike_id": "b4c2e8426eb05e0b5bf12da3d4b79539", "is_disabled": 0, "is_reserved": 0, "lat": 38.916033166666665, "name": "b4c2e8426eb05e0b5bf12da3d4b79539", "rental_uris": {"ios": "https://dc.lft.to/lastmile_qr_scan", "android": "https://dc.lft.to/lastmile_qr_scan"}, "type": "electric_scooter", "fusion_lat": 0.0, "lon": -77.02962166666667}, {"fusion_lon": 0.0, "bike_id": "fbe94bd9453b1d970d8eee8cc118e0de", "is_disabled": 0, "is_reserved": 0, "lat": 38.90256866666667, "name": "fbe94bd9453b1d970d8eee8cc118e0de", "rental_uris": {"ios": "https://dc.lft.to/lastmile_qr_scan", "android": "https://dc.lft.to/lastmile_qr_scan"}, "type": "electric_scooter", "fusion_lat": 0.0, "lon": -77.02762966666667}, {"fusion_lon": 0.0, "bike_id": "8a71fa89b519a22a4008b5e070c9db69", "is_disabled": 0, "is_reserved": 0, "lat": 38.91632933333333, "name": "8a71fa89b519a22a4008b5e070c9db69", "rental_uris": {"ios": "https://dc.lft.to/lastmile_qr_scan", "android": "https://dc.lft.to/lastmile_qr_scan"}, "type": "electric_scooter", "fusion_lat": 0.0, "lon": -77.03216533333334}, {"fusion_lon": 0.0, "bike_id": "ddbcc710fe1889f76a6913e1f91986e2", "is_disabled": 0, "is_reserved": 0, "lat": 38.860851833333335, "name": "ddbcc710fe1889f76a6913e1f91986e2", "rental_uris": {"ios": "https://dc.lft.to/lastmile_qr_scan", "android": "https://dc.lft.to/lastmile_qr_scan"}, "type": "electric_scooter", "fusion_lat": 0.0, "lon": -76.98375266666666}, {"fusion_lon": 0.0, "bike_id": "6761c43df754066d2eb5a0b7f1f79645", "is_disabled": 0, "is_reserved": 0, "lat": 38.89498666666667, "name": "6761c43df754066d2eb5a0b7f1f79645", "rental_uris": {"ios": "https://dc.lft.to/lastmile_qr_scan", "android": "https://dc.lft.to/lastmile_qr_scan"}, "type": "electric_scooter", "fusion_lat": 0.0, "lon": -77.02169116666667}, {"fusion_lon": 0.0, "bike_id": "193edae46c5dc97a9ca06681ec2e6006", "is_disabled": 0, "is_reserved": 0, "lat": 38.90521116666667, "name": "193edae46c5dc97a9ca06681ec2e6006", "rental_uris": {"ios": "https://dc.lft.to/lastmile_qr_scan", "android": "https://dc.lft.to/lastmile_qr_scan"}, "type": "electric_scooter", "fusion_lat": 0.0, "lon": -77.05017316666667}, {"fusion_lon": 0.0, "bike_id": "e5eb71067cba431a1d7ff9d2e87378a8", "is_disabled": 0, "is_reserved": 0, "lat": 38.87873416666667, "name": "e5eb71067cba431a1d7ff9d2e87378a8", "rental_uris": {"ios": "https://dc.lft.to/lastmile_qr_scan", "android": "https://dc.lft.to/lastmile_qr_scan"}, "type": "electric_scooter", "fusion_lat": 0.0, "lon": -77.0012845}, {"fusion_lon": 0.0, "bike_id": "ea940b88fd90ba8e4c920dad8d9c8558", "is_disabled": 0, "is_reserved": 0, "lat": 38.91441483333333, "name": "ea940b88fd90ba8e4c920dad8d9c8558", "rental_uris": {"ios": "https://dc.lft.to/lastmile_qr_scan", "android": "https://dc.lft.to/lastmile_qr_scan"}, "type": "electric_scooter", "fusion_lat": 0.0, "lon": -77.022917}, {"fusion_lon": 0.0, "bike_id": "582dfce48e5eb5d48ade5e6ef1385e22", "is_disabled": 0, "is_reserved": 0, "lat": 38.90840466666667, "name": "582dfce48e5eb5d48ade5e6ef1385e22", "rental_uris": {"ios": "https://dc.lft.to/lastmile_qr_scan", "android": "https://dc.lft.to/lastmile_qr_scan"}, "type": "electric_scooter", "fusion_lat": 0.0, "lon": -77.05504566666667}, {"fusion_lon": 0.0, "bike_id": "1961346043fd02dca998572eb71011a2", "is_disabled": 0, "is_reserved": 0, "lat": 38.92326216666667, "name": "1961346043fd02dca998572eb71011a2", "rental_uris": {"ios": "https://dc.lft.to/lastmile_qr_scan", "android": "https://dc.lft.to/lastmile_qr_scan"}, "type": "electric_scooter", "fusion_lat": 0.0, "lon": -77.02117883333334}, {"fusion_lon": 0.0, "bike_id": "5e49786187a877b4dc91788049524f2e", "is_disabled": 0, "is_reserved": 0, "lat": 38.9057695, "name": "5e49786187a877b4dc91788049524f2e", "rental_uris": {"ios": "https://dc.lft.to/lastmile_qr_scan", "android": "https://dc.lft.to/lastmile_qr_scan"}, "type": "electric_scooter", "fusion_lat": 0.0, "lon": -77.034451}, {"fusion_lon": 0.0, "bike_id": "187ba3c364518e3cd11f614c823a4899", "is_disabled": 0, "is_reserved": 0, "lat": 38.91994183333333, "name": "187ba3c364518e3cd11f614c823a4899", "rental_uris": {"ios": "https://dc.lft.to/lastmile_qr_scan", "android": "https://dc.lft.to/lastmile_qr_scan"}, "type": "electric_scooter", "fusion_lat": 0.0, "lon": -77.021449}, {"fusion_lon": 0.0, "bike_id": "ec2b7d2a5f6575cbefba570784e7d6eb", "is_disabled": 0, "is_reserved": 0, "lat": 38.90250983333333, "name": "ec2b7d2a5f6575cbefba570784e7d6eb", "rental_uris": {"ios": "https://dc.lft.to/lastmile_qr_scan", "android": "https://dc.lft.to/lastmile_qr_scan"}, "type": "electric_scooter", "fusion_lat": 0.0, "lon": -77.00190266666667}, {"fusion_lon": 0.0, "bike_id": "99009b7567c1e1979eed947976e297a0", "is_disabled": 0, "is_reserved": 0, "lat": 38.922777833333335, "name": "99009b7567c1e1979eed947976e297a0", "rental_uris": {"ios": "https://dc.lft.to/lastmile_qr_scan", "android": "https://dc.lft.to/lastmile_qr_scan"}, "type": "electric_scooter", "fusion_lat": 0.0, "lon": -77.0213305}, {"fusion_lon": 0.0, "bike_id": "a7a63f33da0d31b7df78eca9c1f517b8", "is_disabled": 0, "is_reserved": 0, "lat": 38.90193333333333, "name": "a7a63f33da0d31b7df78eca9c1f517b8", "rental_uris": {"ios": "https://dc.lft.to/lastmile_qr_scan", "android": "https://dc.lft.to/lastmile_qr_scan"}, "type": "electric_scooter", "fusion_lat": 0.0, "lon": -76.97676833333334}, {"fusion_lon": 0.0, "bike_id": "2095c5263618bf7e6ca9777bbbb4c3d7", "is_disabled": 0, "is_reserved": 0, "lat": 38.94333366666667, "name": "2095c5263618bf7e6ca9777bbbb4c3d7", "rental_uris": {"ios": "https://dc.lft.to/lastmile_qr_scan", "android": "https://dc.lft.to/lastmile_qr_scan"}, "type": "electric_scooter", "fusion_lat": 0.0, "lon": -77.03260466666667}, {"fusion_lon": 0.0, "bike_id": "f5878bc9dc39e15315be86dcd72ab76d", "is_disabled": 0, "is_reserved": 0, "lat": 38.9242985, "name": "f5878bc9dc39e15315be86dcd72ab76d", "rental_uris": {"ios": "https://dc.lft.to/lastmile_qr_scan", "android": "https://dc.lft.to/lastmile_qr_scan"}, "type": "electric_scooter", "fusion_lat": 0.0, "lon": -77.04045516666666}, {"fusion_lon": 0.0, "bike_id": "29efb691232593b020bb759d9ed7c795", "is_disabled": 0, "is_reserved": 0, "lat": 38.88714916666667, "name": "29efb691232593b020bb759d9ed7c795", "rental_uris": {"ios": "https://dc.lft.to/lastmile_qr_scan", "android": "https://dc.lft.to/lastmile_qr_scan"}, "type": "electric_scooter", "fusion_lat": 0.0, "lon": -76.98385333333333}, {"fusion_lon": 0.0, "bike_id": "04097fce5ff6716cd690b11a162b2b0f", "is_disabled": 0, "is_reserved": 0, "lat": 38.9097335, "name": "04097fce5ff6716cd690b11a162b2b0f", "rental_uris": {"ios": "https://dc.lft.to/lastmile_qr_scan", "android": "https://dc.lft.to/lastmile_qr_scan"}, "type": "electric_scooter", "fusion_lat": 0.0, "lon": -77.04817266666667}, {"fusion_lon": 0.0, "bike_id": "3ec675135ef53a144a9818e1415388ad", "is_disabled": 0, "is_reserved": 0, "lat": 38.91492233333334, "name": "3ec675135ef53a144a9818e1415388ad", "rental_uris": {"ios": "https://dc.lft.to/lastmile_qr_scan", "android": "https://dc.lft.to/lastmile_qr_scan"}, "type": "electric_scooter", "fusion_lat": 0.0, "lon": -77.0177545}, {"fusion_lon": 0.0, "bike_id": "1bd997db117d422ace75ae91f520ba2a", "is_disabled": 0, "is_reserved": 0, "lat": 38.8997375, "name": "1bd997db117d422ace75ae91f520ba2a", "rental_uris": {"ios": "https://dc.lft.to/lastmile_qr_scan", "android": "https://dc.lft.to/lastmile_qr_scan"}, "type": "electric_scooter", "fusion_lat": 0.0, "lon": -77.0471705}, {"fusion_lon": 0.0, "bike_id": "97883c68427f2dc76a083421df8f3d41", "is_disabled": 0, "is_reserved": 0, "lat": 38.836091, "name": "97883c68427f2dc76a083421df8f3d41", "rental_uris": {"ios": "https://dc.lft.to/lastmile_qr_scan", "android": "https://dc.lft.to/lastmile_qr_scan"}, "type": "electric_bike", "fusion_lat": 0.0, "lon": -77.00378083333334}, {"fusion_lon": 0.0, "bike_id": "66fba2b8a45d680a8c5ea202614999d4", "is_disabled": 0, "is_reserved": 0, "lat": 38.920190166666664, "name": "66fba2b8a45d680a8c5ea202614999d4", "rental_uris": {"ios": "https://dc.lft.to/lastmile_qr_scan", "android": "https://dc.lft.to/lastmile_qr_scan"}, "type": "electric_scooter", "fusion_lat": 0.0, "lon": -77.0440385}, {"fusion_lon": 0.0, "bike_id": "4a19d2ceb6c54525e7ca58f5ee42114d", "is_disabled": 0, "is_reserved": 0, "lat": 38.9079345, "name": "4a19d2ceb6c54525e7ca58f5ee42114d", "rental_uris": {"ios": "https://dc.lft.to/lastmile_qr_scan", "android": "https://dc.lft.to/lastmile_qr_scan"}, "type": "electric_scooter", "fusion_lat": 0.0, "lon": -77.01082116666667}, {"fusion_lon": 0.0, "bike_id": "ff2259a02bc87e1af79cbdbcf9b6dd97", "is_disabled": 0, "is_reserved": 0, "lat": 38.90006316666667, "name": "ff2259a02bc87e1af79cbdbcf9b6dd97", "rental_uris": {"ios": "https://dc.lft.to/lastmile_qr_scan", "android": "https://dc.lft.to/lastmile_qr_scan"}, "type": "electric_scooter", "fusion_lat": 0.0, "lon": -77.03718183333334}, {"fusion_lon": 0.0, "bike_id": "9d053dfaafd1471491388c7774b0e967", "is_disabled": 0, "is_reserved": 0, "lat": 38.9119065, "name": "9d053dfaafd1471491388c7774b0e967", "rental_uris": {"ios": "https://dc.lft.to/lastmile_qr_scan", "android": "https://dc.lft.to/lastmile_qr_scan"}, "type": "electric_scooter", "fusion_lat": 0.0, "lon": -77.018146}, {"fusion_lon": 0.0, "bike_id": "b1ce194764f30452ef71993828897458", "is_disabled": 0, "is_reserved": 0, "lat": 38.9638825, "name": "b1ce194764f30452ef71993828897458", "rental_uris": {"ios": "https://dc.lft.to/lastmile_qr_scan", "android": "https://dc.lft.to/lastmile_qr_scan"}, "type": "electric_scooter", "fusion_lat": 0.0, "lon": -77.02769883333333}, {"fusion_lon": 0.0, "bike_id": "7b977f722583b3496db9c37e111481e0", "is_disabled": 0, "is_reserved": 0, "lat": 38.956283166666665, "name": "7b977f722583b3496db9c37e111481e0", "rental_uris": {"ios": "https://dc.lft.to/lastmile_qr_scan", "android": "https://dc.lft.to/lastmile_qr_scan"}, "type": "electric_scooter", "fusion_lat": 0.0, "lon": -77.024322}, {"fusion_lon": 0.0, "bike_id": "ab5293b6dfbd2eeb176b42f2e9378972", "is_disabled": 0, "is_reserved": 0, "lat": 38.83384616666667, "name": "ab5293b6dfbd2eeb176b42f2e9378972", "rental_uris": {"ios": "https://dc.lft.to/lastmile_qr_scan", "android": "https://dc.lft.to/lastmile_qr_scan"}, "type": "electric_scooter", "fusion_lat": 0.0, "lon": -77.0030395}, {"fusion_lon": 0.0, "bike_id": "2ab7e9f1deb424601c0291c877e2b668", "is_disabled": 0, "is_reserved": 0, "lat": 38.8983735, "name": "2ab7e9f1deb424601c0291c877e2b668", "rental_uris": {"ios": "https://dc.lft.to/lastmile_qr_scan", "android": "https://dc.lft.to/lastmile_qr_scan"}, "type": "electric_scooter", "fusion_lat": 0.0, "lon": -77.04810133333334}, {"fusion_lon": 0.0, "bike_id": "0fef4bb95f2818c8de958fe1c6c24dc3", "is_disabled": 0, "is_reserved": 0, "lat": 38.830374666666664, "name": "0fef4bb95f2818c8de958fe1c6c24dc3", "rental_uris": {"ios": "https://dc.lft.to/lastmile_qr_scan", "android": "https://dc.lft.to/lastmile_qr_scan"}, "type": "electric_bike", "fusion_lat": 0.0, "lon": -77.008288}, {"fusion_lon": 0.0, "bike_id": "4ceb1ed6c2b9a3adf9bb665dff703cc4", "is_disabled": 0, "is_reserved": 0, "lat": 38.84626133333333, "name": "4ceb1ed6c2b9a3adf9bb665dff703cc4", "rental_uris": {"ios": "https://dc.lft.to/lastmile_qr_scan", "android": "https://dc.lft.to/lastmile_qr_scan"}, "type": "electric_bike", "fusion_lat": 0.0, "lon": -77.06929916666667}, {"fusion_lon": 0.0, "bike_id": "6b54726a0384ec7d81efe69e4124e24f", "is_disabled": 0, "is_reserved": 0, "lat": 38.89049816666667, "name": "6b54726a0384ec7d81efe69e4124e24f", "rental_uris": {"ios": "https://dc.lft.to/lastmile_qr_scan", "android": "https://dc.lft.to/lastmile_qr_scan"}, "type": "electric_scooter", "fusion_lat": 0.0, "lon": -76.93750016666667}, {"fusion_lon": 0.0, "bike_id": "b701aa44bc1b7975fcc83740c13de591", "is_disabled": 0, "is_reserved": 0, "lat": 38.918463833333334, "name": "b701aa44bc1b7975fcc83740c13de591", "rental_uris": {"ios": "https://dc.lft.to/lastmile_qr_scan", "android": "https://dc.lft.to/lastmile_qr_scan"}, "type": "electric_scooter", "fusion_lat": 0.0, "lon": -77.031792}, {"fusion_lon": 0.0, "bike_id": "2465447256ce03e02260940efccc5d20", "is_disabled": 0, "is_reserved": 0, "lat": 38.89842616666667, "name": "2465447256ce03e02260940efccc5d20", "rental_uris": {"ios": "https://dc.lft.to/lastmile_qr_scan", "android": "https://dc.lft.to/lastmile_qr_scan"}, "type": "electric_scooter", "fusion_lat": 0.0, "lon": -77.04801066666667}, {"fusion_lon": 0.0, "bike_id": "268732da266401d35f34ff356f92e41a", "is_disabled": 0, "is_reserved": 0, "lat": 38.9141675, "name": "268732da266401d35f34ff356f92e41a", "rental_uris": {"ios": "https://dc.lft.to/lastmile_qr_scan", "android": "https://dc.lft.to/lastmile_qr_scan"}, "type": "electric_scooter", "fusion_lat": 0.0, "lon": -77.022146}, {"fusion_lon": 0.0, "bike_id": "a78793ba0a0276235d2023672641a879", "is_disabled": 0, "is_reserved": 0, "lat": 38.8962625, "name": "a78793ba0a0276235d2023672641a879", "rental_uris": {"ios": "https://dc.lft.to/lastmile_qr_scan", "android": "https://dc.lft.to/lastmile_qr_scan"}, "type": "electric_scooter", "fusion_lat": 0.0, "lon": -77.00346783333333}, {"fusion_lon": 0.0, "bike_id": "60852c62d252e267b427850b204cee0a", "is_disabled": 0, "is_reserved": 0, "lat": 38.88969766666666, "name": "60852c62d252e267b427850b204cee0a", "rental_uris": {"ios": "https://dc.lft.to/lastmile_qr_scan", "android": "https://dc.lft.to/lastmile_qr_scan"}, "type": "electric_scooter", "fusion_lat": 0.0, "lon": -76.9274175}, {"fusion_lon": 0.0, "bike_id": "15bf16f607317527ba40f4dcaa57edab", "is_disabled": 0, "is_reserved": 0, "lat": 38.9096685, "name": "15bf16f607317527ba40f4dcaa57edab", "rental_uris": {"ios": "https://dc.lft.to/lastmile_qr_scan", "android": "https://dc.lft.to/lastmile_qr_scan"}, "type": "electric_scooter", "fusion_lat": 0.0, "lon": -77.00887566666667}, {"fusion_lon": 0.0, "bike_id": "dea403cc3ad74ecb24f36a9813b2576a", "is_disabled": 0, "is_reserved": 0, "lat": 38.903589, "name": "dea403cc3ad74ecb24f36a9813b2576a", "rental_uris": {"ios": "https://dc.lft.to/lastmile_qr_scan", "android": "https://dc.lft.to/lastmile_qr_scan"}, "type": "electric_scooter", "fusion_lat": 0.0, "lon": -77.011121}, {"fusion_lon": 0.0, "bike_id": "be6efec21056e1aa395eac64cc03d0ad", "is_disabled": 0, "is_reserved": 0, "lat": 38.876388166666665, "name": "be6efec21056e1aa395eac64cc03d0ad", "rental_uris": {"ios": "https://dc.lft.to/lastmile_qr_scan", "android": "https://dc.lft.to/lastmile_qr_scan"}, "type": "electric_bike", "fusion_lat": 0.0, "lon": -77.00366716666667}, {"fusion_lon": 0.0, "bike_id": "07d586b3ff88119cc62801f234db1a92", "is_disabled": 0, "is_reserved": 0, "lat": 38.921367000000004, "name": "07d586b3ff88119cc62801f234db1a92", "rental_uris": {"ios": "https://dc.lft.to/lastmile_qr_scan", "android": "https://dc.lft.to/lastmile_qr_scan"}, "type": "electric_scooter", "fusion_lat": 0.0, "lon": -77.01789216666667}, {"fusion_lon": 0.0, "bike_id": "e9b284076110f1fe5866673e6fed44ae", "is_disabled": 0, "is_reserved": 0, "lat": 38.89572916666667, "name": "e9b284076110f1fe5866673e6fed44ae", "rental_uris": {"ios": "https://dc.lft.to/lastmile_qr_scan", "android": "https://dc.lft.to/lastmile_qr_scan"}, "type": "electric_scooter", "fusion_lat": 0.0, "lon": -77.04157116666667}, {"fusion_lon": 0.0, "bike_id": "8951e764e05074d1a752750a3ea0a6c0", "is_disabled": 0, "is_reserved": 0, "lat": 38.917162833333336, "name": "8951e764e05074d1a752750a3ea0a6c0", "rental_uris": {"ios": "https://dc.lft.to/lastmile_qr_scan", "android": "https://dc.lft.to/lastmile_qr_scan"}, "type": "electric_scooter", "fusion_lat": 0.0, "lon": -77.03250033333333}, {"fusion_lon": 0.0, "bike_id": "2f8a4112e6eb9ca823f840578e242b55", "is_disabled": 0, "is_reserved": 0, "lat": 38.925667833333335, "name": "2f8a4112e6eb9ca823f840578e242b55", "rental_uris": {"ios": "https://dc.lft.to/lastmile_qr_scan", "android": "https://dc.lft.to/lastmile_qr_scan"}, "type": "electric_scooter", "fusion_lat": 0.0, "lon": -77.03783466666667}, {"fusion_lon": 0.0, "bike_id": "0abdb87f52a2f15362c50ea4c74f7025", "is_disabled": 0, "is_reserved": 0, "lat": 38.9143045, "name": "0abdb87f52a2f15362c50ea4c74f7025", "rental_uris": {"ios": "https://dc.lft.to/lastmile_qr_scan", "android": "https://dc.lft.to/lastmile_qr_scan"}, "type": "electric_scooter", "fusion_lat": 0.0, "lon": -77.018081}, {"fusion_lon": 0.0, "bike_id": "abbad7ddca778c0c446e009e65558fbd", "is_disabled": 0, "is_reserved": 0, "lat": 38.899489833333334, "name": "abbad7ddca778c0c446e009e65558fbd", "rental_uris": {"ios": "https://dc.lft.to/lastmile_qr_scan", "android": "https://dc.lft.to/lastmile_qr_scan"}, "type": "electric_scooter", "fusion_lat": 0.0, "lon": -77.04724983333334}, {"fusion_lon": 0.0, "bike_id": "d5a3f3522aa8b577262ff6732480ff63", "is_disabled": 0, "is_reserved": 0, "lat": 38.90417716666666, "name": "d5a3f3522aa8b577262ff6732480ff63", "rental_uris": {"ios": "https://dc.lft.to/lastmile_qr_scan", "android": "https://dc.lft.to/lastmile_qr_scan"}, "type": "electric_scooter", "fusion_lat": 0.0, "lon": -77.029444}, {"fusion_lon": 0.0, "bike_id": "85c4dddec57e4109881ff344c3934575", "is_disabled": 0, "is_reserved": 0, "lat": 38.906843, "name": "85c4dddec57e4109881ff344c3934575", "rental_uris": {"ios": "https://dc.lft.to/lastmile_qr_scan", "android": "https://dc.lft.to/lastmile_qr_scan"}, "type": "electric_scooter", "fusion_lat": 0.0, "lon": -76.980062}, {"fusion_lon": 0.0, "bike_id": "9a737131b1764cb6d04e91e6603b4b6e", "is_disabled": 0, "is_reserved": 0, "lat": 38.89950066666667, "name": "9a737131b1764cb6d04e91e6603b4b6e", "rental_uris": {"ios": "https://dc.lft.to/lastmile_qr_scan", "android": "https://dc.lft.to/lastmile_qr_scan"}, "type": "electric_scooter", "fusion_lat": 0.0, "lon": -77.045072}, {"fusion_lon": 0.0, "bike_id": "29ddd56c664d74493005a2de996662d4", "is_disabled": 0, "is_reserved": 0, "lat": 38.879449666666666, "name": "29ddd56c664d74493005a2de996662d4", "rental_uris": {"ios": "https://dc.lft.to/lastmile_qr_scan", "android": "https://dc.lft.to/lastmile_qr_scan"}, "type": "electric_scooter", "fusion_lat": 0.0, "lon": -77.01001183333334}, {"fusion_lon": 0.0, "bike_id": "d45f78df022f1a22c483163e8238c882", "is_disabled": 0, "is_reserved": 0, "lat": 38.876797833333335, "name": "d45f78df022f1a22c483163e8238c882", "rental_uris": {"ios": "https://dc.lft.to/lastmile_qr_scan", "android": "https://dc.lft.to/lastmile_qr_scan"}, "type": "electric_scooter", "fusion_lat": 0.0, "lon": -77.00733416666667}, {"fusion_lon": 0.0, "bike_id": "56bec0d056a78e1497bf63281e7de243", "is_disabled": 0, "is_reserved": 0, "lat": 38.918569, "name": "56bec0d056a78e1497bf63281e7de243", "rental_uris": {"ios": "https://dc.lft.to/lastmile_qr_scan", "android": "https://dc.lft.to/lastmile_qr_scan"}, "type": "electric_scooter", "fusion_lat": 0.0, "lon": -77.02539816666666}, {"fusion_lon": 0.0, "bike_id": "5b12f0f026c43da8f8e6ed45c1f80bf2", "is_disabled": 0, "is_reserved": 0, "lat": 38.87889216666667, "name": "5b12f0f026c43da8f8e6ed45c1f80bf2", "rental_uris": {"ios": "https://dc.lft.to/lastmile_qr_scan", "android": "https://dc.lft.to/lastmile_qr_scan"}, "type": "electric_scooter", "fusion_lat": 0.0, "lon": -76.96542433333333}, {"fusion_lon": 0.0, "bike_id": "aaf85f7e11fa0cc28c8315352728c994", "is_disabled": 0, "is_reserved": 0, "lat": 38.9331805, "name": "aaf85f7e11fa0cc28c8315352728c994", "rental_uris": {"ios": "https://dc.lft.to/lastmile_qr_scan", "android": "https://dc.lft.to/lastmile_qr_scan"}, "type": "electric_scooter", "fusion_lat": 0.0, "lon": -77.02912383333333}, {"fusion_lon": 0.0, "bike_id": "8dbe2f57faebbb70c6e639c08b6b260e", "is_disabled": 0, "is_reserved": 0, "lat": 38.923301333333335, "name": "8dbe2f57faebbb70c6e639c08b6b260e", "rental_uris": {"ios": "https://dc.lft.to/lastmile_qr_scan", "android": "https://dc.lft.to/lastmile_qr_scan"}, "type": "electric_scooter", "fusion_lat": 0.0, "lon": -77.00891}, {"fusion_lon": 0.0, "bike_id": "1c0b62ea44ed9dfce79e8880dd9a6663", "is_disabled": 0, "is_reserved": 0, "lat": 38.88527833333333, "name": "1c0b62ea44ed9dfce79e8880dd9a6663", "rental_uris": {"ios": "https://dc.lft.to/lastmile_qr_scan", "android": "https://dc.lft.to/lastmile_qr_scan"}, "type": "electric_scooter", "fusion_lat": 0.0, "lon": -76.977127}, {"fusion_lon": 0.0, "bike_id": "3750d879e1f8be016f816095fdc08469", "is_disabled": 0, "is_reserved": 0, "lat": 38.919366333333336, "name": "3750d879e1f8be016f816095fdc08469", "rental_uris": {"ios": "https://dc.lft.to/lastmile_qr_scan", "android": "https://dc.lft.to/lastmile_qr_scan"}, "type": "electric_scooter", "fusion_lat": 0.0, "lon": -77.04630633333333}, {"fusion_lon": 0.0, "bike_id": "114b1fa5b462dfa6b3c71d82865249df", "is_disabled": 0, "is_reserved": 0, "lat": 38.922467166666664, "name": "114b1fa5b462dfa6b3c71d82865249df", "rental_uris": {"ios": "https://dc.lft.to/lastmile_qr_scan", "android": "https://dc.lft.to/lastmile_qr_scan"}, "type": "electric_scooter", "fusion_lat": 0.0, "lon": -77.03383766666667}, {"fusion_lon": 0.0, "bike_id": "0ae0ec5070411dc80f3b4d32fa07c131", "is_disabled": 0, "is_reserved": 0, "lat": 38.87791516666667, "name": "0ae0ec5070411dc80f3b4d32fa07c131", "rental_uris": {"ios": "https://dc.lft.to/lastmile_qr_scan", "android": "https://dc.lft.to/lastmile_qr_scan"}, "type": "electric_scooter", "fusion_lat": 0.0, "lon": -76.99608416666666}, {"fusion_lon": 0.0, "bike_id": "1b48f51681f58d9b1ec0ad8278de0b38", "is_disabled": 0, "is_reserved": 0, "lat": 38.91894, "name": "1b48f51681f58d9b1ec0ad8278de0b38", "rental_uris": {"ios": "https://dc.lft.to/lastmile_qr_scan", "android": "https://dc.lft.to/lastmile_qr_scan"}, "type": "electric_scooter", "fusion_lat": 0.0, "lon": -76.9690035}, {"fusion_lon": 0.0, "bike_id": "c4baa1820ed6ca1ff17d4468b615c483", "is_disabled": 0, "is_reserved": 0, "lat": 38.924059166666666, "name": "c4baa1820ed6ca1ff17d4468b615c483", "rental_uris": {"ios": "https://dc.lft.to/lastmile_qr_scan", "android": "https://dc.lft.to/lastmile_qr_scan"}, "type": "electric_scooter", "fusion_lat": 0.0, "lon": -77.04047733333333}, {"fusion_lon": 0.0, "bike_id": "9a2f95213e3b0191653a7f2740505e48", "is_disabled": 0, "is_reserved": 0, "lat": 38.91955333333333, "name": "9a2f95213e3b0191653a7f2740505e48", "rental_uris": {"ios": "https://dc.lft.to/lastmile_qr_scan", "android": "https://dc.lft.to/lastmile_qr_scan"}, "type": "electric_scooter", "fusion_lat": 0.0, "lon": -77.0252785}, {"fusion_lon": 0.0, "bike_id": "4e29876092e9782902067a13c1af529a", "is_disabled": 0, "is_reserved": 0, "lat": 38.9069795, "name": "4e29876092e9782902067a13c1af529a", "rental_uris": {"ios": "https://dc.lft.to/lastmile_qr_scan", "android": "https://dc.lft.to/lastmile_qr_scan"}, "type": "electric_scooter", "fusion_lat": 0.0, "lon": -77.027195}, {"fusion_lon": 0.0, "bike_id": "849ee902da58fcbf657ab32e3bc649af", "is_disabled": 0, "is_reserved": 0, "lat": 38.919877666666665, "name": "849ee902da58fcbf657ab32e3bc649af", "rental_uris": {"ios": "https://dc.lft.to/lastmile_qr_scan", "android": "https://dc.lft.to/lastmile_qr_scan"}, "type": "electric_scooter", "fusion_lat": 0.0, "lon": -77.041753}, {"fusion_lon": 0.0, "bike_id": "04c5129720901ff04774162cfcf1813c", "is_disabled": 0, "is_reserved": 0, "lat": 38.9246485, "name": "04c5129720901ff04774162cfcf1813c", "rental_uris": {"ios": "https://dc.lft.to/lastmile_qr_scan", "android": "https://dc.lft.to/lastmile_qr_scan"}, "type": "electric_scooter", "fusion_lat": 0.0, "lon": -77.02243033333333}, {"fusion_lon": 0.0, "bike_id": "ebe702f4380fde20666c068bb99127d4", "is_disabled": 0, "is_reserved": 0, "lat": 38.88578833333333, "name": "ebe702f4380fde20666c068bb99127d4", "rental_uris": {"ios": "https://dc.lft.to/lastmile_qr_scan", "android": "https://dc.lft.to/lastmile_qr_scan"}, "type": "electric_scooter", "fusion_lat": 0.0, "lon": -76.9543635}, {"fusion_lon": 0.0, "bike_id": "a9ead8184a285807dba35260385f09bd", "is_disabled": 0, "is_reserved": 0, "lat": 38.91620533333333, "name": "a9ead8184a285807dba35260385f09bd", "rental_uris": {"ios": "https://dc.lft.to/lastmile_qr_scan", "android": "https://dc.lft.to/lastmile_qr_scan"}, "type": "electric_scooter", "fusion_lat": 0.0, "lon": -77.02805283333333}, {"fusion_lon": 0.0, "bike_id": "d9c846a805df2b76cc1810016e3fb412", "is_disabled": 0, "is_reserved": 0, "lat": 38.88854383333333, "name": "d9c846a805df2b76cc1810016e3fb412", "rental_uris": {"ios": "https://dc.lft.to/lastmile_qr_scan", "android": "https://dc.lft.to/lastmile_qr_scan"}, "type": "electric_scooter", "fusion_lat": 0.0, "lon": -76.97735666666667}, {"fusion_lon": 0.0, "bike_id": "340e3980b48bc9930768d12cd9648eb3", "is_disabled": 0, "is_reserved": 0, "lat": 38.91702633333333, "name": "340e3980b48bc9930768d12cd9648eb3", "rental_uris": {"ios": "https://dc.lft.to/lastmile_qr_scan", "android": "https://dc.lft.to/lastmile_qr_scan"}, "type": "electric_scooter", "fusion_lat": 0.0, "lon": -77.02295266666667}, {"fusion_lon": 0.0, "bike_id": "f2225b5866461157232e0882c7411140", "is_disabled": 0, "is_reserved": 0, "lat": 38.899839166666666, "name": "f2225b5866461157232e0882c7411140", "rental_uris": {"ios": "https://dc.lft.to/lastmile_qr_scan", "android": "https://dc.lft.to/lastmile_qr_scan"}, "type": "electric_scooter", "fusion_lat": 0.0, "lon": -77.041941}, {"fusion_lon": 0.0, "bike_id": "2b3201167ece9933e3bd5cb2e1a8e4f9", "is_disabled": 0, "is_reserved": 0, "lat": 38.92007616666667, "name": "2b3201167ece9933e3bd5cb2e1a8e4f9", "rental_uris": {"ios": "https://dc.lft.to/lastmile_qr_scan", "android": "https://dc.lft.to/lastmile_qr_scan"}, "type": "electric_scooter", "fusion_lat": 0.0, "lon": -77.03246166666666}, {"fusion_lon": 0.0, "bike_id": "2ef5a5dda6d364cde75226184515cb23", "is_disabled": 0, "is_reserved": 0, "lat": 38.9232995, "name": "2ef5a5dda6d364cde75226184515cb23", "rental_uris": {"ios": "https://dc.lft.to/lastmile_qr_scan", "android": "https://dc.lft.to/lastmile_qr_scan"}, "type": "electric_scooter", "fusion_lat": 0.0, "lon": -77.00889316666667}, {"fusion_lon": 0.0, "bike_id": "ad4fa85f5e36d2828ffa515aeebed27d", "is_disabled": 0, "is_reserved": 0, "lat": 38.9037005, "name": "ad4fa85f5e36d2828ffa515aeebed27d", "rental_uris": {"ios": "https://dc.lft.to/lastmile_qr_scan", "android": "https://dc.lft.to/lastmile_qr_scan"}, "type": "electric_scooter", "fusion_lat": 0.0, "lon": -77.05016333333333}, {"fusion_lon": 0.0, "bike_id": "beeae9274a07813d4f90d7f6519e1739", "is_disabled": 0, "is_reserved": 0, "lat": 38.916996833333336, "name": "beeae9274a07813d4f90d7f6519e1739", "rental_uris": {"ios": "https://dc.lft.to/lastmile_qr_scan", "android": "https://dc.lft.to/lastmile_qr_scan"}, "type": "electric_scooter", "fusion_lat": 0.0, "lon": -77.02726883333334}, {"fusion_lon": 0.0, "bike_id": "f6ccc46e0ebdc3de868d6a30e019bb8f", "is_disabled": 0, "is_reserved": 0, "lat": 38.91700266666667, "name": "f6ccc46e0ebdc3de868d6a30e019bb8f", "rental_uris": {"ios": "https://dc.lft.to/lastmile_qr_scan", "android": "https://dc.lft.to/lastmile_qr_scan"}, "type": "electric_scooter", "fusion_lat": 0.0, "lon": -77.027242}, {"fusion_lon": 0.0, "bike_id": "5e7471353a7d6bc8d373c3c44daffb4d", "is_disabled": 0, "is_reserved": 0, "lat": 38.91415633333333, "name": "5e7471353a7d6bc8d373c3c44daffb4d", "rental_uris": {"ios": "https://dc.lft.to/lastmile_qr_scan", "android": "https://dc.lft.to/lastmile_qr_scan"}, "type": "electric_scooter", "fusion_lat": 0.0, "lon": -77.00828316666667}, {"fusion_lon": 0.0, "bike_id": "add1ca150c2c7117601d7e8576b03e26", "is_disabled": 0, "is_reserved": 0, "lat": 38.887282666666664, "name": "add1ca150c2c7117601d7e8576b03e26", "rental_uris": {"ios": "https://dc.lft.to/lastmile_qr_scan", "android": "https://dc.lft.to/lastmile_qr_scan"}, "type": "electric_scooter", "fusion_lat": 0.0, "lon": -76.9837665}, {"fusion_lon": 0.0, "bike_id": "aa216326755134018183cc1578f6af01", "is_disabled": 0, "is_reserved": 0, "lat": 38.9216955, "name": "aa216326755134018183cc1578f6af01", "rental_uris": {"ios": "https://dc.lft.to/lastmile_qr_scan", "android": "https://dc.lft.to/lastmile_qr_scan"}, "type": "electric_scooter", "fusion_lat": 0.0, "lon": -77.0211265}, {"fusion_lon": 0.0, "bike_id": "1a21c6bc3d87cc5576ca7b53eaed6331", "is_disabled": 0, "is_reserved": 0, "lat": 38.89328483333333, "name": "1a21c6bc3d87cc5576ca7b53eaed6331", "rental_uris": {"ios": "https://dc.lft.to/lastmile_qr_scan", "android": "https://dc.lft.to/lastmile_qr_scan"}, "type": "electric_scooter", "fusion_lat": 0.0, "lon": -77.03368533333334}, {"fusion_lon": 0.0, "bike_id": "cdaf4d70580cd87ab4e6df4f9a14bf73", "is_disabled": 0, "is_reserved": 0, "lat": 38.93142116666667, "name": "cdaf4d70580cd87ab4e6df4f9a14bf73", "rental_uris": {"ios": "https://dc.lft.to/lastmile_qr_scan", "android": "https://dc.lft.to/lastmile_qr_scan"}, "type": "electric_scooter", "fusion_lat": 0.0, "lon": -77.07860316666667}, {"fusion_lon": 0.0, "bike_id": "1e76e83d97e3ec779ed8407733a21e11", "is_disabled": 0, "is_reserved": 0, "lat": 38.91546116666667, "name": "1e76e83d97e3ec779ed8407733a21e11", "rental_uris": {"ios": "https://dc.lft.to/lastmile_qr_scan", "android": "https://dc.lft.to/lastmile_qr_scan"}, "type": "electric_scooter", "fusion_lat": 0.0, "lon": -76.98507516666666}, {"fusion_lon": 0.0, "bike_id": "52787d2d24a9b3e9dae690c3a4c8550d", "is_disabled": 0, "is_reserved": 0, "lat": 38.90763966666667, "name": "52787d2d24a9b3e9dae690c3a4c8550d", "rental_uris": {"ios": "https://dc.lft.to/lastmile_qr_scan", "android": "https://dc.lft.to/lastmile_qr_scan"}, "type": "electric_scooter", "fusion_lat": 0.0, "lon": -77.045342}, {"fusion_lon": 0.0, "bike_id": "33fca4943741dcb13e359817c731de59", "is_disabled": 0, "is_reserved": 0, "lat": 38.903423, "name": "33fca4943741dcb13e359817c731de59", "rental_uris": {"ios": "https://dc.lft.to/lastmile_qr_scan", "android": "https://dc.lft.to/lastmile_qr_scan"}, "type": "electric_scooter", "fusion_lat": 0.0, "lon": -77.04649033333334}, {"fusion_lon": 0.0, "bike_id": "a5f2cd1cba0bd63ec5f69ac55e3d900b", "is_disabled": 0, "is_reserved": 0, "lat": 38.923356166666665, "name": "a5f2cd1cba0bd63ec5f69ac55e3d900b", "rental_uris": {"ios": "https://dc.lft.to/lastmile_qr_scan", "android": "https://dc.lft.to/lastmile_qr_scan"}, "type": "electric_scooter", "fusion_lat": 0.0, "lon": -77.02051916666667}, {"fusion_lon": 0.0, "bike_id": "c2f1ec6fb3ff1296866876f9674ee77e", "is_disabled": 0, "is_reserved": 0, "lat": 38.89337333333334, "name": "c2f1ec6fb3ff1296866876f9674ee77e", "rental_uris": {"ios": "https://dc.lft.to/lastmile_qr_scan", "android": "https://dc.lft.to/lastmile_qr_scan"}, "type": "electric_scooter", "fusion_lat": 0.0, "lon": -76.95059733333333}, {"fusion_lon": 0.0, "bike_id": "3d26c4d08f7c45d0840b3f036f66cafe", "is_disabled": 0, "is_reserved": 0, "lat": 38.937358, "name": "3d26c4d08f7c45d0840b3f036f66cafe", "rental_uris": {"ios": "https://dc.lft.to/lastmile_qr_scan", "android": "https://dc.lft.to/lastmile_qr_scan"}, "type": "electric_scooter", "fusion_lat": 0.0, "lon": -77.07358933333333}, {"fusion_lon": 0.0, "bike_id": "3f308642862a8524b08c42d87b2ed90d", "is_disabled": 0, "is_reserved": 0, "lat": 38.88883716666667, "name": "3f308642862a8524b08c42d87b2ed90d", "rental_uris": {"ios": "https://dc.lft.to/lastmile_qr_scan", "android": "https://dc.lft.to/lastmile_qr_scan"}, "type": "electric_scooter", "fusion_lat": 0.0, "lon": -76.99039666666667}, {"fusion_lon": 0.0, "bike_id": "8ad028854c2a99c88dbb9dd505bbe857", "is_disabled": 0, "is_reserved": 0, "lat": 38.927376333333335, "name": "8ad028854c2a99c88dbb9dd505bbe857", "rental_uris": {"ios": "https://dc.lft.to/lastmile_qr_scan", "android": "https://dc.lft.to/lastmile_qr_scan"}, "type": "electric_bike", "fusion_lat": 0.0, "lon": -76.99367716666667}, {"fusion_lon": 0.0, "bike_id": "cd89314d66a5890c8ee725896349013b", "is_disabled": 0, "is_reserved": 0, "lat": 38.9064265, "name": "cd89314d66a5890c8ee725896349013b", "rental_uris": {"ios": "https://dc.lft.to/lastmile_qr_scan", "android": "https://dc.lft.to/lastmile_qr_scan"}, "type": "electric_scooter", "fusion_lat": 0.0, "lon": -76.99490166666666}, {"fusion_lon": 0.0, "bike_id": "e83baadf80f2ebf22c1bd21334eff935", "is_disabled": 0, "is_reserved": 0, "lat": 39.02296833333333, "name": "e83baadf80f2ebf22c1bd21334eff935", "rental_uris": {"ios": "https://dc.lft.to/lastmile_qr_scan", "android": "https://dc.lft.to/lastmile_qr_scan"}, "type": "electric_bike", "fusion_lat": 0.0, "lon": -77.02106683333334}, {"fusion_lon": 0.0, "bike_id": "61b5299fb329571b76f39a93159a4d67", "is_disabled": 0, "is_reserved": 0, "lat": 38.9043915, "name": "61b5299fb329571b76f39a93159a4d67", "rental_uris": {"ios": "https://dc.lft.to/lastmile_qr_scan", "android": "https://dc.lft.to/lastmile_qr_scan"}, "type": "electric_scooter", "fusion_lat": 0.0, "lon": -77.02843766666666}, {"fusion_lon": 0.0, "bike_id": "572d10e63985930013e21b2b875f8e9e", "is_disabled": 0, "is_reserved": 0, "lat": 38.894277, "name": "572d10e63985930013e21b2b875f8e9e", "rental_uris": {"ios": "https://dc.lft.to/lastmile_qr_scan", "android": "https://dc.lft.to/lastmile_qr_scan"}, "type": "electric_bike", "fusion_lat": 0.0, "lon": -77.09448816666666}, {"fusion_lon": 0.0, "bike_id": "4382c5f900ee806e40b8872514d6f7fa", "is_disabled": 0, "is_reserved": 0, "lat": 38.896313166666665, "name": "4382c5f900ee806e40b8872514d6f7fa", "rental_uris": {"ios": "https://dc.lft.to/lastmile_qr_scan", "android": "https://dc.lft.to/lastmile_qr_scan"}, "type": "electric_scooter", "fusion_lat": 0.0, "lon": -77.0035055}, {"fusion_lon": 0.0, "bike_id": "a1e11f59beac98feab5890a3e6760050", "is_disabled": 0, "is_reserved": 0, "lat": 38.935541666666666, "name": "a1e11f59beac98feab5890a3e6760050", "rental_uris": {"ios": "https://dc.lft.to/lastmile_qr_scan", "android": "https://dc.lft.to/lastmile_qr_scan"}, "type": "electric_scooter", "fusion_lat": 0.0, "lon": -77.02516883333334}, {"fusion_lon": 0.0, "bike_id": "9247bf9e545e620dd54467712cbf64b7", "is_disabled": 0, "is_reserved": 0, "lat": 38.92950166666667, "name": "9247bf9e545e620dd54467712cbf64b7", "rental_uris": {"ios": "https://dc.lft.to/lastmile_qr_scan", "android": "https://dc.lft.to/lastmile_qr_scan"}, "type": "electric_scooter", "fusion_lat": 0.0, "lon": -77.05507533333333}, {"fusion_lon": 0.0, "bike_id": "1b30962d041baad7019e453a45ab79db", "is_disabled": 0, "is_reserved": 0, "lat": 38.913428833333334, "name": "1b30962d041baad7019e453a45ab79db", "rental_uris": {"ios": "https://dc.lft.to/lastmile_qr_scan", "android": "https://dc.lft.to/lastmile_qr_scan"}, "type": "electric_scooter", "fusion_lat": 0.0, "lon": -77.02197633333333}, {"fusion_lon": 0.0, "bike_id": "f5e440bfb55486964686861d84e04f85", "is_disabled": 0, "is_reserved": 0, "lat": 38.97477633333333, "name": "f5e440bfb55486964686861d84e04f85", "rental_uris": {"ios": "https://dc.lft.to/lastmile_qr_scan", "android": "https://dc.lft.to/lastmile_qr_scan"}, "type": "electric_bike", "fusion_lat": 0.0, "lon": -76.9867365}, {"fusion_lon": 0.0, "bike_id": "8e233e67df7736bc5d0c99916ac6a9aa", "is_disabled": 0, "is_reserved": 0, "lat": 38.927915, "name": "8e233e67df7736bc5d0c99916ac6a9aa", "rental_uris": {"ios": "https://dc.lft.to/lastmile_qr_scan", "android": "https://dc.lft.to/lastmile_qr_scan"}, "type": "electric_scooter", "fusion_lat": 0.0, "lon": -77.03626933333334}, {"fusion_lon": 0.0, "bike_id": "e60741e0a6d8926f043493a2730993d0", "is_disabled": 0, "is_reserved": 0, "lat": 38.898192333333334, "name": "e60741e0a6d8926f043493a2730993d0", "rental_uris": {"ios": "https://dc.lft.to/lastmile_qr_scan", "android": "https://dc.lft.to/lastmile_qr_scan"}, "type": "electric_scooter", "fusion_lat": 0.0, "lon": -77.03129216666666}, {"fusion_lon": 0.0, "bike_id": "c60e97fe4cefd283708d49c2a8f92200", "is_disabled": 0, "is_reserved": 0, "lat": 38.805084666666666, "name": "c60e97fe4cefd283708d49c2a8f92200", "rental_uris": {"ios": "https://dc.lft.to/lastmile_qr_scan", "android": "https://dc.lft.to/lastmile_qr_scan"}, "type": "electric_bike", "fusion_lat": 0.0, "lon": -77.04810133333334}, {"fusion_lon": 0.0, "bike_id": "122c72c8579b41ddc60777af52954813", "is_disabled": 0, "is_reserved": 0, "lat": 38.921513, "name": "122c72c8579b41ddc60777af52954813", "rental_uris": {"ios": "https://dc.lft.to/lastmile_qr_scan", "android": "https://dc.lft.to/lastmile_qr_scan"}, "type": "electric_scooter", "fusion_lat": 0.0, "lon": -77.02073433333334}, {"fusion_lon": 0.0, "bike_id": "5ebb117f061c951cbc9053192332efdc", "is_disabled": 0, "is_reserved": 0, "lat": 38.893769166666665, "name": "5ebb117f061c951cbc9053192332efdc", "rental_uris": {"ios": "https://dc.lft.to/lastmile_qr_scan", "android": "https://dc.lft.to/lastmile_qr_scan"}, "type": "electric_scooter", "fusion_lat": 0.0, "lon": -77.02454816666666}, {"fusion_lon": 0.0, "bike_id": "52ad9e4f7ec16b2e188451c7b63af85e", "is_disabled": 0, "is_reserved": 0, "lat": 38.927976, "name": "52ad9e4f7ec16b2e188451c7b63af85e", "rental_uris": {"ios": "https://dc.lft.to/lastmile_qr_scan", "android": "https://dc.lft.to/lastmile_qr_scan"}, "type": "electric_scooter", "fusion_lat": 0.0, "lon": -77.026015}, {"fusion_lon": 0.0, "bike_id": "da3077fcc799ab2b8b3d7359bb8b7e3b", "is_disabled": 0, "is_reserved": 0, "lat": 38.90508416666667, "name": "da3077fcc799ab2b8b3d7359bb8b7e3b", "rental_uris": {"ios": "https://dc.lft.to/lastmile_qr_scan", "android": "https://dc.lft.to/lastmile_qr_scan"}, "type": "electric_scooter", "fusion_lat": 0.0, "lon": -77.06524933333333}, {"fusion_lon": 0.0, "bike_id": "0d3250c625170b49b1df0141dfcb32d5", "is_disabled": 0, "is_reserved": 0, "lat": 38.8982615, "name": "0d3250c625170b49b1df0141dfcb32d5", "rental_uris": {"ios": "https://dc.lft.to/lastmile_qr_scan", "android": "https://dc.lft.to/lastmile_qr_scan"}, "type": "electric_scooter", "fusion_lat": 0.0, "lon": -77.04614583333333}, {"fusion_lon": 0.0, "bike_id": "218527be05a51ae915476811bc078120", "is_disabled": 0, "is_reserved": 0, "lat": 38.899158666666665, "name": "218527be05a51ae915476811bc078120", "rental_uris": {"ios": "https://dc.lft.to/lastmile_qr_scan", "android": "https://dc.lft.to/lastmile_qr_scan"}, "type": "electric_scooter", "fusion_lat": 0.0, "lon": -77.02322733333334}, {"fusion_lon": 0.0, "bike_id": "7fbb9916aea3bf99ab992bc091bbd844", "is_disabled": 0, "is_reserved": 0, "lat": 38.91058316666667, "name": "7fbb9916aea3bf99ab992bc091bbd844", "rental_uris": {"ios": "https://dc.lft.to/lastmile_qr_scan", "android": "https://dc.lft.to/lastmile_qr_scan"}, "type": "electric_scooter", "fusion_lat": 0.0, "lon": -77.04112666666667}, {"fusion_lon": 0.0, "bike_id": "5e11ed6c5ba22ea5973123adabe2da05", "is_disabled": 0, "is_reserved": 0, "lat": 38.9167945, "name": "5e11ed6c5ba22ea5973123adabe2da05", "rental_uris": {"ios": "https://dc.lft.to/lastmile_qr_scan", "android": "https://dc.lft.to/lastmile_qr_scan"}, "type": "electric_scooter", "fusion_lat": 0.0, "lon": -77.03462183333333}, {"fusion_lon": 0.0, "bike_id": "04cc18fee8c71ed981f053d1455a559b", "is_disabled": 0, "is_reserved": 0, "lat": 38.92000083333333, "name": "04cc18fee8c71ed981f053d1455a559b", "rental_uris": {"ios": "https://dc.lft.to/lastmile_qr_scan", "android": "https://dc.lft.to/lastmile_qr_scan"}, "type": "electric_scooter", "fusion_lat": 0.0, "lon": -77.0327985}, {"fusion_lon": 0.0, "bike_id": "0f9c21009e8beb1f496507df8143c70a", "is_disabled": 0, "is_reserved": 0, "lat": 38.90402533333334, "name": "0f9c21009e8beb1f496507df8143c70a", "rental_uris": {"ios": "https://dc.lft.to/lastmile_qr_scan", "android": "https://dc.lft.to/lastmile_qr_scan"}, "type": "electric_scooter", "fusion_lat": 0.0, "lon": -77.04348566666667}, {"fusion_lon": 0.0, "bike_id": "c49c5655154dd57fcb3a66ead28eda92", "is_disabled": 0, "is_reserved": 0, "lat": 38.93067216666667, "name": "c49c5655154dd57fcb3a66ead28eda92", "rental_uris": {"ios": "https://dc.lft.to/lastmile_qr_scan", "android": "https://dc.lft.to/lastmile_qr_scan"}, "type": "electric_scooter", "fusion_lat": 0.0, "lon": -77.03951183333334}, {"fusion_lon": 0.0, "bike_id": "cf543524f6c6e055471f02d0b0586bf8", "is_disabled": 0, "is_reserved": 0, "lat": 38.922329833333336, "name": "cf543524f6c6e055471f02d0b0586bf8", "rental_uris": {"ios": "https://dc.lft.to/lastmile_qr_scan", "android": "https://dc.lft.to/lastmile_qr_scan"}, "type": "electric_scooter", "fusion_lat": 0.0, "lon": -77.04249666666666}, {"fusion_lon": 0.0, "bike_id": "6b7ffdbbe1d0cf1c36ecc5036bff5a23", "is_disabled": 0, "is_reserved": 0, "lat": 38.906958833333334, "name": "6b7ffdbbe1d0cf1c36ecc5036bff5a23", "rental_uris": {"ios": "https://dc.lft.to/lastmile_qr_scan", "android": "https://dc.lft.to/lastmile_qr_scan"}, "type": "electric_scooter", "fusion_lat": 0.0, "lon": -77.02717016666666}, {"fusion_lon": 0.0, "bike_id": "8c18221cad97c6a7d50ea975d8846ea1", "is_disabled": 0, "is_reserved": 0, "lat": 38.952596, "name": "8c18221cad97c6a7d50ea975d8846ea1", "rental_uris": {"ios": "https://dc.lft.to/lastmile_qr_scan", "android": "https://dc.lft.to/lastmile_qr_scan"}, "type": "electric_scooter", "fusion_lat": 0.0, "lon": -77.02079816666667}, {"fusion_lon": 0.0, "bike_id": "4c7f2be11eb2d0cac404798e0104c700", "is_disabled": 0, "is_reserved": 0, "lat": 38.912548666666666, "name": "4c7f2be11eb2d0cac404798e0104c700", "rental_uris": {"ios": "https://dc.lft.to/lastmile_qr_scan", "android": "https://dc.lft.to/lastmile_qr_scan"}, "type": "electric_scooter", "fusion_lat": 0.0, "lon": -77.028106}, {"fusion_lon": 0.0, "bike_id": "e0afa1058a29ca000d975e999c979df5", "is_disabled": 0, "is_reserved": 0, "lat": 38.917533, "name": "e0afa1058a29ca000d975e999c979df5", "rental_uris": {"ios": "https://dc.lft.to/lastmile_qr_scan", "android": "https://dc.lft.to/lastmile_qr_scan"}, "type": "electric_scooter", "fusion_lat": 0.0, "lon": -77.02120816666667}, {"fusion_lon": 0.0, "bike_id": "d22e994d9b27340353998cc77ec9b37a", "is_disabled": 0, "is_reserved": 0, "lat": 38.91115966666667, "name": "d22e994d9b27340353998cc77ec9b37a", "rental_uris": {"ios": "https://dc.lft.to/lastmile_qr_scan", "android": "https://dc.lft.to/lastmile_qr_scan"}, "type": "electric_scooter", "fusion_lat": 0.0, "lon": -77.01165916666666}, {"fusion_lon": 0.0, "bike_id": "91fbac93c76048ed6ad10c898e7173a3", "is_disabled": 0, "is_reserved": 0, "lat": 38.904587666666664, "name": "91fbac93c76048ed6ad10c898e7173a3", "rental_uris": {"ios": "https://dc.lft.to/lastmile_qr_scan", "android": "https://dc.lft.to/lastmile_qr_scan"}, "type": "electric_scooter", "fusion_lat": 0.0, "lon": -77.02884}, {"fusion_lon": 0.0, "bike_id": "79dc06b9645a7e171843910f385a0b06", "is_disabled": 0, "is_reserved": 0, "lat": 38.86827016666667, "name": "79dc06b9645a7e171843910f385a0b06", "rental_uris": {"ios": "https://dc.lft.to/lastmile_qr_scan", "android": "https://dc.lft.to/lastmile_qr_scan"}, "type": "electric_bike", "fusion_lat": 0.0, "lon": -76.98027866666666}, {"fusion_lon": 0.0, "bike_id": "d5c1f1e57434a3251ef4f7ed207ebb74", "is_disabled": 0, "is_reserved": 0, "lat": 38.930519833333335, "name": "d5c1f1e57434a3251ef4f7ed207ebb74", "rental_uris": {"ios": "https://dc.lft.to/lastmile_qr_scan", "android": "https://dc.lft.to/lastmile_qr_scan"}, "type": "electric_scooter", "fusion_lat": 0.0, "lon": -77.055638}, {"fusion_lon": 0.0, "bike_id": "eca6dbc9aa3811cf02ffca67c93b3e7f", "is_disabled": 0, "is_reserved": 0, "lat": 38.9297185, "name": "eca6dbc9aa3811cf02ffca67c93b3e7f", "rental_uris": {"ios": "https://dc.lft.to/lastmile_qr_scan", "android": "https://dc.lft.to/lastmile_qr_scan"}, "type": "electric_scooter", "fusion_lat": 0.0, "lon": -77.04031366666666}, {"fusion_lon": 0.0, "bike_id": "f141815838dca5a7a7526ea8d94d4582", "is_disabled": 0, "is_reserved": 0, "lat": 38.91421883333334, "name": "f141815838dca5a7a7526ea8d94d4582", "rental_uris": {"ios": "https://dc.lft.to/lastmile_qr_scan", "android": "https://dc.lft.to/lastmile_qr_scan"}, "type": "electric_scooter", "fusion_lat": 0.0, "lon": -77.0223075}, {"fusion_lon": 0.0, "bike_id": "3d1dfc87420c0526c2ea6f3008dad15d", "is_disabled": 0, "is_reserved": 0, "lat": 38.985381333333336, "name": "3d1dfc87420c0526c2ea6f3008dad15d", "rental_uris": {"ios": "https://dc.lft.to/lastmile_qr_scan", "android": "https://dc.lft.to/lastmile_qr_scan"}, "type": "electric_bike", "fusion_lat": 0.0, "lon": -77.0041545}, {"fusion_lon": 0.0, "bike_id": "0631ded65f768d5f4c86c24b52caa722", "is_disabled": 0, "is_reserved": 0, "lat": 38.916221166666666, "name": "0631ded65f768d5f4c86c24b52caa722", "rental_uris": {"ios": "https://dc.lft.to/lastmile_qr_scan", "android": "https://dc.lft.to/lastmile_qr_scan"}, "type": "electric_scooter", "fusion_lat": 0.0, "lon": -77.0374815}, {"fusion_lon": 0.0, "bike_id": "1e9c4c0d154e780a8d5e03e88873d93b", "is_disabled": 0, "is_reserved": 0, "lat": 38.896704166666666, "name": "1e9c4c0d154e780a8d5e03e88873d93b", "rental_uris": {"ios": "https://dc.lft.to/lastmile_qr_scan", "android": "https://dc.lft.to/lastmile_qr_scan"}, "type": "electric_scooter", "fusion_lat": 0.0, "lon": -76.9321285}, {"fusion_lon": 0.0, "bike_id": "a35cf5fa8fb0e6068c092e97ad72bf0f", "is_disabled": 0, "is_reserved": 0, "lat": 38.899747833333336, "name": "a35cf5fa8fb0e6068c092e97ad72bf0f", "rental_uris": {"ios": "https://dc.lft.to/lastmile_qr_scan", "android": "https://dc.lft.to/lastmile_qr_scan"}, "type": "electric_scooter", "fusion_lat": 0.0, "lon": -77.04541183333333}, {"fusion_lon": 0.0, "bike_id": "2f1773a105b6f28b8579e137e1328c1f", "is_disabled": 0, "is_reserved": 0, "lat": 38.91841016666667, "name": "2f1773a105b6f28b8579e137e1328c1f", "rental_uris": {"ios": "https://dc.lft.to/lastmile_qr_scan", "android": "https://dc.lft.to/lastmile_qr_scan"}, "type": "electric_scooter", "fusion_lat": 0.0, "lon": -77.041781}, {"fusion_lon": 0.0, "bike_id": "53094d53f75604feda6d801bd25be7d6", "is_disabled": 0, "is_reserved": 0, "lat": 38.92208216666667, "name": "53094d53f75604feda6d801bd25be7d6", "rental_uris": {"ios": "https://dc.lft.to/lastmile_qr_scan", "android": "https://dc.lft.to/lastmile_qr_scan"}, "type": "electric_scooter", "fusion_lat": 0.0, "lon": -77.03895266666666}, {"fusion_lon": 0.0, "bike_id": "58687cc63c9238709765c2e9dbc556c1", "is_disabled": 0, "is_reserved": 0, "lat": 38.89839166666667, "name": "58687cc63c9238709765c2e9dbc556c1", "rental_uris": {"ios": "https://dc.lft.to/lastmile_qr_scan", "android": "https://dc.lft.to/lastmile_qr_scan"}, "type": "electric_scooter", "fusion_lat": 0.0, "lon": -77.05035033333333}, {"fusion_lon": 0.0, "bike_id": "5bf4db405542343315325ece95933401", "is_disabled": 0, "is_reserved": 0, "lat": 38.9206275, "name": "5bf4db405542343315325ece95933401", "rental_uris": {"ios": "https://dc.lft.to/lastmile_qr_scan", "android": "https://dc.lft.to/lastmile_qr_scan"}, "type": "electric_scooter", "fusion_lat": 0.0, "lon": -77.04190866666667}, {"fusion_lon": 0.0, "bike_id": "e69fef324611138bdf1315b00193badb", "is_disabled": 0, "is_reserved": 0, "lat": 38.935225333333335, "name": "e69fef324611138bdf1315b00193badb", "rental_uris": {"ios": "https://dc.lft.to/lastmile_qr_scan", "android": "https://dc.lft.to/lastmile_qr_scan"}, "type": "electric_scooter", "fusion_lat": 0.0, "lon": -77.03368633333334}, {"fusion_lon": 0.0, "bike_id": "23172c23161b2a699625be57dccc9546", "is_disabled": 0, "is_reserved": 0, "lat": 38.9188135, "name": "23172c23161b2a699625be57dccc9546", "rental_uris": {"ios": "https://dc.lft.to/lastmile_qr_scan", "android": "https://dc.lft.to/lastmile_qr_scan"}, "type": "electric_scooter", "fusion_lat": 0.0, "lon": -77.03507733333333}, {"fusion_lon": 0.0, "bike_id": "19435fa7df8621d814807856b9234354", "is_disabled": 0, "is_reserved": 0, "lat": 38.87547966666666, "name": "19435fa7df8621d814807856b9234354", "rental_uris": {"ios": "https://dc.lft.to/lastmile_qr_scan", "android": "https://dc.lft.to/lastmile_qr_scan"}, "type": "electric_scooter", "fusion_lat": 0.0, "lon": -77.00539616666667}, {"fusion_lon": 0.0, "bike_id": "0534d4f8dcdecf9a8ff05eee1d7f6090", "is_disabled": 0, "is_reserved": 0, "lat": 38.933186666666664, "name": "0534d4f8dcdecf9a8ff05eee1d7f6090", "rental_uris": {"ios": "https://dc.lft.to/lastmile_qr_scan", "android": "https://dc.lft.to/lastmile_qr_scan"}, "type": "electric_scooter", "fusion_lat": 0.0, "lon": -77.03436783333333}, {"fusion_lon": 0.0, "bike_id": "d4e35d7809024af63d69be6b631c7b5d", "is_disabled": 0, "is_reserved": 0, "lat": 38.91697683333334, "name": "d4e35d7809024af63d69be6b631c7b5d", "rental_uris": {"ios": "https://dc.lft.to/lastmile_qr_scan", "android": "https://dc.lft.to/lastmile_qr_scan"}, "type": "electric_scooter", "fusion_lat": 0.0, "lon": -77.03774483333333}, {"fusion_lon": 0.0, "bike_id": "153b95ef533027bf9c0ac211954dae2f", "is_disabled": 0, "is_reserved": 0, "lat": 38.9073815, "name": "153b95ef533027bf9c0ac211954dae2f", "rental_uris": {"ios": "https://dc.lft.to/lastmile_qr_scan", "android": "https://dc.lft.to/lastmile_qr_scan"}, "type": "electric_scooter", "fusion_lat": 0.0, "lon": -77.0218605}, {"fusion_lon": 0.0, "bike_id": "a62a26c8e24780d6c095621e5815df87", "is_disabled": 0, "is_reserved": 0, "lat": 38.94473833333333, "name": "a62a26c8e24780d6c095621e5815df87", "rental_uris": {"ios": "https://dc.lft.to/lastmile_qr_scan", "android": "https://dc.lft.to/lastmile_qr_scan"}, "type": "electric_scooter", "fusion_lat": 0.0, "lon": -77.0232055}, {"fusion_lon": 0.0, "bike_id": "30ada13b835a3c2882c4d95232eaee9f", "is_disabled": 0, "is_reserved": 0, "lat": 38.9560835, "name": "30ada13b835a3c2882c4d95232eaee9f", "rental_uris": {"ios": "https://dc.lft.to/lastmile_qr_scan", "android": "https://dc.lft.to/lastmile_qr_scan"}, "type": "electric_scooter", "fusion_lat": 0.0, "lon": -77.0803655}, {"fusion_lon": 0.0, "bike_id": "e83ebdea6b5e7c31c49536c0be49ff40", "is_disabled": 0, "is_reserved": 0, "lat": 38.967391666666664, "name": "e83ebdea6b5e7c31c49536c0be49ff40", "rental_uris": {"ios": "https://dc.lft.to/lastmile_qr_scan", "android": "https://dc.lft.to/lastmile_qr_scan"}, "type": "electric_bike", "fusion_lat": 0.0, "lon": -76.96046416666667}, {"fusion_lon": 0.0, "bike_id": "962f799301ae4ac80f24feadcb16e63e", "is_disabled": 0, "is_reserved": 0, "lat": 38.973714333333334, "name": "962f799301ae4ac80f24feadcb16e63e", "rental_uris": {"ios": "https://dc.lft.to/lastmile_qr_scan", "android": "https://dc.lft.to/lastmile_qr_scan"}, "type": "electric_scooter", "fusion_lat": 0.0, "lon": -77.0186715}, {"fusion_lon": 0.0, "bike_id": "86554fc71a3d5ca03f8f11f12b84447b", "is_disabled": 0, "is_reserved": 0, "lat": 38.897149, "name": "86554fc71a3d5ca03f8f11f12b84447b", "rental_uris": {"ios": "https://dc.lft.to/lastmile_qr_scan", "android": "https://dc.lft.to/lastmile_qr_scan"}, "type": "electric_scooter", "fusion_lat": 0.0, "lon": -77.0218365}, {"fusion_lon": 0.0, "bike_id": "24421594df8576a2d9cdeb21ac8df554", "is_disabled": 0, "is_reserved": 0, "lat": 38.9025545, "name": "24421594df8576a2d9cdeb21ac8df554", "rental_uris": {"ios": "https://dc.lft.to/lastmile_qr_scan", "android": "https://dc.lft.to/lastmile_qr_scan"}, "type": "electric_scooter", "fusion_lat": 0.0, "lon": -77.051713}, {"fusion_lon": 0.0, "bike_id": "021432d78ee793a0b9ebeea497b16ed0", "is_disabled": 0, "is_reserved": 0, "lat": 38.902781, "name": "021432d78ee793a0b9ebeea497b16ed0", "rental_uris": {"ios": "https://dc.lft.to/lastmile_qr_scan", "android": "https://dc.lft.to/lastmile_qr_scan"}, "type": "electric_scooter", "fusion_lat": 0.0, "lon": -77.0460895}, {"fusion_lon": 0.0, "bike_id": "4bf3c204ac1a55204ae88437f61e2da4", "is_disabled": 0, "is_reserved": 0, "lat": 38.923404, "name": "4bf3c204ac1a55204ae88437f61e2da4", "rental_uris": {"ios": "https://dc.lft.to/lastmile_qr_scan", "android": "https://dc.lft.to/lastmile_qr_scan"}, "type": "electric_scooter", "fusion_lat": 0.0, "lon": -77.00917516666667}, {"fusion_lon": 0.0, "bike_id": "7363cb2cb149cad774c033af79d8c792", "is_disabled": 0, "is_reserved": 0, "lat": 38.884397166666666, "name": "7363cb2cb149cad774c033af79d8c792", "rental_uris": {"ios": "https://dc.lft.to/lastmile_qr_scan", "android": "https://dc.lft.to/lastmile_qr_scan"}, "type": "electric_scooter", "fusion_lat": 0.0, "lon": -77.03047266666667}, {"fusion_lon": 0.0, "bike_id": "568fd0984f96c96a4429f3ca44d3a19e", "is_disabled": 0, "is_reserved": 0, "lat": 38.907269166666666, "name": "568fd0984f96c96a4429f3ca44d3a19e", "rental_uris": {"ios": "https://dc.lft.to/lastmile_qr_scan", "android": "https://dc.lft.to/lastmile_qr_scan"}, "type": "electric_scooter", "fusion_lat": 0.0, "lon": -77.0254115}, {"fusion_lon": 0.0, "bike_id": "1a42b66d9d42dfcb09273dfac06587d5", "is_disabled": 0, "is_reserved": 0, "lat": 38.9403885, "name": "1a42b66d9d42dfcb09273dfac06587d5", "rental_uris": {"ios": "https://dc.lft.to/lastmile_qr_scan", "android": "https://dc.lft.to/lastmile_qr_scan"}, "type": "electric_scooter", "fusion_lat": 0.0, "lon": -77.0839545}, {"fusion_lon": 0.0, "bike_id": "237c220f959d26a201a7ee4c4a423982", "is_disabled": 0, "is_reserved": 0, "lat": 38.839153, "name": "237c220f959d26a201a7ee4c4a423982", "rental_uris": {"ios": "https://dc.lft.to/lastmile_qr_scan", "android": "https://dc.lft.to/lastmile_qr_scan"}, "type": "electric_bike", "fusion_lat": 0.0, "lon": -76.99840766666667}, {"fusion_lon": 0.0, "bike_id": "2202ad25788af903781a1ed02d902776", "is_disabled": 0, "is_reserved": 0, "lat": 38.912698666666664, "name": "2202ad25788af903781a1ed02d902776", "rental_uris": {"ios": "https://dc.lft.to/lastmile_qr_scan", "android": "https://dc.lft.to/lastmile_qr_scan"}, "type": "electric_scooter", "fusion_lat": 0.0, "lon": -77.01833616666667}, {"fusion_lon": 0.0, "bike_id": "7e799b29bb7ce6d13affe4f4a1bbeb87", "is_disabled": 0, "is_reserved": 0, "lat": 38.94377083333333, "name": "7e799b29bb7ce6d13affe4f4a1bbeb87", "rental_uris": {"ios": "https://dc.lft.to/lastmile_qr_scan", "android": "https://dc.lft.to/lastmile_qr_scan"}, "type": "electric_scooter", "fusion_lat": 0.0, "lon": -77.02591666666666}, {"fusion_lon": 0.0, "bike_id": "bcb198e0725e67782b1efac96bf4caaf", "is_disabled": 0, "is_reserved": 0, "lat": 38.927947833333334, "name": "bcb198e0725e67782b1efac96bf4caaf", "rental_uris": {"ios": "https://dc.lft.to/lastmile_qr_scan", "android": "https://dc.lft.to/lastmile_qr_scan"}, "type": "electric_scooter", "fusion_lat": 0.0, "lon": -77.03622716666666}, {"fusion_lon": 0.0, "bike_id": "301859024f543040fba9f2c8ff8469f8", "is_disabled": 0, "is_reserved": 0, "lat": 38.918143666666666, "name": "301859024f543040fba9f2c8ff8469f8", "rental_uris": {"ios": "https://dc.lft.to/lastmile_qr_scan", "android": "https://dc.lft.to/lastmile_qr_scan"}, "type": "electric_scooter", "fusion_lat": 0.0, "lon": -77.03440066666667}, {"fusion_lon": 0.0, "bike_id": "c11b7b7bb0607c15481799123a201a8c", "is_disabled": 0, "is_reserved": 0, "lat": 38.90819533333333, "name": "c11b7b7bb0607c15481799123a201a8c", "rental_uris": {"ios": "https://dc.lft.to/lastmile_qr_scan", "android": "https://dc.lft.to/lastmile_qr_scan"}, "type": "electric_scooter", "fusion_lat": 0.0, "lon": -77.04330583333333}, {"fusion_lon": 0.0, "bike_id": "1d2ede227ad2891db594ae38cd8238f8", "is_disabled": 0, "is_reserved": 0, "lat": 38.92472816666667, "name": "1d2ede227ad2891db594ae38cd8238f8", "rental_uris": {"ios": "https://dc.lft.to/lastmile_qr_scan", "android": "https://dc.lft.to/lastmile_qr_scan"}, "type": "electric_scooter", "fusion_lat": 0.0, "lon": -77.03544483333333}, {"fusion_lon": 0.0, "bike_id": "3adeda9c215c8c38cdd66c696bab037a", "is_disabled": 0, "is_reserved": 0, "lat": 38.918312666666665, "name": "3adeda9c215c8c38cdd66c696bab037a", "rental_uris": {"ios": "https://dc.lft.to/lastmile_qr_scan", "android": "https://dc.lft.to/lastmile_qr_scan"}, "type": "electric_scooter", "fusion_lat": 0.0, "lon": -77.04516633333333}, {"fusion_lon": 0.0, "bike_id": "a6716930243a4abffa9096da6ae0503b", "is_disabled": 0, "is_reserved": 0, "lat": 38.9024975, "name": "a6716930243a4abffa9096da6ae0503b", "rental_uris": {"ios": "https://dc.lft.to/lastmile_qr_scan", "android": "https://dc.lft.to/lastmile_qr_scan"}, "type": "electric_scooter", "fusion_lat": 0.0, "lon": -77.051694}, {"fusion_lon": 0.0, "bike_id": "e5634cc6c3a09afcbdbd2a90fc8b822f", "is_disabled": 0, "is_reserved": 0, "lat": 38.9142235, "name": "e5634cc6c3a09afcbdbd2a90fc8b822f", "rental_uris": {"ios": "https://dc.lft.to/lastmile_qr_scan", "android": "https://dc.lft.to/lastmile_qr_scan"}, "type": "electric_scooter", "fusion_lat": 0.0, "lon": -77.022161}, {"fusion_lon": 0.0, "bike_id": "9387a820b26321359bd25edf067fdcaf", "is_disabled": 0, "is_reserved": 0, "lat": 38.923592666666664, "name": "9387a820b26321359bd25edf067fdcaf", "rental_uris": {"ios": "https://dc.lft.to/lastmile_qr_scan", "android": "https://dc.lft.to/lastmile_qr_scan"}, "type": "electric_scooter", "fusion_lat": 0.0, "lon": -77.02061983333333}, {"fusion_lon": 0.0, "bike_id": "573cca7b96f71d691523153303e69cff", "is_disabled": 0, "is_reserved": 0, "lat": 38.92512033333333, "name": "573cca7b96f71d691523153303e69cff", "rental_uris": {"ios": "https://dc.lft.to/lastmile_qr_scan", "android": "https://dc.lft.to/lastmile_qr_scan"}, "type": "electric_scooter", "fusion_lat": 0.0, "lon": -77.03658833333333}, {"fusion_lon": 0.0, "bike_id": "3fa53abbc1843fe85dee98239dad33a7", "is_disabled": 0, "is_reserved": 0, "lat": 38.89224133333333, "name": "3fa53abbc1843fe85dee98239dad33a7", "rental_uris": {"ios": "https://dc.lft.to/lastmile_qr_scan", "android": "https://dc.lft.to/lastmile_qr_scan"}, "type": "electric_scooter", "fusion_lat": 0.0, "lon": -77.03990233333333}, {"fusion_lon": 0.0, "bike_id": "c7159aa518354e9772b0e56e3f631b47", "is_disabled": 0, "is_reserved": 0, "lat": 38.9232355, "name": "c7159aa518354e9772b0e56e3f631b47", "rental_uris": {"ios": "https://dc.lft.to/lastmile_qr_scan", "android": "https://dc.lft.to/lastmile_qr_scan"}, "type": "electric_scooter", "fusion_lat": 0.0, "lon": -77.03812316666667}, {"fusion_lon": 0.0, "bike_id": "af3b93aa8e3320d65ae45168108558ae", "is_disabled": 0, "is_reserved": 0, "lat": 38.89547316666667, "name": "af3b93aa8e3320d65ae45168108558ae", "rental_uris": {"ios": "https://dc.lft.to/lastmile_qr_scan", "android": "https://dc.lft.to/lastmile_qr_scan"}, "type": "electric_scooter", "fusion_lat": 0.0, "lon": -76.98339883333334}, {"fusion_lon": 0.0, "bike_id": "8db3858c6d43d8fe7b9e3f67db9e3bec", "is_disabled": 0, "is_reserved": 0, "lat": 38.9112035, "name": "8db3858c6d43d8fe7b9e3f67db9e3bec", "rental_uris": {"ios": "https://dc.lft.to/lastmile_qr_scan", "android": "https://dc.lft.to/lastmile_qr_scan"}, "type": "electric_scooter", "fusion_lat": 0.0, "lon": -77.03267266666667}, {"fusion_lon": 0.0, "bike_id": "b32d283179e331aefd133ae60f48de17", "is_disabled": 0, "is_reserved": 0, "lat": 38.928441, "name": "b32d283179e331aefd133ae60f48de17", "rental_uris": {"ios": "https://dc.lft.to/lastmile_qr_scan", "android": "https://dc.lft.to/lastmile_qr_scan"}, "type": "electric_scooter", "fusion_lat": 0.0, "lon": -77.014146}, {"fusion_lon": 0.0, "bike_id": "2c4b9abf7a798b85c26edda50a89653b", "is_disabled": 0, "is_reserved": 0, "lat": 38.9518715, "name": "2c4b9abf7a798b85c26edda50a89653b", "rental_uris": {"ios": "https://dc.lft.to/lastmile_qr_scan", "android": "https://dc.lft.to/lastmile_qr_scan"}, "type": "electric_bike", "fusion_lat": 0.0, "lon": -76.93548816666667}, {"fusion_lon": 0.0, "bike_id": "a8604cf38f259ddbd94ae0d33acd6848", "is_disabled": 0, "is_reserved": 0, "lat": 38.923784166666664, "name": "a8604cf38f259ddbd94ae0d33acd6848", "rental_uris": {"ios": "https://dc.lft.to/lastmile_qr_scan", "android": "https://dc.lft.to/lastmile_qr_scan"}, "type": "electric_scooter", "fusion_lat": 0.0, "lon": -77.0805905}, {"fusion_lon": 0.0, "bike_id": "47d65363f7ee8d4a5ec35de4f8bfd2c1", "is_disabled": 0, "is_reserved": 0, "lat": 38.9475765, "name": "47d65363f7ee8d4a5ec35de4f8bfd2c1", "rental_uris": {"ios": "https://dc.lft.to/lastmile_qr_scan", "android": "https://dc.lft.to/lastmile_qr_scan"}, "type": "electric_scooter", "fusion_lat": 0.0, "lon": -77.03292133333333}, {"fusion_lon": 0.0, "bike_id": "7f8d6019e887cacb920cf45e09bccfbc", "is_disabled": 0, "is_reserved": 0, "lat": 38.90014016666667, "name": "7f8d6019e887cacb920cf45e09bccfbc", "rental_uris": {"ios": "https://dc.lft.to/lastmile_qr_scan", "android": "https://dc.lft.to/lastmile_qr_scan"}, "type": "electric_scooter", "fusion_lat": 0.0, "lon": -77.04482366666667}, {"fusion_lon": 0.0, "bike_id": "6df80d590ee4ff1cf64fed57bc7d2d62", "is_disabled": 0, "is_reserved": 0, "lat": 38.88876066666667, "name": "6df80d590ee4ff1cf64fed57bc7d2d62", "rental_uris": {"ios": "https://dc.lft.to/lastmile_qr_scan", "android": "https://dc.lft.to/lastmile_qr_scan"}, "type": "electric_scooter", "fusion_lat": 0.0, "lon": -77.0000015}, {"fusion_lon": 0.0, "bike_id": "6821ee19ebe570b95f402bfec2791f9e", "is_disabled": 0, "is_reserved": 0, "lat": 38.909097333333335, "name": "6821ee19ebe570b95f402bfec2791f9e", "rental_uris": {"ios": "https://dc.lft.to/lastmile_qr_scan", "android": "https://dc.lft.to/lastmile_qr_scan"}, "type": "electric_bike", "fusion_lat": 0.0, "lon": -77.0900295}, {"fusion_lon": 0.0, "bike_id": "21994c1d27a339b542e6a1de9dff8251", "is_disabled": 0, "is_reserved": 0, "lat": 38.920132833333334, "name": "21994c1d27a339b542e6a1de9dff8251", "rental_uris": {"ios": "https://dc.lft.to/lastmile_qr_scan", "android": "https://dc.lft.to/lastmile_qr_scan"}, "type": "electric_scooter", "fusion_lat": 0.0, "lon": -77.071463}, {"fusion_lon": 0.0, "bike_id": "257367fc9c4387b43a50773303212ca0", "is_disabled": 0, "is_reserved": 0, "lat": 38.89511383333333, "name": "257367fc9c4387b43a50773303212ca0", "rental_uris": {"ios": "https://dc.lft.to/lastmile_qr_scan", "android": "https://dc.lft.to/lastmile_qr_scan"}, "type": "electric_scooter", "fusion_lat": 0.0, "lon": -77.02208133333333}, {"fusion_lon": 0.0, "bike_id": "8c16fcf4ec6591c9564e82e307a82661", "is_disabled": 0, "is_reserved": 0, "lat": 38.89497583333333, "name": "8c16fcf4ec6591c9564e82e307a82661", "rental_uris": {"ios": "https://dc.lft.to/lastmile_qr_scan", "android": "https://dc.lft.to/lastmile_qr_scan"}, "type": "electric_scooter", "fusion_lat": 0.0, "lon": -77.02323383333334}, {"fusion_lon": 0.0, "bike_id": "f27d1eafb78810b4d594a82a6bf22aa5", "is_disabled": 0, "is_reserved": 0, "lat": 38.96131616666667, "name": "f27d1eafb78810b4d594a82a6bf22aa5", "rental_uris": {"ios": "https://dc.lft.to/lastmile_qr_scan", "android": "https://dc.lft.to/lastmile_qr_scan"}, "type": "electric_bike", "fusion_lat": 0.0, "lon": -77.03275783333333}, {"fusion_lon": 0.0, "bike_id": "af3742531c4f529d26630f771e00d206", "is_disabled": 0, "is_reserved": 0, "lat": 38.879558, "name": "af3742531c4f529d26630f771e00d206", "rental_uris": {"ios": "https://dc.lft.to/lastmile_qr_scan", "android": "https://dc.lft.to/lastmile_qr_scan"}, "type": "electric_bike", "fusion_lat": 0.0, "lon": -76.93192533333334}, {"fusion_lon": 0.0, "bike_id": "181ed3c18f5d35aa70293b6075f11dc7", "is_disabled": 0, "is_reserved": 0, "lat": 38.92482033333334, "name": "181ed3c18f5d35aa70293b6075f11dc7", "rental_uris": {"ios": "https://dc.lft.to/lastmile_qr_scan", "android": "https://dc.lft.to/lastmile_qr_scan"}, "type": "electric_scooter", "fusion_lat": 0.0, "lon": -77.02553283333333}, {"fusion_lon": 0.0, "bike_id": "d058462e4ea5e435799f98f1b4df96fe", "is_disabled": 0, "is_reserved": 0, "lat": 38.88875383333333, "name": "d058462e4ea5e435799f98f1b4df96fe", "rental_uris": {"ios": "https://dc.lft.to/lastmile_qr_scan", "android": "https://dc.lft.to/lastmile_qr_scan"}, "type": "electric_bike", "fusion_lat": 0.0, "lon": -76.95704283333333}, {"fusion_lon": 0.0, "bike_id": "2f571e865eb2d1b9201043c965dc1346", "is_disabled": 0, "is_reserved": 0, "lat": 38.92834766666667, "name": "2f571e865eb2d1b9201043c965dc1346", "rental_uris": {"ios": "https://dc.lft.to/lastmile_qr_scan", "android": "https://dc.lft.to/lastmile_qr_scan"}, "type": "electric_scooter", "fusion_lat": 0.0, "lon": -77.0548685}, {"fusion_lon": 0.0, "bike_id": "2084fa98d0330564b158b6dbd6d3dd1a", "is_disabled": 0, "is_reserved": 0, "lat": 38.92362933333333, "name": "2084fa98d0330564b158b6dbd6d3dd1a", "rental_uris": {"ios": "https://dc.lft.to/lastmile_qr_scan", "android": "https://dc.lft.to/lastmile_qr_scan"}, "type": "electric_scooter", "fusion_lat": 0.0, "lon": -77.04318766666667}, {"fusion_lon": 0.0, "bike_id": "e3c8faca8201878b943947ef4d9351c5", "is_disabled": 0, "is_reserved": 0, "lat": 38.927578, "name": "e3c8faca8201878b943947ef4d9351c5", "rental_uris": {"ios": "https://dc.lft.to/lastmile_qr_scan", "android": "https://dc.lft.to/lastmile_qr_scan"}, "type": "electric_scooter", "fusion_lat": 0.0, "lon": -77.03302883333333}, {"fusion_lon": 0.0, "bike_id": "423cc06ed840f4ca964e49761cf25c52", "is_disabled": 0, "is_reserved": 0, "lat": 38.9073415, "name": "423cc06ed840f4ca964e49761cf25c52", "rental_uris": {"ios": "https://dc.lft.to/lastmile_qr_scan", "android": "https://dc.lft.to/lastmile_qr_scan"}, "type": "electric_scooter", "fusion_lat": 0.0, "lon": -77.0690395}, {"fusion_lon": 0.0, "bike_id": "e5bf52c5cca8f86feb8d81d6b547ee13", "is_disabled": 0, "is_reserved": 0, "lat": 38.902414, "name": "e5bf52c5cca8f86feb8d81d6b547ee13", "rental_uris": {"ios": "https://dc.lft.to/lastmile_qr_scan", "android": "https://dc.lft.to/lastmile_qr_scan"}, "type": "electric_scooter", "fusion_lat": 0.0, "lon": -77.05169633333334}, {"fusion_lon": 0.0, "bike_id": "150dd15e2986fe0f2d0e3f01d80413d8", "is_disabled": 0, "is_reserved": 0, "lat": 38.9211525, "name": "150dd15e2986fe0f2d0e3f01d80413d8", "rental_uris": {"ios": "https://dc.lft.to/lastmile_qr_scan", "android": "https://dc.lft.to/lastmile_qr_scan"}, "type": "electric_scooter", "fusion_lat": 0.0, "lon": -77.03186133333334}, {"fusion_lon": 0.0, "bike_id": "c624ddc7c8b5dce8d901dd69872cd7e5", "is_disabled": 0, "is_reserved": 0, "lat": 38.90815, "name": "c624ddc7c8b5dce8d901dd69872cd7e5", "rental_uris": {"ios": "https://dc.lft.to/lastmile_qr_scan", "android": "https://dc.lft.to/lastmile_qr_scan"}, "type": "electric_scooter", "fusion_lat": 0.0, "lon": -77.04167383333333}, {"fusion_lon": 0.0, "bike_id": "a72eb550143616c868989f0c27b4b1d5", "is_disabled": 0, "is_reserved": 0, "lat": 38.899181166666665, "name": "a72eb550143616c868989f0c27b4b1d5", "rental_uris": {"ios": "https://dc.lft.to/lastmile_qr_scan", "android": "https://dc.lft.to/lastmile_qr_scan"}, "type": "electric_scooter", "fusion_lat": 0.0, "lon": -76.93383383333334}, {"fusion_lon": 0.0, "bike_id": "542b9bda298bde845cd0a02c76d78ad1", "is_disabled": 0, "is_reserved": 0, "lat": 38.9103405, "name": "542b9bda298bde845cd0a02c76d78ad1", "rental_uris": {"ios": "https://dc.lft.to/lastmile_qr_scan", "android": "https://dc.lft.to/lastmile_qr_scan"}, "type": "electric_scooter", "fusion_lat": 0.0, "lon": -77.00756016666666}, {"fusion_lon": 0.0, "bike_id": "90651e10c8eb3c10beea628092f72c9b", "is_disabled": 0, "is_reserved": 0, "lat": 38.90573933333334, "name": "90651e10c8eb3c10beea628092f72c9b", "rental_uris": {"ios": "https://dc.lft.to/lastmile_qr_scan", "android": "https://dc.lft.to/lastmile_qr_scan"}, "type": "electric_scooter", "fusion_lat": 0.0, "lon": -77.03461383333334}, {"fusion_lon": 0.0, "bike_id": "105002fbc81c9b599639002aecda40bc", "is_disabled": 0, "is_reserved": 0, "lat": 38.95250933333333, "name": "105002fbc81c9b599639002aecda40bc", "rental_uris": {"ios": "https://dc.lft.to/lastmile_qr_scan", "android": "https://dc.lft.to/lastmile_qr_scan"}, "type": "electric_bike", "fusion_lat": 0.0, "lon": -77.0962615}, {"fusion_lon": 0.0, "bike_id": "8381b3ad71b858d442198e9749f09b81", "is_disabled": 0, "is_reserved": 0, "lat": 38.93608033333334, "name": "8381b3ad71b858d442198e9749f09b81", "rental_uris": {"ios": "https://dc.lft.to/lastmile_qr_scan", "android": "https://dc.lft.to/lastmile_qr_scan"}, "type": "electric_bike", "fusion_lat": 0.0, "lon": -77.002194}, {"fusion_lon": 0.0, "bike_id": "ecf1c7e400e9d53aa3f910ada57423c0", "is_disabled": 0, "is_reserved": 0, "lat": 38.91378783333333, "name": "ecf1c7e400e9d53aa3f910ada57423c0", "rental_uris": {"ios": "https://dc.lft.to/lastmile_qr_scan", "android": "https://dc.lft.to/lastmile_qr_scan"}, "type": "electric_scooter", "fusion_lat": 0.0, "lon": -77.0218785}, {"fusion_lon": 0.0, "bike_id": "247521afae1d14ff7c136ab7059d14c0", "is_disabled": 0, "is_reserved": 0, "lat": 38.8766155, "name": "247521afae1d14ff7c136ab7059d14c0", "rental_uris": {"ios": "https://dc.lft.to/lastmile_qr_scan", "android": "https://dc.lft.to/lastmile_qr_scan"}, "type": "electric_scooter", "fusion_lat": 0.0, "lon": -77.00292183333333}, {"fusion_lon": 0.0, "bike_id": "9ac5b3b67d7376c54dd28a43d69591d9", "is_disabled": 0, "is_reserved": 0, "lat": 38.921114, "name": "9ac5b3b67d7376c54dd28a43d69591d9", "rental_uris": {"ios": "https://dc.lft.to/lastmile_qr_scan", "android": "https://dc.lft.to/lastmile_qr_scan"}, "type": "electric_scooter", "fusion_lat": 0.0, "lon": -77.04204683333333}, {"fusion_lon": 0.0, "bike_id": "2d9c912e25f5ac00702dcce2c5a37622", "is_disabled": 0, "is_reserved": 0, "lat": 38.943775, "name": "2d9c912e25f5ac00702dcce2c5a37622", "rental_uris": {"ios": "https://dc.lft.to/lastmile_qr_scan", "android": "https://dc.lft.to/lastmile_qr_scan"}, "type": "electric_bike", "fusion_lat": 0.0, "lon": -77.07763483333333}, {"fusion_lon": 0.0, "bike_id": "4f49c0871bbb643f552cb655f3b14fe5", "is_disabled": 0, "is_reserved": 0, "lat": 38.84292683333334, "name": "4f49c0871bbb643f552cb655f3b14fe5", "rental_uris": {"ios": "https://dc.lft.to/lastmile_qr_scan", "android": "https://dc.lft.to/lastmile_qr_scan"}, "type": "electric_bike", "fusion_lat": 0.0, "lon": -77.06360666666667}, {"fusion_lon": 0.0, "bike_id": "7ecadf1f94a1b87e354593b123475c98", "is_disabled": 0, "is_reserved": 0, "lat": 38.92037833333333, "name": "7ecadf1f94a1b87e354593b123475c98", "rental_uris": {"ios": "https://dc.lft.to/lastmile_qr_scan", "android": "https://dc.lft.to/lastmile_qr_scan"}, "type": "electric_bike", "fusion_lat": 0.0, "lon": -76.9795485}, {"fusion_lon": 0.0, "bike_id": "f3dff10fd137dc6f7818becb32a16233", "is_disabled": 0, "is_reserved": 0, "lat": 38.923354333333336, "name": "f3dff10fd137dc6f7818becb32a16233", "rental_uris": {"ios": "https://dc.lft.to/lastmile_qr_scan", "android": "https://dc.lft.to/lastmile_qr_scan"}, "type": "electric_scooter", "fusion_lat": 0.0, "lon": -77.02801666666667}, {"fusion_lon": 0.0, "bike_id": "caeccb2f8416fdd4d94b9fef08a6d25a", "is_disabled": 0, "is_reserved": 0, "lat": 38.94306366666667, "name": "caeccb2f8416fdd4d94b9fef08a6d25a", "rental_uris": {"ios": "https://dc.lft.to/lastmile_qr_scan", "android": "https://dc.lft.to/lastmile_qr_scan"}, "type": "electric_scooter", "fusion_lat": 0.0, "lon": -77.02953216666667}, {"fusion_lon": 0.0, "bike_id": "8d041631393f9799e1006b7e194cc130", "is_disabled": 0, "is_reserved": 0, "lat": 38.89909516666667, "name": "8d041631393f9799e1006b7e194cc130", "rental_uris": {"ios": "https://dc.lft.to/lastmile_qr_scan", "android": "https://dc.lft.to/lastmile_qr_scan"}, "type": "electric_scooter", "fusion_lat": 0.0, "lon": -77.00349616666666}, {"fusion_lon": 0.0, "bike_id": "865a4423da7a7d5a7f9648f65625f828", "is_disabled": 0, "is_reserved": 0, "lat": 38.90139716666667, "name": "865a4423da7a7d5a7f9648f65625f828", "rental_uris": {"ios": "https://dc.lft.to/lastmile_qr_scan", "android": "https://dc.lft.to/lastmile_qr_scan"}, "type": "electric_scooter", "fusion_lat": 0.0, "lon": -77.04487616666667}, {"fusion_lon": 0.0, "bike_id": "d9b85389ee7ea76cabbb4a079078adc9", "is_disabled": 0, "is_reserved": 0, "lat": 38.9265085, "name": "d9b85389ee7ea76cabbb4a079078adc9", "rental_uris": {"ios": "https://dc.lft.to/lastmile_qr_scan", "android": "https://dc.lft.to/lastmile_qr_scan"}, "type": "electric_bike", "fusion_lat": 0.0, "lon": -77.09023316666666}, {"fusion_lon": 0.0, "bike_id": "e5472ae9f9655b21a06c9c97be98154f", "is_disabled": 0, "is_reserved": 0, "lat": 38.91629733333333, "name": "e5472ae9f9655b21a06c9c97be98154f", "rental_uris": {"ios": "https://dc.lft.to/lastmile_qr_scan", "android": "https://dc.lft.to/lastmile_qr_scan"}, "type": "electric_scooter", "fusion_lat": 0.0, "lon": -77.00506816666666}, {"fusion_lon": 0.0, "bike_id": "50fa95712934690058b80b07b2c4fe46", "is_disabled": 0, "is_reserved": 0, "lat": 38.89963866666667, "name": "50fa95712934690058b80b07b2c4fe46", "rental_uris": {"ios": "https://dc.lft.to/lastmile_qr_scan", "android": "https://dc.lft.to/lastmile_qr_scan"}, "type": "electric_scooter", "fusion_lat": 0.0, "lon": -76.994959}, {"fusion_lon": 0.0, "bike_id": "6f51a22bf880378f67d7fc92bd9c1798", "is_disabled": 0, "is_reserved": 0, "lat": 38.898579833333336, "name": "6f51a22bf880378f67d7fc92bd9c1798", "rental_uris": {"ios": "https://dc.lft.to/lastmile_qr_scan", "android": "https://dc.lft.to/lastmile_qr_scan"}, "type": "electric_scooter", "fusion_lat": 0.0, "lon": -77.046631}, {"fusion_lon": 0.0, "bike_id": "21ccd2d0f44fc0dc56f9abdf7202c8b4", "is_disabled": 0, "is_reserved": 0, "lat": 38.94741116666667, "name": "21ccd2d0f44fc0dc56f9abdf7202c8b4", "rental_uris": {"ios": "https://dc.lft.to/lastmile_qr_scan", "android": "https://dc.lft.to/lastmile_qr_scan"}, "type": "electric_scooter", "fusion_lat": 0.0, "lon": -77.023707}, {"fusion_lon": 0.0, "bike_id": "f001d56a9ae308703dae994f35927c4b", "is_disabled": 0, "is_reserved": 0, "lat": 38.921343, "name": "f001d56a9ae308703dae994f35927c4b", "rental_uris": {"ios": "https://dc.lft.to/lastmile_qr_scan", "android": "https://dc.lft.to/lastmile_qr_scan"}, "type": "electric_scooter", "fusion_lat": 0.0, "lon": -77.01876333333334}, {"fusion_lon": 0.0, "bike_id": "58f05a6a8cadba169c69a10363603294", "is_disabled": 0, "is_reserved": 0, "lat": 38.92476933333333, "name": "58f05a6a8cadba169c69a10363603294", "rental_uris": {"ios": "https://dc.lft.to/lastmile_qr_scan", "android": "https://dc.lft.to/lastmile_qr_scan"}, "type": "electric_scooter", "fusion_lat": 0.0, "lon": -77.022073}, {"fusion_lon": 0.0, "bike_id": "5963fc6fb9031b43958438d49e406333", "is_disabled": 0, "is_reserved": 0, "lat": 38.974146166666664, "name": "5963fc6fb9031b43958438d49e406333", "rental_uris": {"ios": "https://dc.lft.to/lastmile_qr_scan", "android": "https://dc.lft.to/lastmile_qr_scan"}, "type": "electric_bike", "fusion_lat": 0.0, "lon": -76.984185}, {"fusion_lon": 0.0, "bike_id": "4b48705134a36e34c9048b68a7628595", "is_disabled": 0, "is_reserved": 0, "lat": 38.92278566666667, "name": "4b48705134a36e34c9048b68a7628595", "rental_uris": {"ios": "https://dc.lft.to/lastmile_qr_scan", "android": "https://dc.lft.to/lastmile_qr_scan"}, "type": "electric_scooter", "fusion_lat": 0.0, "lon": -77.0213235}, {"fusion_lon": 0.0, "bike_id": "55acb022bfeeaec8f78d403487e003f1", "is_disabled": 0, "is_reserved": 0, "lat": 38.8765295, "name": "55acb022bfeeaec8f78d403487e003f1", "rental_uris": {"ios": "https://dc.lft.to/lastmile_qr_scan", "android": "https://dc.lft.to/lastmile_qr_scan"}, "type": "electric_scooter", "fusion_lat": 0.0, "lon": -77.00811466666667}, {"fusion_lon": 0.0, "bike_id": "62508ffbb7cd2871cfea512a58e968d9", "is_disabled": 0, "is_reserved": 0, "lat": 38.9007765, "name": "62508ffbb7cd2871cfea512a58e968d9", "rental_uris": {"ios": "https://dc.lft.to/lastmile_qr_scan", "android": "https://dc.lft.to/lastmile_qr_scan"}, "type": "electric_scooter", "fusion_lat": 0.0, "lon": -77.02536683333334}, {"fusion_lon": 0.0, "bike_id": "d6e0b523cdac893ae83e55a8e75129b2", "is_disabled": 0, "is_reserved": 0, "lat": 38.930210333333335, "name": "d6e0b523cdac893ae83e55a8e75129b2", "rental_uris": {"ios": "https://dc.lft.to/lastmile_qr_scan", "android": "https://dc.lft.to/lastmile_qr_scan"}, "type": "electric_scooter", "fusion_lat": 0.0, "lon": -77.03802233333333}, {"fusion_lon": 0.0, "bike_id": "ac09a0e24faf682e32f3a051b75a1bd6", "is_disabled": 0, "is_reserved": 0, "lat": 38.903763, "name": "ac09a0e24faf682e32f3a051b75a1bd6", "rental_uris": {"ios": "https://dc.lft.to/lastmile_qr_scan", "android": "https://dc.lft.to/lastmile_qr_scan"}, "type": "electric_bike", "fusion_lat": 0.0, "lon": -76.93745633333333}, {"fusion_lon": 0.0, "bike_id": "0dbef47af84a9865bc3a843ff02fa19d", "is_disabled": 0, "is_reserved": 0, "lat": 38.90690416666666, "name": "0dbef47af84a9865bc3a843ff02fa19d", "rental_uris": {"ios": "https://dc.lft.to/lastmile_qr_scan", "android": "https://dc.lft.to/lastmile_qr_scan"}, "type": "electric_scooter", "fusion_lat": 0.0, "lon": -77.0718055}, {"fusion_lon": 0.0, "bike_id": "dbd85e688245b05409418b348e28f04a", "is_disabled": 0, "is_reserved": 0, "lat": 38.905035166666664, "name": "dbd85e688245b05409418b348e28f04a", "rental_uris": {"ios": "https://dc.lft.to/lastmile_qr_scan", "android": "https://dc.lft.to/lastmile_qr_scan"}, "type": "electric_scooter", "fusion_lat": 0.0, "lon": -77.04942116666666}, {"fusion_lon": 0.0, "bike_id": "abd3a7b78167122d22533f90dd36fbf4", "is_disabled": 0, "is_reserved": 0, "lat": 38.83869933333333, "name": "abd3a7b78167122d22533f90dd36fbf4", "rental_uris": {"ios": "https://dc.lft.to/lastmile_qr_scan", "android": "https://dc.lft.to/lastmile_qr_scan"}, "type": "electric_bike", "fusion_lat": 0.0, "lon": -76.99710766666666}, {"fusion_lon": 0.0, "bike_id": "a547e3f287fc42f6df44633984718130", "is_disabled": 0, "is_reserved": 0, "lat": 38.92432733333333, "name": "a547e3f287fc42f6df44633984718130", "rental_uris": {"ios": "https://dc.lft.to/lastmile_qr_scan", "android": "https://dc.lft.to/lastmile_qr_scan"}, "type": "electric_scooter", "fusion_lat": 0.0, "lon": -77.02233716666667}, {"fusion_lon": 0.0, "bike_id": "e79b59a9288a48e2c2583f9c855daea0", "is_disabled": 0, "is_reserved": 0, "lat": 38.931033, "name": "e79b59a9288a48e2c2583f9c855daea0", "rental_uris": {"ios": "https://dc.lft.to/lastmile_qr_scan", "android": "https://dc.lft.to/lastmile_qr_scan"}, "type": "electric_scooter", "fusion_lat": 0.0, "lon": -77.0266955}, {"fusion_lon": 0.0, "bike_id": "1c910600e183570a99f0fa9c8cf6d064", "is_disabled": 0, "is_reserved": 0, "lat": 38.91959133333334, "name": "1c910600e183570a99f0fa9c8cf6d064", "rental_uris": {"ios": "https://dc.lft.to/lastmile_qr_scan", "android": "https://dc.lft.to/lastmile_qr_scan"}, "type": "electric_scooter", "fusion_lat": 0.0, "lon": -77.0786865}, {"fusion_lon": 0.0, "bike_id": "f744d63ac64f71cfde2bff0d2615386d", "is_disabled": 0, "is_reserved": 0, "lat": 39.0264895, "name": "f744d63ac64f71cfde2bff0d2615386d", "rental_uris": {"ios": "https://dc.lft.to/lastmile_qr_scan", "android": "https://dc.lft.to/lastmile_qr_scan"}, "type": "electric_bike", "fusion_lat": 0.0, "lon": -77.036905}, {"fusion_lon": 0.0, "bike_id": "9e2486bddf9cdc04c2bbe1e9a4cdb2d1", "is_disabled": 0, "is_reserved": 0, "lat": 38.9559185, "name": "9e2486bddf9cdc04c2bbe1e9a4cdb2d1", "rental_uris": {"ios": "https://dc.lft.to/lastmile_qr_scan", "android": "https://dc.lft.to/lastmile_qr_scan"}, "type": "electric_scooter", "fusion_lat": 0.0, "lon": -77.01787233333333}, {"fusion_lon": 0.0, "bike_id": "d08f6e6b5ee9bdb8c2fc063f8953897e", "is_disabled": 0, "is_reserved": 0, "lat": 38.916973666666664, "name": "d08f6e6b5ee9bdb8c2fc063f8953897e", "rental_uris": {"ios": "https://dc.lft.to/lastmile_qr_scan", "android": "https://dc.lft.to/lastmile_qr_scan"}, "type": "electric_scooter", "fusion_lat": 0.0, "lon": -77.03777583333333}, {"fusion_lon": 0.0, "bike_id": "135668e195db9ec96d3161a2f9651e8d", "is_disabled": 0, "is_reserved": 0, "lat": 38.9012605, "name": "135668e195db9ec96d3161a2f9651e8d", "rental_uris": {"ios": "https://dc.lft.to/lastmile_qr_scan", "android": "https://dc.lft.to/lastmile_qr_scan"}, "type": "electric_scooter", "fusion_lat": 0.0, "lon": -76.998525}, {"fusion_lon": 0.0, "bike_id": "9aaac9442432c7d25a06c7c853c2d0d8", "is_disabled": 0, "is_reserved": 0, "lat": 38.90442083333333, "name": "9aaac9442432c7d25a06c7c853c2d0d8", "rental_uris": {"ios": "https://dc.lft.to/lastmile_qr_scan", "android": "https://dc.lft.to/lastmile_qr_scan"}, "type": "electric_scooter", "fusion_lat": 0.0, "lon": -77.034443}, {"fusion_lon": 0.0, "bike_id": "d2427c71783079d758b29c9201147b8a", "is_disabled": 0, "is_reserved": 0, "lat": 38.89509916666667, "name": "d2427c71783079d758b29c9201147b8a", "rental_uris": {"ios": "https://dc.lft.to/lastmile_qr_scan", "android": "https://dc.lft.to/lastmile_qr_scan"}, "type": "electric_scooter", "fusion_lat": 0.0, "lon": -76.948835}, {"fusion_lon": 0.0, "bike_id": "8c6fbf74128d25fb6f7bfe46850e2380", "is_disabled": 0, "is_reserved": 0, "lat": 38.93144733333333, "name": "8c6fbf74128d25fb6f7bfe46850e2380", "rental_uris": {"ios": "https://dc.lft.to/lastmile_qr_scan", "android": "https://dc.lft.to/lastmile_qr_scan"}, "type": "electric_scooter", "fusion_lat": 0.0, "lon": -77.02152333333333}, {"fusion_lon": 0.0, "bike_id": "ed5b7c53da7b689b701d01235febb814", "is_disabled": 0, "is_reserved": 0, "lat": 38.90977766666666, "name": "ed5b7c53da7b689b701d01235febb814", "rental_uris": {"ios": "https://dc.lft.to/lastmile_qr_scan", "android": "https://dc.lft.to/lastmile_qr_scan"}, "type": "electric_scooter", "fusion_lat": 0.0, "lon": -77.04874816666667}, {"fusion_lon": 0.0, "bike_id": "4b4eded69fbed150dfc6cb743eadd04d", "is_disabled": 0, "is_reserved": 0, "lat": 38.886234333333334, "name": "4b4eded69fbed150dfc6cb743eadd04d", "rental_uris": {"ios": "https://dc.lft.to/lastmile_qr_scan", "android": "https://dc.lft.to/lastmile_qr_scan"}, "type": "electric_scooter", "fusion_lat": 0.0, "lon": -76.926327}, {"fusion_lon": 0.0, "bike_id": "f44a144c68b6dec316170753f4eb7d95", "is_disabled": 0, "is_reserved": 0, "lat": 38.879185166666666, "name": "f44a144c68b6dec316170753f4eb7d95", "rental_uris": {"ios": "https://dc.lft.to/lastmile_qr_scan", "android": "https://dc.lft.to/lastmile_qr_scan"}, "type": "electric_scooter", "fusion_lat": 0.0, "lon": -77.021523}, {"fusion_lon": 0.0, "bike_id": "c2362d8185808accc5afbaa5b0bf6616", "is_disabled": 0, "is_reserved": 0, "lat": 38.91412533333333, "name": "c2362d8185808accc5afbaa5b0bf6616", "rental_uris": {"ios": "https://dc.lft.to/lastmile_qr_scan", "android": "https://dc.lft.to/lastmile_qr_scan"}, "type": "electric_scooter", "fusion_lat": 0.0, "lon": -77.00985633333333}, {"fusion_lon": 0.0, "bike_id": "c24179f14ad9770cbf8116952d0ae38c", "is_disabled": 0, "is_reserved": 0, "lat": 38.932546333333335, "name": "c24179f14ad9770cbf8116952d0ae38c", "rental_uris": {"ios": "https://dc.lft.to/lastmile_qr_scan", "android": "https://dc.lft.to/lastmile_qr_scan"}, "type": "electric_scooter", "fusion_lat": 0.0, "lon": -77.03861333333333}, {"fusion_lon": 0.0, "bike_id": "6346972a1f75f41a0a49f52acfdb6a9a", "is_disabled": 0, "is_reserved": 0, "lat": 38.91550383333333, "name": "6346972a1f75f41a0a49f52acfdb6a9a", "rental_uris": {"ios": "https://dc.lft.to/lastmile_qr_scan", "android": "https://dc.lft.to/lastmile_qr_scan"}, "type": "electric_scooter", "fusion_lat": 0.0, "lon": -77.04445766666667}, {"fusion_lon": 0.0, "bike_id": "be560b4f48590d55943149d1b277ef3a", "is_disabled": 0, "is_reserved": 0, "lat": 38.92715583333333, "name": "be560b4f48590d55943149d1b277ef3a", "rental_uris": {"ios": "https://dc.lft.to/lastmile_qr_scan", "android": "https://dc.lft.to/lastmile_qr_scan"}, "type": "electric_scooter", "fusion_lat": 0.0, "lon": -77.0600805}, {"fusion_lon": 0.0, "bike_id": "a7a02df5e52c144bdadbaf015ba670f2", "is_disabled": 0, "is_reserved": 0, "lat": 38.94204883333333, "name": "a7a02df5e52c144bdadbaf015ba670f2", "rental_uris": {"ios": "https://dc.lft.to/lastmile_qr_scan", "android": "https://dc.lft.to/lastmile_qr_scan"}, "type": "electric_scooter", "fusion_lat": 0.0, "lon": -77.01335683333333}, {"fusion_lon": 0.0, "bike_id": "193fae4c1891e9ebb3d51e1d9eb38c57", "is_disabled": 0, "is_reserved": 0, "lat": 38.932678, "name": "193fae4c1891e9ebb3d51e1d9eb38c57", "rental_uris": {"ios": "https://dc.lft.to/lastmile_qr_scan", "android": "https://dc.lft.to/lastmile_qr_scan"}, "type": "electric_scooter", "fusion_lat": 0.0, "lon": -77.03487083333333}, {"fusion_lon": 0.0, "bike_id": "2871e683d1e0db0450d65347c97cb8d1", "is_disabled": 0, "is_reserved": 0, "lat": 38.90874316666667, "name": "2871e683d1e0db0450d65347c97cb8d1", "rental_uris": {"ios": "https://dc.lft.to/lastmile_qr_scan", "android": "https://dc.lft.to/lastmile_qr_scan"}, "type": "electric_scooter", "fusion_lat": 0.0, "lon": -77.04492916666666}, {"fusion_lon": 0.0, "bike_id": "e84be0726e6076404bb5165ab0caa868", "is_disabled": 0, "is_reserved": 0, "lat": 38.92778083333333, "name": "e84be0726e6076404bb5165ab0caa868", "rental_uris": {"ios": "https://dc.lft.to/lastmile_qr_scan", "android": "https://dc.lft.to/lastmile_qr_scan"}, "type": "electric_scooter", "fusion_lat": 0.0, "lon": -77.02057116666667}, {"fusion_lon": 0.0, "bike_id": "884b97ac9fba582cd0ffedca80cdfc8a", "is_disabled": 0, "is_reserved": 0, "lat": 38.976069, "name": "884b97ac9fba582cd0ffedca80cdfc8a", "rental_uris": {"ios": "https://dc.lft.to/lastmile_qr_scan", "android": "https://dc.lft.to/lastmile_qr_scan"}, "type": "electric_scooter", "fusion_lat": 0.0, "lon": -77.0265495}, {"fusion_lon": 0.0, "bike_id": "60464285f3af725690a1b8e7016ccea8", "is_disabled": 0, "is_reserved": 0, "lat": 38.928963833333334, "name": "60464285f3af725690a1b8e7016ccea8", "rental_uris": {"ios": "https://dc.lft.to/lastmile_qr_scan", "android": "https://dc.lft.to/lastmile_qr_scan"}, "type": "electric_scooter", "fusion_lat": 0.0, "lon": -77.02257083333333}, {"fusion_lon": 0.0, "bike_id": "31f047dc3af7f02ae8f80d4e7457b8b4", "is_disabled": 0, "is_reserved": 0, "lat": 38.91807266666667, "name": "31f047dc3af7f02ae8f80d4e7457b8b4", "rental_uris": {"ios": "https://dc.lft.to/lastmile_qr_scan", "android": "https://dc.lft.to/lastmile_qr_scan"}, "type": "electric_scooter", "fusion_lat": 0.0, "lon": -77.024513}, {"fusion_lon": 0.0, "bike_id": "1198c3047afb15c1f0ca5123457d2487", "is_disabled": 0, "is_reserved": 0, "lat": 38.915629, "name": "1198c3047afb15c1f0ca5123457d2487", "rental_uris": {"ios": "https://dc.lft.to/lastmile_qr_scan", "android": "https://dc.lft.to/lastmile_qr_scan"}, "type": "electric_scooter", "fusion_lat": 0.0, "lon": -77.012081}, {"fusion_lon": 0.0, "bike_id": "224ab390e777358707418176505653a6", "is_disabled": 0, "is_reserved": 0, "lat": 38.8924105, "name": "224ab390e777358707418176505653a6", "rental_uris": {"ios": "https://dc.lft.to/lastmile_qr_scan", "android": "https://dc.lft.to/lastmile_qr_scan"}, "type": "electric_scooter", "fusion_lat": 0.0, "lon": -77.0318325}, {"fusion_lon": 0.0, "bike_id": "594c9e9aad1ed552be122ec77db3ab2a", "is_disabled": 0, "is_reserved": 0, "lat": 38.9535745, "name": "594c9e9aad1ed552be122ec77db3ab2a", "rental_uris": {"ios": "https://dc.lft.to/lastmile_qr_scan", "android": "https://dc.lft.to/lastmile_qr_scan"}, "type": "electric_bike", "fusion_lat": 0.0, "lon": -76.980954}, {"fusion_lon": 0.0, "bike_id": "2fd2a358dddae1dfacb80d094860905c", "is_disabled": 0, "is_reserved": 0, "lat": 38.918851833333335, "name": "2fd2a358dddae1dfacb80d094860905c", "rental_uris": {"ios": "https://dc.lft.to/lastmile_qr_scan", "android": "https://dc.lft.to/lastmile_qr_scan"}, "type": "electric_bike", "fusion_lat": 0.0, "lon": -77.0164265}, {"fusion_lon": 0.0, "bike_id": "84fae15d935e3e2a329fc09649dc0c5c", "is_disabled": 0, "is_reserved": 0, "lat": 38.891606333333335, "name": "84fae15d935e3e2a329fc09649dc0c5c", "rental_uris": {"ios": "https://dc.lft.to/lastmile_qr_scan", "android": "https://dc.lft.to/lastmile_qr_scan"}, "type": "electric_scooter", "fusion_lat": 0.0, "lon": -76.99147333333333}, {"fusion_lon": 0.0, "bike_id": "28942d948479f4823debe48b71349524", "is_disabled": 0, "is_reserved": 0, "lat": 38.926416833333334, "name": "28942d948479f4823debe48b71349524", "rental_uris": {"ios": "https://dc.lft.to/lastmile_qr_scan", "android": "https://dc.lft.to/lastmile_qr_scan"}, "type": "electric_scooter", "fusion_lat": 0.0, "lon": -77.03700883333333}, {"fusion_lon": 0.0, "bike_id": "26fa44d52c9072a2e05d54fd291d11ef", "is_disabled": 0, "is_reserved": 0, "lat": 38.90065716666667, "name": "26fa44d52c9072a2e05d54fd291d11ef", "rental_uris": {"ios": "https://dc.lft.to/lastmile_qr_scan", "android": "https://dc.lft.to/lastmile_qr_scan"}, "type": "electric_scooter", "fusion_lat": 0.0, "lon": -77.04595633333334}, {"fusion_lon": 0.0, "bike_id": "6a2c3e618d538035902106d1acbbda09", "is_disabled": 0, "is_reserved": 0, "lat": 38.91998983333333, "name": "6a2c3e618d538035902106d1acbbda09", "rental_uris": {"ios": "https://dc.lft.to/lastmile_qr_scan", "android": "https://dc.lft.to/lastmile_qr_scan"}, "type": "electric_scooter", "fusion_lat": 0.0, "lon": -77.02170033333333}, {"fusion_lon": 0.0, "bike_id": "ae481b8aead59d442459ca818662c545", "is_disabled": 0, "is_reserved": 0, "lat": 38.881882833333336, "name": "ae481b8aead59d442459ca818662c545", "rental_uris": {"ios": "https://dc.lft.to/lastmile_qr_scan", "android": "https://dc.lft.to/lastmile_qr_scan"}, "type": "electric_scooter", "fusion_lat": 0.0, "lon": -77.02095833333334}, {"fusion_lon": 0.0, "bike_id": "dd6c504a66ff97e337ea54c7dda9cade", "is_disabled": 0, "is_reserved": 0, "lat": 38.91707516666666, "name": "dd6c504a66ff97e337ea54c7dda9cade", "rental_uris": {"ios": "https://dc.lft.to/lastmile_qr_scan", "android": "https://dc.lft.to/lastmile_qr_scan"}, "type": "electric_scooter", "fusion_lat": 0.0, "lon": -77.092141}, {"fusion_lon": 0.0, "bike_id": "9ad7cf23cb3862cc3ff053ca7628d005", "is_disabled": 0, "is_reserved": 0, "lat": 38.9022625, "name": "9ad7cf23cb3862cc3ff053ca7628d005", "rental_uris": {"ios": "https://dc.lft.to/lastmile_qr_scan", "android": "https://dc.lft.to/lastmile_qr_scan"}, "type": "electric_scooter", "fusion_lat": 0.0, "lon": -77.04560366666666}, {"fusion_lon": 0.0, "bike_id": "e9d3516f5771725360ddf1465cf2fed4", "is_disabled": 0, "is_reserved": 0, "lat": 38.92246216666667, "name": "e9d3516f5771725360ddf1465cf2fed4", "rental_uris": {"ios": "https://dc.lft.to/lastmile_qr_scan", "android": "https://dc.lft.to/lastmile_qr_scan"}, "type": "electric_scooter", "fusion_lat": 0.0, "lon": -77.00832933333334}, {"fusion_lon": 0.0, "bike_id": "cdfa13486d6f6d57f64c5ff90bf9ded7", "is_disabled": 0, "is_reserved": 0, "lat": 38.881447, "name": "cdfa13486d6f6d57f64c5ff90bf9ded7", "rental_uris": {"ios": "https://dc.lft.to/lastmile_qr_scan", "android": "https://dc.lft.to/lastmile_qr_scan"}, "type": "electric_bike", "fusion_lat": 0.0, "lon": -77.01297166666667}, {"fusion_lon": 0.0, "bike_id": "1498021130b09c4319ea13c069fa6797", "is_disabled": 0, "is_reserved": 0, "lat": 38.90288616666667, "name": "1498021130b09c4319ea13c069fa6797", "rental_uris": {"ios": "https://dc.lft.to/lastmile_qr_scan", "android": "https://dc.lft.to/lastmile_qr_scan"}, "type": "electric_scooter", "fusion_lat": 0.0, "lon": -77.04688516666667}, {"fusion_lon": 0.0, "bike_id": "172d7526cae16471ff57a6bdb26716fa", "is_disabled": 0, "is_reserved": 0, "lat": 38.91719116666667, "name": "172d7526cae16471ff57a6bdb26716fa", "rental_uris": {"ios": "https://dc.lft.to/lastmile_qr_scan", "android": "https://dc.lft.to/lastmile_qr_scan"}, "type": "electric_scooter", "fusion_lat": 0.0, "lon": -77.0334795}, {"fusion_lon": 0.0, "bike_id": "1d221dae951f910c28f449aaf2778c8b", "is_disabled": 0, "is_reserved": 0, "lat": 38.908665666666664, "name": "1d221dae951f910c28f449aaf2778c8b", "rental_uris": {"ios": "https://dc.lft.to/lastmile_qr_scan", "android": "https://dc.lft.to/lastmile_qr_scan"}, "type": "electric_scooter", "fusion_lat": 0.0, "lon": -77.01836983333334}, {"fusion_lon": 0.0, "bike_id": "3b8468a853b82efc3a50ad022512ece4", "is_disabled": 0, "is_reserved": 0, "lat": 38.89495766666667, "name": "3b8468a853b82efc3a50ad022512ece4", "rental_uris": {"ios": "https://dc.lft.to/lastmile_qr_scan", "android": "https://dc.lft.to/lastmile_qr_scan"}, "type": "electric_scooter", "fusion_lat": 0.0, "lon": -77.05510166666667}, {"fusion_lon": 0.0, "bike_id": "526a9e7cf4e1ee107d014455127023b4", "is_disabled": 0, "is_reserved": 0, "lat": 38.89858666666667, "name": "526a9e7cf4e1ee107d014455127023b4", "rental_uris": {"ios": "https://dc.lft.to/lastmile_qr_scan", "android": "https://dc.lft.to/lastmile_qr_scan"}, "type": "electric_scooter", "fusion_lat": 0.0, "lon": -76.99037616666666}, {"fusion_lon": 0.0, "bike_id": "7aa10125bf5b31614a74d0c67ed4ec6b", "is_disabled": 0, "is_reserved": 0, "lat": 38.90503533333333, "name": "7aa10125bf5b31614a74d0c67ed4ec6b", "rental_uris": {"ios": "https://dc.lft.to/lastmile_qr_scan", "android": "https://dc.lft.to/lastmile_qr_scan"}, "type": "electric_scooter", "fusion_lat": 0.0, "lon": -77.04824466666666}, {"fusion_lon": 0.0, "bike_id": "7ad1c4db29af14aedaeb4d0b9ded5fcd", "is_disabled": 0, "is_reserved": 0, "lat": 38.92257983333333, "name": "7ad1c4db29af14aedaeb4d0b9ded5fcd", "rental_uris": {"ios": "https://dc.lft.to/lastmile_qr_scan", "android": "https://dc.lft.to/lastmile_qr_scan"}, "type": "electric_scooter", "fusion_lat": 0.0, "lon": -77.0195625}, {"fusion_lon": 0.0, "bike_id": "e73f098bccf6d07fe754faec6b8f264a", "is_disabled": 0, "is_reserved": 0, "lat": 38.8063505, "name": "e73f098bccf6d07fe754faec6b8f264a", "rental_uris": {"ios": "https://dc.lft.to/lastmile_qr_scan", "android": "https://dc.lft.to/lastmile_qr_scan"}, "type": "electric_bike", "fusion_lat": 0.0, "lon": -77.06254633333333}, {"fusion_lon": 0.0, "bike_id": "053d5073330be5af98c8b35ceefe0a00", "is_disabled": 0, "is_reserved": 0, "lat": 38.8996375, "name": "053d5073330be5af98c8b35ceefe0a00", "rental_uris": {"ios": "https://dc.lft.to/lastmile_qr_scan", "android": "https://dc.lft.to/lastmile_qr_scan"}, "type": "electric_scooter", "fusion_lat": 0.0, "lon": -77.03071}, {"fusion_lon": 0.0, "bike_id": "dbe62e6e6fd61af1729379beb8aa7323", "is_disabled": 0, "is_reserved": 0, "lat": 38.92849566666666, "name": "dbe62e6e6fd61af1729379beb8aa7323", "rental_uris": {"ios": "https://dc.lft.to/lastmile_qr_scan", "android": "https://dc.lft.to/lastmile_qr_scan"}, "type": "electric_scooter", "fusion_lat": 0.0, "lon": -77.01388033333333}, {"fusion_lon": 0.0, "bike_id": "ba95546382424fa70a81ada4b5299198", "is_disabled": 0, "is_reserved": 0, "lat": 38.9236975, "name": "ba95546382424fa70a81ada4b5299198", "rental_uris": {"ios": "https://dc.lft.to/lastmile_qr_scan", "android": "https://dc.lft.to/lastmile_qr_scan"}, "type": "electric_scooter", "fusion_lat": 0.0, "lon": -77.03550283333334}, {"fusion_lon": 0.0, "bike_id": "4a652c65e7dfeb38045f00877220b15e", "is_disabled": 0, "is_reserved": 0, "lat": 38.88360683333333, "name": "4a652c65e7dfeb38045f00877220b15e", "rental_uris": {"ios": "https://dc.lft.to/lastmile_qr_scan", "android": "https://dc.lft.to/lastmile_qr_scan"}, "type": "electric_scooter", "fusion_lat": 0.0, "lon": -76.95773916666667}, {"fusion_lon": 0.0, "bike_id": "080ba7511c5888099fa3b42b69611187", "is_disabled": 0, "is_reserved": 0, "lat": 38.9574295, "name": "080ba7511c5888099fa3b42b69611187", "rental_uris": {"ios": "https://dc.lft.to/lastmile_qr_scan", "android": "https://dc.lft.to/lastmile_qr_scan"}, "type": "electric_scooter", "fusion_lat": 0.0, "lon": -77.0022855}, {"fusion_lon": 0.0, "bike_id": "385b39b2019dd60f34847bd6bf5869f9", "is_disabled": 0, "is_reserved": 0, "lat": 38.899727666666664, "name": "385b39b2019dd60f34847bd6bf5869f9", "rental_uris": {"ios": "https://dc.lft.to/lastmile_qr_scan", "android": "https://dc.lft.to/lastmile_qr_scan"}, "type": "electric_scooter", "fusion_lat": 0.0, "lon": -77.05557333333333}, {"fusion_lon": 0.0, "bike_id": "f25c28de1331d09698f6d907126b7bce", "is_disabled": 0, "is_reserved": 0, "lat": 38.88126666666667, "name": "f25c28de1331d09698f6d907126b7bce", "rental_uris": {"ios": "https://dc.lft.to/lastmile_qr_scan", "android": "https://dc.lft.to/lastmile_qr_scan"}, "type": "electric_scooter", "fusion_lat": 0.0, "lon": -77.00079533333333}, {"fusion_lon": 0.0, "bike_id": "60e4965614274cf6d3b2cd29f6928a4b", "is_disabled": 0, "is_reserved": 0, "lat": 38.899763666666665, "name": "60e4965614274cf6d3b2cd29f6928a4b", "rental_uris": {"ios": "https://dc.lft.to/lastmile_qr_scan", "android": "https://dc.lft.to/lastmile_qr_scan"}, "type": "electric_scooter", "fusion_lat": 0.0, "lon": -77.01929183333333}, {"fusion_lon": 0.0, "bike_id": "0f96d0a8759d52d999d7829fd8132a1d", "is_disabled": 0, "is_reserved": 0, "lat": 38.915994, "name": "0f96d0a8759d52d999d7829fd8132a1d", "rental_uris": {"ios": "https://dc.lft.to/lastmile_qr_scan", "android": "https://dc.lft.to/lastmile_qr_scan"}, "type": "electric_scooter", "fusion_lat": 0.0, "lon": -77.03186333333333}, {"fusion_lon": 0.0, "bike_id": "4acf829f24c392993b7e9849b570e034", "is_disabled": 0, "is_reserved": 0, "lat": 38.902303, "name": "4acf829f24c392993b7e9849b570e034", "rental_uris": {"ios": "https://dc.lft.to/lastmile_qr_scan", "android": "https://dc.lft.to/lastmile_qr_scan"}, "type": "electric_scooter", "fusion_lat": 0.0, "lon": -77.04565483333333}, {"fusion_lon": 0.0, "bike_id": "17185a6e78a1e8da8b5dfec9ee643dc3", "is_disabled": 0, "is_reserved": 0, "lat": 38.918842, "name": "17185a6e78a1e8da8b5dfec9ee643dc3", "rental_uris": {"ios": "https://dc.lft.to/lastmile_qr_scan", "android": "https://dc.lft.to/lastmile_qr_scan"}, "type": "electric_scooter", "fusion_lat": 0.0, "lon": -77.04474566666667},