{"data": {"bikes": [{"rental_uris": {"ios": "https://dc.lft.to/lastmile_qr_scan", "android": "https://dc.lft.to/lastmile_qr_scan"}, "type": "electric_scooter", "name": "2f6728ff60019c754ba98376adf91a03", "is_reserved": 0, "lon": -77.06188216666666, "is_disabled": 0, "fusion_lat": 0.0, "lat": 38.94335866666667, "bike_id": "2f6728ff60019c754ba98376adf91a03", "fusion_lon": 0.0}, {"rental_uris": {"ios": "https://dc.lft.to/lastmile_qr_scan", "android": "https://dc.lft.to/lastmile_qr_scan"}, "type": "electric_scooter", "name": "2f2da67afe74c6baba81bf29839b90ff", "is_reserved": 0, "lon": -77.03253916666667, "is_disabled": 0, "fusion_lat": 0.0, "lat": 38.9112085, "bike_id": "2f2da67afe74c6baba81bf29839b90ff", "fusion_lon": 0.0}, {"rental_uris": {"ios": "https://dc.lft.to/lastmile_qr_scan", "android": "https://dc.lft.to/lastmile_qr_scan"}, "type": "electric_scooter", "name": "b82491d9f5ee52e42cec47c895add8b6", "is_reserved": 0, "lon": -77.0466915, "is_disabled": 0, "fusion_lat": 0.0, "lat": 38.902812833333336, "bike_id": "b82491d9f5ee52e42cec47c895add8b6", "fusion_lon": 0.0}, {"rental_uris": {"ios": "https://dc.lft.to/lastmile_qr_scan", "android": "https://dc.lft.to/lastmile_qr_scan"}, "type": "electric_bike", "name": "50e817c3d55a56e3719a1da515fdcd69", "is_reserved": 0, "lon": -77.12729466666667, "is_disabled": 0, "fusion_lat": 0.0, "lat": 38.89560633333333, "bike_id": "50e817c3d55a56e3719a1da515fdcd69", "fusion_lon": 0.0}, {"rental_uris": {"ios": "https://dc.lft.to/lastmile_qr_scan", "android": "https://dc.lft.to/lastmile_qr_scan"}, "type": "electric_scooter", "name": "d68f37216ca56137a5ff3e816d76cb0d", "is_reserved": 0, "lon": -77.03808, "is_disabled": 0, "fusion_lat": 0.0, "lat": 38.910476833333334, "bike_id": "d68f37216ca56137a5ff3e816d76cb0d", "fusion_lon": 0.0}, {"rental_uris": {"ios": "https://dc.lft.to/lastmile_qr_scan", "android": "https://dc.lft.to/lastmile_qr_scan"}, "type": "electric_scooter", "name": "00a8a88ae72ff0004be2857f3d2c429f", "is_reserved": 0, "lon": -77.0412705, "is_disabled": 0, "fusion_lat": 0.0, "lat": 38.931079833333335, "bike_id": "00a8a88ae72ff0004be2857f3d2c429f", "fusion_lon": 0.0}, {"rental_uris": {"ios": "https://dc.lft.to/lastmile_qr_scan", "android": "https://dc.lft.to/lastmile_qr_scan"}, "type": "electric_scooter", "name": "285a52140a4e5bc5bde82bd666755708", "is_reserved": 0, "lon": -77.02413, "is_disabled": 0, "fusion_lat": 0.0, "lat": 38.905703833333334, "bike_id": "285a52140a4e5bc5bde82bd666755708", "fusion_lon": 0.0}, {"rental_uris": {"ios": "https://dc.lft.to/lastmile_qr_scan", "android": "https://dc.lft.to/lastmile_qr_scan"}, "type": "electric_scooter", "name": "a9fcfab5ad39d611aa0bb128d3ca4126", "is_reserved": 0, "lon": -77.03026416666667, "is_disabled": 0, "fusion_lat": 0.0, "lat": 38.92243216666667, "bike_id": "a9fcfab5ad39d611aa0bb128d3ca4126", "fusion_lon": 0.0}, {"rental_uris": {"ios": "https://dc.lft.to/lastmile_qr_scan", "android": "https://dc.lft.to/lastmile_qr_scan"}, "type": "electric_scooter", "name": "4430d98a2730b2d9d0be059cba633f68", "is_reserved": 0, "lon": -77.027095, "is_disabled": 0, "fusion_lat": 0.0, "lat": 38.90598683333333, "bike_id": "4430d98a2730b2d9d0be059cba633f68", "fusion_lon": 0.0}, {"rental_uris": {"ios": "https://dc.lft.to/lastmile_qr_scan", "android": "https://dc.lft.to/lastmile_qr_scan"}, "type": "electric_bike", "name": "b2ba8e19a311916cea18ddb169f311cf", "is_reserved": 0, "lon": -77.01228966666666, "is_disabled": 0, "fusion_lat": 0.0, "lat": 38.95092283333334, "bike_id": "b2ba8e19a311916cea18ddb169f311cf", "fusion_lon": 0.0}, {"rental_uris": {"ios": "https://dc.lft.to/lastmile_qr_scan", "android": "https://dc.lft.to/lastmile_qr_scan"}, "type": "electric_scooter", "name": "6467f8cc1bff9e0667ab9ac8f11ba02f", "is_reserved": 0, "lon": -77.03867766666667, "is_disabled": 0, "fusion_lat": 0.0, "lat": 38.92154383333333, "bike_id": "6467f8cc1bff9e0667ab9ac8f11ba02f", "fusion_lon": 0.0}, {"rental_uris": {"ios": "https://dc.lft.to/lastmile_qr_scan", "android": "https://dc.lft.to/lastmile_qr_scan"}, "type": "electric_scooter", "name": "e57d3240cb97fb7b98fe9a93269cc3c7", "is_reserved": 0, "lon": -76.99870566666667, "is_disabled": 0, "fusion_lat": 0.0, "lat": 38.9003295, "bike_id": "e57d3240cb97fb7b98fe9a93269cc3c7", "fusion_lon": 0.0}, {"rental_uris": {"ios": "https://dc.lft.to/lastmile_qr_scan", "android": "https://dc.lft.to/lastmile_qr_scan"}, "type": "electric_scooter", "name": "996dfc4ead2461a1b75a8a7e0e41ec8b", "is_reserved": 0, "lon": -77.02843033333333, "is_disabled": 0, "fusion_lat": 0.0, "lat": 38.90279916666667, "bike_id": "996dfc4ead2461a1b75a8a7e0e41ec8b", "fusion_lon": 0.0}, {"rental_uris": {"ios": "https://dc.lft.to/lastmile_qr_scan", "android": "https://dc.lft.to/lastmile_qr_scan"}, "type": "electric_bike", "name": "7694d8a5f7fefc7b80af331ab0fa05c2", "is_reserved": 0, "lon": -77.00002916666666, "is_disabled": 0, "fusion_lat": 0.0, "lat": 38.92395916666667, "bike_id": "7694d8a5f7fefc7b80af331ab0fa05c2", "fusion_lon": 0.0}, {"rental_uris": {"ios": "https://dc.lft.to/lastmile_qr_scan", "android": "https://dc.lft.to/lastmile_qr_scan"}, "type": "electric_scooter", "name": "46b91f8c83114b63f07a8b0a56a43914", "is_reserved": 0, "lon": -77.02356866666666, "is_disabled": 0, "fusion_lat": 0.0, "lat": 38.945269333333336, "bike_id": "46b91f8c83114b63f07a8b0a56a43914", "fusion_lon": 0.0}, {"rental_uris": {"ios": "https://dc.lft.to/lastmile_qr_scan", "android": "https://dc.lft.to/lastmile_qr_scan"}, "type": "electric_scooter", "name": "65b0142360310d1c41d17ef1ba8db756", "is_reserved": 0, "lon": -76.98577083333333, "is_disabled": 0, "fusion_lat": 0.0, "lat": 38.85450183333333, "bike_id": "65b0142360310d1c41d17ef1ba8db756", "fusion_lon": 0.0}, {"rental_uris": {"ios": "https://dc.lft.to/lastmile_qr_scan", "android": "https://dc.lft.to/lastmile_qr_scan"}, "type": "electric_scooter", "name": "1ce494ebaf5a36eb04f9b6339f8f2248", "is_reserved": 0, "lon": -77.01512933333333, "is_disabled": 0, "fusion_lat": 0.0, "lat": 38.90142566666667, "bike_id": "1ce494ebaf5a36eb04f9b6339f8f2248", "fusion_lon": 0.0}, {"rental_uris": {"ios": "https://dc.lft.to/lastmile_qr_scan", "android": "https://dc.lft.to/lastmile_qr_scan"}, "type": "electric_scooter", "name": "714e25ad95274018df18c6b6bf8ee217", "is_reserved": 0, "lon": -77.00704266666666, "is_disabled": 0, "fusion_lat": 0.0, "lat": 38.905791666666666, "bike_id": "714e25ad95274018df18c6b6bf8ee217", "fusion_lon": 0.0}, {"rental_uris": {"ios": "https://dc.lft.to/lastmile_qr_scan", "android": "https://dc.lft.to/lastmile_qr_scan"}, "type": "electric_scooter", "name": "667eac150e28a9630d1fdec88a5fab03", "is_reserved": 0, "lon": -77.037769, "is_disabled": 0, "fusion_lat": 0.0, "lat": 38.9257185, "bike_id": "667eac150e28a9630d1fdec88a5fab03", "fusion_lon": 0.0}, {"rental_uris": {"ios": "https://dc.lft.to/lastmile_qr_scan", "android": "https://dc.lft.to/lastmile_qr_scan"}, "type": "electric_scooter", "name": "8a28943da20f48c907f77ac76ff90091", "is_reserved": 0, "lon": -77.04401333333334, "is_disabled": 0, "fusion_lat": 0.0, "lat": 38.92590883333333, "bike_id": "8a28943da20f48c907f77ac76ff90091", "fusion_lon": 0.0}, {"rental_uris": {"ios": "https://dc.lft.to/lastmile_qr_scan", "android": "https://dc.lft.to/lastmile_qr_scan"}, "type": "electric_scooter", "name": "f2c9429f2606d373031d649b6c1cbf15", "is_reserved": 0, "lon": -77.0193625, "is_disabled": 0, "fusion_lat": 0.0, "lat": 38.90260083333333, "bike_id": "f2c9429f2606d373031d649b6c1cbf15", "fusion_lon": 0.0}, {"rental_uris": {"ios": "https://dc.lft.to/lastmile_qr_scan", "android": "https://dc.lft.to/lastmile_qr_scan"}, "type": "electric_scooter", "name": "ca9b910558a8d8aa8678d9686cdaab4f", "is_reserved": 0, "lon": -76.9901175, "is_disabled": 0, "fusion_lat": 0.0, "lat": 38.904023, "bike_id": "ca9b910558a8d8aa8678d9686cdaab4f", "fusion_lon": 0.0}, {"rental_uris": {"ios": "https://dc.lft.to/lastmile_qr_scan", "android": "https://dc.lft.to/lastmile_qr_scan"}, "type": "electric_scooter", "name": "783dad8d78a15809d04cb5dfe41916d7", "is_reserved": 0, "lon": -77.03725333333334, "is_disabled": 0, "fusion_lat": 0.0, "lat": 38.92643, "bike_id": "783dad8d78a15809d04cb5dfe41916d7", "fusion_lon": 0.0}, {"rental_uris": {"ios": "https://dc.lft.to/lastmile_qr_scan", "android": "https://dc.lft.to/lastmile_qr_scan"}, "type": "electric_scooter", "name": "a45a9c80358517c6b779ec0cfd23255b", "is_reserved": 0, "lon": -77.00071033333333, "is_disabled": 0, "fusion_lat": 0.0, "lat": 38.87689983333333, "bike_id": "a45a9c80358517c6b779ec0cfd23255b", "fusion_lon": 0.0}, {"rental_uris": {"ios": "https://dc.lft.to/lastmile_qr_scan", "android": "https://dc.lft.to/lastmile_qr_scan"}, "type": "electric_scooter", "name": "8e5fd8d029e8201b206d4304ddaf8a5f", "is_reserved": 0, "lon": -76.9432635, "is_disabled": 0, "fusion_lat": 0.0, "lat": 38.87919616666667, "bike_id": "8e5fd8d029e8201b206d4304ddaf8a5f", "fusion_lon": 0.0}, {"rental_uris": {"ios": "https://dc.lft.to/lastmile_qr_scan", "android": "https://dc.lft.to/lastmile_qr_scan"}, "type": "electric_bike", "name": "15ae8ac115a4730c5ad3718e4279e7a1", "is_reserved": 0, "lon": -77.0724305, "is_disabled": 0, "fusion_lat": 0.0, "lat": 38.8136565, "bike_id": "15ae8ac115a4730c5ad3718e4279e7a1", "fusion_lon": 0.0}, {"rental_uris": {"ios": "https://dc.lft.to/lastmile_qr_scan", "android": "https://dc.lft.to/lastmile_qr_scan"}, "type": "electric_scooter", "name": "abb0f3de2a4233d02a56d492b9602d0c", "is_reserved": 0, "lon": -77.02164983333333, "is_disabled": 0, "fusion_lat": 0.0, "lat": 38.925050666666664, "bike_id": "abb0f3de2a4233d02a56d492b9602d0c", "fusion_lon": 0.0}, {"rental_uris": {"ios": "https://dc.lft.to/lastmile_qr_scan", "android": "https://dc.lft.to/lastmile_qr_scan"}, "type": "electric_scooter", "name": "c3c02c5786cbccef89fd3f347ed344f9", "is_reserved": 0, "lon": -77.02356833333333, "is_disabled": 0, "fusion_lat": 0.0, "lat": 38.9329225, "bike_id": "c3c02c5786cbccef89fd3f347ed344f9", "fusion_lon": 0.0}, {"rental_uris": {"ios": "https://dc.lft.to/lastmile_qr_scan", "android": "https://dc.lft.to/lastmile_qr_scan"}, "type": "electric_scooter", "name": "c8b60dd84008ffcabbbdf6686f8be054", "is_reserved": 0, "lon": -77.05358933333333, "is_disabled": 0, "fusion_lat": 0.0, "lat": 38.89885133333333, "bike_id": "c8b60dd84008ffcabbbdf6686f8be054", "fusion_lon": 0.0}, {"rental_uris": {"ios": "https://dc.lft.to/lastmile_qr_scan", "android": "https://dc.lft.to/lastmile_qr_scan"}, "type": "electric_scooter", "name": "cce694bdce647eed144e1dbe10149152", "is_reserved": 0, "lon": -77.03206683333333, "is_disabled": 0, "fusion_lat": 0.0, "lat": 38.916306166666665, "bike_id": "cce694bdce647eed144e1dbe10149152", "fusion_lon": 0.0}, {"rental_uris": {"ios": "https://dc.lft.to/lastmile_qr_scan", "android": "https://dc.lft.to/lastmile_qr_scan"}, "type": "electric_scooter", "name": "8f88565c689f09c1d05c5d7a5c4ba323", "is_reserved": 0, "lon": -77.0350615, "is_disabled": 0, "fusion_lat": 0.0, "lat": 38.91876216666667, "bike_id": "8f88565c689f09c1d05c5d7a5c4ba323", "fusion_lon": 0.0}, {"rental_uris": {"ios": "https://dc.lft.to/lastmile_qr_scan", "android": "https://dc.lft.to/lastmile_qr_scan"}, "type": "electric_scooter", "name": "f6041ecd1d366b19aa4e4e5a14d4ab7e", "is_reserved": 0, "lon": -76.93207283333334, "is_disabled": 0, "fusion_lat": 0.0, "lat": 38.89669333333333, "bike_id": "f6041ecd1d366b19aa4e4e5a14d4ab7e", "fusion_lon": 0.0}, {"rental_uris": {"ios": "https://dc.lft.to/lastmile_qr_scan", "android": "https://dc.lft.to/lastmile_qr_scan"}, "type": "electric_bike", "name": "1d5e329494986f98936268e95f974a0c", "is_reserved": 0, "lon": -77.09825316666667, "is_disabled": 0, "fusion_lat": 0.0, "lat": 38.850206666666665, "bike_id": "1d5e329494986f98936268e95f974a0c", "fusion_lon": 0.0}, {"rental_uris": {"ios": "https://dc.lft.to/lastmile_qr_scan", "android": "https://dc.lft.to/lastmile_qr_scan"}, "type": "electric_scooter", "name": "01ff1da890ad552342cd976390404dc4", "is_reserved": 0, "lon": -76.9993845, "is_disabled": 0, "fusion_lat": 0.0, "lat": 38.8917065, "bike_id": "01ff1da890ad552342cd976390404dc4", "fusion_lon": 0.0}, {"rental_uris": {"ios": "https://dc.lft.to/lastmile_qr_scan", "android": "https://dc.lft.to/lastmile_qr_scan"}, "type": "electric_scooter", "name": "e021449fc7c402b9cd5d158dbb9ba900", "is_reserved": 0, "lon": -77.02552883333334, "is_disabled": 0, "fusion_lat": 0.0, "lat": 38.930941, "bike_id": "e021449fc7c402b9cd5d158dbb9ba900", "fusion_lon": 0.0}, {"rental_uris": {"ios": "https://dc.lft.to/lastmile_qr_scan", "android": "https://dc.lft.to/lastmile_qr_scan"}, "type": "electric_scooter", "name": "18e86efc0dedcd76532dd82d3fcc25e8", "is_reserved": 0, "lon": -77.04496, "is_disabled": 0, "fusion_lat": 0.0, "lat": 38.9187635, "bike_id": "18e86efc0dedcd76532dd82d3fcc25e8", "fusion_lon": 0.0}, {"rental_uris": {"ios": "https://dc.lft.to/lastmile_qr_scan", "android": "https://dc.lft.to/lastmile_qr_scan"}, "type": "electric_scooter", "name": "d5096880d9f300257a0528f885104d9d", "is_reserved": 0, "lon": -77.01345383333333, "is_disabled": 0, "fusion_lat": 0.0, "lat": 38.896054666666664, "bike_id": "d5096880d9f300257a0528f885104d9d", "fusion_lon": 0.0}, {"rental_uris": {"ios": "https://dc.lft.to/lastmile_qr_scan", "android": "https://dc.lft.to/lastmile_qr_scan"}, "type": "electric_scooter", "name": "5c483f4a2372b9695156ef8dab389e4b", "is_reserved": 0, "lon": -77.0427355, "is_disabled": 0, "fusion_lat": 0.0, "lat": 38.904318333333336, "bike_id": "5c483f4a2372b9695156ef8dab389e4b", "fusion_lon": 0.0}, {"rental_uris": {"ios": "https://dc.lft.to/lastmile_qr_scan", "android": "https://dc.lft.to/lastmile_qr_scan"}, "type": "electric_scooter", "name": "c4df3271f1dae74ef3b8d47c214ad929", "is_reserved": 0, "lon": -77.04400433333333, "is_disabled": 0, "fusion_lat": 0.0, "lat": 38.929574, "bike_id": "c4df3271f1dae74ef3b8d47c214ad929", "fusion_lon": 0.0}, {"rental_uris": {"ios": "https://dc.lft.to/lastmile_qr_scan", "android": "https://dc.lft.to/lastmile_qr_scan"}, "type": "electric_bike", "name": "824b965f0f91665af2b20a896e4bc6e6", "is_reserved": 0, "lon": -77.00405316666667, "is_disabled": 0, "fusion_lat": 0.0, "lat": 38.9854255, "bike_id": "824b965f0f91665af2b20a896e4bc6e6", "fusion_lon": 0.0}, {"rental_uris": {"ios": "https://dc.lft.to/lastmile_qr_scan", "android": "https://dc.lft.to/lastmile_qr_scan"}, "type": "electric_scooter", "name": "f4d2728a04f8560eb0456609ad5e467d", "is_reserved": 0, "lon": -77.00555933333334, "is_disabled": 0, "fusion_lat": 0.0, "lat": 38.91189416666667, "bike_id": "f4d2728a04f8560eb0456609ad5e467d", "fusion_lon": 0.0}, {"rental_uris": {"ios": "https://dc.lft.to/lastmile_qr_scan", "android": "https://dc.lft.to/lastmile_qr_scan"}, "type": "electric_scooter", "name": "fb9aec14f35e5fc2f66346e51a45235a", "is_reserved": 0, "lon": -77.0334415, "is_disabled": 0, "fusion_lat": 0.0, "lat": 38.92872466666667, "bike_id": "fb9aec14f35e5fc2f66346e51a45235a", "fusion_lon": 0.0}, {"rental_uris": {"ios": "https://dc.lft.to/lastmile_qr_scan", "android": "https://dc.lft.to/lastmile_qr_scan"}, "type": "electric_scooter", "name": "a375d0b482dd2a38acaab5111a69344d", "is_reserved": 0, "lon": -77.0106145, "is_disabled": 0, "fusion_lat": 0.0, "lat": 38.911928833333334, "bike_id": "a375d0b482dd2a38acaab5111a69344d", "fusion_lon": 0.0}, {"rental_uris": {"ios": "https://dc.lft.to/lastmile_qr_scan", "android": "https://dc.lft.to/lastmile_qr_scan"}, "type": "electric_scooter", "name": "55e05afc235b5777964a7abe791279ef", "is_reserved": 0, "lon": -77.036438, "is_disabled": 0, "fusion_lat": 0.0, "lat": 38.92487833333333, "bike_id": "55e05afc235b5777964a7abe791279ef", "fusion_lon": 0.0}, {"rental_uris": {"ios": "https://dc.lft.to/lastmile_qr_scan", "android": "https://dc.lft.to/lastmile_qr_scan"}, "type": "electric_scooter", "name": "3f8d2028e0007521e85dd07e9db04a11", "is_reserved": 0, "lon": -77.0201955, "is_disabled": 0, "fusion_lat": 0.0, "lat": 38.923275, "bike_id": "3f8d2028e0007521e85dd07e9db04a11", "fusion_lon": 0.0}, {"rental_uris": {"ios": "https://dc.lft.to/lastmile_qr_scan", "android": "https://dc.lft.to/lastmile_qr_scan"}, "type": "electric_scooter", "name": "cb5a9ba62654fed24105e3692dd5a91f", "is_reserved": 0, "lon": -77.00278066666667, "is_disabled": 0, "fusion_lat": 0.0, "lat": 38.9090355, "bike_id": "cb5a9ba62654fed24105e3692dd5a91f", "fusion_lon": 0.0}, {"rental_uris": {"ios": "https://dc.lft.to/lastmile_qr_scan", "android": "https://dc.lft.to/lastmile_qr_scan"}, "type": "electric_scooter", "name": "df6b6e6d92d1b4f9d0d881952008185a", "is_reserved": 0, "lon": -77.03659083333334, "is_disabled": 0, "fusion_lat": 0.0, "lat": 38.922895833333335, "bike_id": "df6b6e6d92d1b4f9d0d881952008185a", "fusion_lon": 0.0}, {"rental_uris": {"ios": "https://dc.lft.to/lastmile_qr_scan", "android": "https://dc.lft.to/lastmile_qr_scan"}, "type": "electric_scooter", "name": "e2674563c7a556f9170e10d5d6cd656c", "is_reserved": 0, "lon": -77.0361315, "is_disabled": 0, "fusion_lat": 0.0, "lat": 38.92340816666667, "bike_id": "e2674563c7a556f9170e10d5d6cd656c", "fusion_lon": 0.0}, {"rental_uris": {"ios": "https://dc.lft.to/lastmile_qr_scan", "android": "https://dc.lft.to/lastmile_qr_scan"}, "type": "electric_scooter", "name": "ffee6b1ea461f267b50c86744083925e", "is_reserved": 0, "lon": -76.94379366666666, "is_disabled": 0, "fusion_lat": 0.0, "lat": 38.8911675, "bike_id": "ffee6b1ea461f267b50c86744083925e", "fusion_lon": 0.0}, {"rental_uris": {"ios": "https://dc.lft.to/lastmile_qr_scan", "android": "https://dc.lft.to/lastmile_qr_scan"}, "type": "electric_scooter", "name": "85aec44884cb4e390e71783fadedf36c", "is_reserved": 0, "lon": -77.03855916666667, "is_disabled": 0, "fusion_lat": 0.0, "lat": 38.910953666666664, "bike_id": "85aec44884cb4e390e71783fadedf36c", "fusion_lon": 0.0}, {"rental_uris": {"ios": "https://dc.lft.to/lastmile_qr_scan", "android": "https://dc.lft.to/lastmile_qr_scan"}, "type": "electric_bike", "name": "33c7aead44c9aed54a6694759b52f269", "is_reserved": 0, "lon": -77.0701225, "is_disabled": 0, "fusion_lat": 0.0, "lat": 38.841130666666665, "bike_id": "33c7aead44c9aed54a6694759b52f269", "fusion_lon": 0.0}, {"rental_uris": {"ios": "https://dc.lft.to/lastmile_qr_scan", "android": "https://dc.lft.to/lastmile_qr_scan"}, "type": "electric_scooter", "name": "7edef85598915f26fc7ba4db042a7727", "is_reserved": 0, "lon": -77.06518016666666, "is_disabled": 0, "fusion_lat": 0.0, "lat": 38.905204833333336, "bike_id": "7edef85598915f26fc7ba4db042a7727", "fusion_lon": 0.0}, {"rental_uris": {"ios": "https://dc.lft.to/lastmile_qr_scan", "android": "https://dc.lft.to/lastmile_qr_scan"}, "type": "electric_scooter", "name": "16c025d90f1a028171c7d21b74c64253", "is_reserved": 0, "lon": -76.9525585, "is_disabled": 0, "fusion_lat": 0.0, "lat": 38.8927545, "bike_id": "16c025d90f1a028171c7d21b74c64253", "fusion_lon": 0.0}, {"rental_uris": {"ios": "https://dc.lft.to/lastmile_qr_scan", "android": "https://dc.lft.to/lastmile_qr_scan"}, "type": "electric_scooter", "name": "80e72ea4e60f83ecce4eeab5a3bb6498", "is_reserved": 0, "lon": -77.02831583333334, "is_disabled": 0, "fusion_lat": 0.0, "lat": 38.893729666666665, "bike_id": "80e72ea4e60f83ecce4eeab5a3bb6498", "fusion_lon": 0.0}, {"rental_uris": {"ios": "https://dc.lft.to/lastmile_qr_scan", "android": "https://dc.lft.to/lastmile_qr_scan"}, "type": "electric_scooter", "name": "04a9e843c577aa4f28fb729d1b58662e", "is_reserved": 0, "lon": -77.07022933333333, "is_disabled": 0, "fusion_lat": 0.0, "lat": 38.893534833333334, "bike_id": "04a9e843c577aa4f28fb729d1b58662e", "fusion_lon": 0.0}, {"rental_uris": {"ios": "https://dc.lft.to/lastmile_qr_scan", "android": "https://dc.lft.to/lastmile_qr_scan"}, "type": "electric_scooter", "name": "733f3a0f23a609757c76b7ab4da74c8a", "is_reserved": 0, "lon": -77.04581366666666, "is_disabled": 0, "fusion_lat": 0.0, "lat": 38.909462833333336, "bike_id": "733f3a0f23a609757c76b7ab4da74c8a", "fusion_lon": 0.0}, {"rental_uris": {"ios": "https://dc.lft.to/lastmile_qr_scan", "android": "https://dc.lft.to/lastmile_qr_scan"}, "type": "electric_scooter", "name": "03f6c1be905ef8f39e592804bd4f1cae", "is_reserved": 0, "lon": -77.05532066666666, "is_disabled": 0, "fusion_lat": 0.0, "lat": 38.910021666666665, "bike_id": "03f6c1be905ef8f39e592804bd4f1cae", "fusion_lon": 0.0}, {"rental_uris": {"ios": "https://dc.lft.to/lastmile_qr_scan", "android": "https://dc.lft.to/lastmile_qr_scan"}, "type": "electric_bike", "name": "6bd39a18042de92f25939af08778c733", "is_reserved": 0, "lon": -76.941519, "is_disabled": 0, "fusion_lat": 0.0, "lat": 38.89015716666667, "bike_id": "6bd39a18042de92f25939af08778c733", "fusion_lon": 0.0}, {"rental_uris": {"ios": "https://dc.lft.to/lastmile_qr_scan", "android": "https://dc.lft.to/lastmile_qr_scan"}, "type": "electric_scooter", "name": "3fa7562bfa220aa50cfee43f04cd503e", "is_reserved": 0, "lon": -77.0250315, "is_disabled": 0, "fusion_lat": 0.0, "lat": 38.93288316666667, "bike_id": "3fa7562bfa220aa50cfee43f04cd503e", "fusion_lon": 0.0}, {"rental_uris": {"ios": "https://dc.lft.to/lastmile_qr_scan", "android": "https://dc.lft.to/lastmile_qr_scan"}, "type": "electric_scooter", "name": "c1d66ecfeb6eb9f7b46be8881b7afde5", "is_reserved": 0, "lon": -77.00199316666667, "is_disabled": 0, "fusion_lat": 0.0, "lat": 38.91191883333333, "bike_id": "c1d66ecfeb6eb9f7b46be8881b7afde5", "fusion_lon": 0.0}, {"rental_uris": {"ios": "https://dc.lft.to/lastmile_qr_scan", "android": "https://dc.lft.to/lastmile_qr_scan"}, "type": "electric_scooter", "name": "a547c79cbe050b607f9c9ae531f362ac", "is_reserved": 0, "lon": -76.98983966666667, "is_disabled": 0, "fusion_lat": 0.0, "lat": 38.8642205, "bike_id": "a547c79cbe050b607f9c9ae531f362ac", "fusion_lon": 0.0}, {"rental_uris": {"ios": "https://dc.lft.to/lastmile_qr_scan", "android": "https://dc.lft.to/lastmile_qr_scan"}, "type": "electric_scooter", "name": "2464515eaee9cb9eb64d849cb2af6e4d", "is_reserved": 0, "lon": -77.02162816666667, "is_disabled": 0, "fusion_lat": 0.0, "lat": 38.924985166666666, "bike_id": "2464515eaee9cb9eb64d849cb2af6e4d", "fusion_lon": 0.0}, {"rental_uris": {"ios": "https://dc.lft.to/lastmile_qr_scan", "android": "https://dc.lft.to/lastmile_qr_scan"}, "type": "electric_bike", "name": "43ded6dc97747fc06eb58aab31ec59f6", "is_reserved": 0, "lon": -77.129432, "is_disabled": 0, "fusion_lat": 0.0, "lat": 38.86578733333333, "bike_id": "43ded6dc97747fc06eb58aab31ec59f6", "fusion_lon": 0.0}, {"rental_uris": {"ios": "https://dc.lft.to/lastmile_qr_scan", "android": "https://dc.lft.to/lastmile_qr_scan"}, "type": "electric_scooter", "name": "aa3f97ca823c32f320ca2f7e1f1f5473", "is_reserved": 0, "lon": -77.03861866666666, "is_disabled": 0, "fusion_lat": 0.0, "lat": 38.91717516666667, "bike_id": "aa3f97ca823c32f320ca2f7e1f1f5473", "fusion_lon": 0.0}, {"rental_uris": {"ios": "https://dc.lft.to/lastmile_qr_scan", "android": "https://dc.lft.to/lastmile_qr_scan"}, "type": "electric_scooter", "name": "1029c66df91ff4da8adb660dbbb76e1a", "is_reserved": 0, "lon": -77.04603916666667, "is_disabled": 0, "fusion_lat": 0.0, "lat": 38.91866916666667, "bike_id": "1029c66df91ff4da8adb660dbbb76e1a", "fusion_lon": 0.0}, {"rental_uris": {"ios": "https://dc.lft.to/lastmile_qr_scan", "android": "https://dc.lft.to/lastmile_qr_scan"}, "type": "electric_scooter", "name": "fb04d9257142e11df28c67741557834a", "is_reserved": 0, "lon": -77.03825383333333, "is_disabled": 0, "fusion_lat": 0.0, "lat": 38.96266516666667, "bike_id": "fb04d9257142e11df28c67741557834a", "fusion_lon": 0.0}, {"rental_uris": {"ios": "https://dc.lft.to/lastmile_qr_scan", "android": "https://dc.lft.to/lastmile_qr_scan"}, "type": "electric_scooter", "name": "c65da7635f636409632769fa36f84641", "is_reserved": 0, "lon": -76.999225, "is_disabled": 0, "fusion_lat": 0.0, "lat": 38.9005795, "bike_id": "c65da7635f636409632769fa36f84641", "fusion_lon": 0.0}, {"rental_uris": {"ios": "https://dc.lft.to/lastmile_qr_scan", "android": "https://dc.lft.to/lastmile_qr_scan"}, "type": "electric_scooter", "name": "0ce0b888a4cb5cafeece948973e2a14c", "is_reserved": 0, "lon": -77.05817266666666, "is_disabled": 0, "fusion_lat": 0.0, "lat": 38.935222833333334, "bike_id": "0ce0b888a4cb5cafeece948973e2a14c", "fusion_lon": 0.0}, {"rental_uris": {"ios": "https://dc.lft.to/lastmile_qr_scan", "android": "https://dc.lft.to/lastmile_qr_scan"}, "type": "electric_scooter", "name": "9a739df30f926f45f4ff5bf9e9e948ff", "is_reserved": 0, "lon": -76.93188016666667, "is_disabled": 0, "fusion_lat": 0.0, "lat": 38.898788833333334, "bike_id": "9a739df30f926f45f4ff5bf9e9e948ff", "fusion_lon": 0.0}, {"rental_uris": {"ios": "https://dc.lft.to/lastmile_qr_scan", "android": "https://dc.lft.to/lastmile_qr_scan"}, "type": "electric_scooter", "name": "40cff0b1a89da20393f4f0bb22276a82", "is_reserved": 0, "lon": -77.000416, "is_disabled": 0, "fusion_lat": 0.0, "lat": 38.874141333333334, "bike_id": "40cff0b1a89da20393f4f0bb22276a82", "fusion_lon": 0.0}, {"rental_uris": {"ios": "https://dc.lft.to/lastmile_qr_scan", "android": "https://dc.lft.to/lastmile_qr_scan"}, "type": "electric_scooter", "name": "27dcd4bed62be1a5245047d9d684f182", "is_reserved": 0, "lon": -77.01994233333333, "is_disabled": 0, "fusion_lat": 0.0, "lat": 38.9305015, "bike_id": "27dcd4bed62be1a5245047d9d684f182", "fusion_lon": 0.0}, {"rental_uris": {"ios": "https://dc.lft.to/lastmile_qr_scan", "android": "https://dc.lft.to/lastmile_qr_scan"}, "type": "electric_scooter", "name": "c3ffa0bc40d574f746968fb65e2efda9", "is_reserved": 0, "lon": -77.02586883333333, "is_disabled": 0, "fusion_lat": 0.0, "lat": 38.90698483333333, "bike_id": "c3ffa0bc40d574f746968fb65e2efda9", "fusion_lon": 0.0}, {"rental_uris": {"ios": "https://dc.lft.to/lastmile_qr_scan", "android": "https://dc.lft.to/lastmile_qr_scan"}, "type": "electric_scooter", "name": "ff85e3a337b9e49036c41f746dc1b2f8", "is_reserved": 0, "lon": -77.0257025, "is_disabled": 0, "fusion_lat": 0.0, "lat": 38.948537, "bike_id": "ff85e3a337b9e49036c41f746dc1b2f8", "fusion_lon": 0.0}, {"rental_uris": {"ios": "https://dc.lft.to/lastmile_qr_scan", "android": "https://dc.lft.to/lastmile_qr_scan"}, "type": "electric_scooter", "name": "95f1a74dacfc7a61b3abcd30a30cc34b", "is_reserved": 0, "lon": -76.9865025, "is_disabled": 0, "fusion_lat": 0.0, "lat": 38.9054145, "bike_id": "95f1a74dacfc7a61b3abcd30a30cc34b", "fusion_lon": 0.0}, {"rental_uris": {"ios": "https://dc.lft.to/lastmile_qr_scan", "android": "https://dc.lft.to/lastmile_qr_scan"}, "type": "electric_scooter", "name": "a704ef3b75b1954b828f19a36f2f00f5", "is_reserved": 0, "lon": -76.942869, "is_disabled": 0, "fusion_lat": 0.0, "lat": 38.901670333333335, "bike_id": "a704ef3b75b1954b828f19a36f2f00f5", "fusion_lon": 0.0}, {"rental_uris": {"ios": "https://dc.lft.to/lastmile_qr_scan", "android": "https://dc.lft.to/lastmile_qr_scan"}, "type": "electric_bike", "name": "26ecb4b216a3d40f647367c51ea830e0", "is_reserved": 0, "lon": -77.23177, "is_disabled": 0, "fusion_lat": 0.0, "lat": 38.928959666666664, "bike_id": "26ecb4b216a3d40f647367c51ea830e0", "fusion_lon": 0.0}, {"rental_uris": {"ios": "https://dc.lft.to/lastmile_qr_scan", "android": "https://dc.lft.to/lastmile_qr_scan"}, "type": "electric_scooter", "name": "0ef8aa3a399d497ce3d06f19d361ea0b", "is_reserved": 0, "lon": -77.01647533333333, "is_disabled": 0, "fusion_lat": 0.0, "lat": 38.90392933333333, "bike_id": "0ef8aa3a399d497ce3d06f19d361ea0b", "fusion_lon": 0.0}, {"rental_uris": {"ios": "https://dc.lft.to/lastmile_qr_scan", "android": "https://dc.lft.to/lastmile_qr_scan"}, "type": "electric_bike", "name": "8832f662d1b07524ead86a187e517382", "is_reserved": 0, "lon": -76.97931666666666, "is_disabled": 0, "fusion_lat": 0.0, "lat": 38.919995666666665, "bike_id": "8832f662d1b07524ead86a187e517382", "fusion_lon": 0.0}, {"rental_uris": {"ios": "https://dc.lft.to/lastmile_qr_scan", "android": "https://dc.lft.to/lastmile_qr_scan"}, "type": "electric_scooter", "name": "2fec7d448f38a0444e8c48ff6c0eeaf2", "is_reserved": 0, "lon": -77.02644683333334, "is_disabled": 0, "fusion_lat": 0.0, "lat": 38.930914666666666, "bike_id": "2fec7d448f38a0444e8c48ff6c0eeaf2", "fusion_lon": 0.0}, {"rental_uris": {"ios": "https://dc.lft.to/lastmile_qr_scan", "android": "https://dc.lft.to/lastmile_qr_scan"}, "type": "electric_scooter", "name": "b97699e317fc7c33d4cad164a8498798", "is_reserved": 0, "lon": -77.03206683333333, "is_disabled": 0, "fusion_lat": 0.0, "lat": 38.921889, "bike_id": "b97699e317fc7c33d4cad164a8498798", "fusion_lon": 0.0}, {"rental_uris": {"ios": "https://dc.lft.to/lastmile_qr_scan", "android": "https://dc.lft.to/lastmile_qr_scan"}, "type": "electric_bike", "name": "26839c180d5046870c08f32b05324eb7", "is_reserved": 0, "lon": -77.02467033333333, "is_disabled": 0, "fusion_lat": 0.0, "lat": 38.933008, "bike_id": "26839c180d5046870c08f32b05324eb7", "fusion_lon": 0.0}, {"rental_uris": {"ios": "https://dc.lft.to/lastmile_qr_scan", "android": "https://dc.lft.to/lastmile_qr_scan"}, "type": "electric_bike", "name": "53e8979d64c5f8f20fa2bbb093616274", "is_reserved": 0, "lon": -77.102914, "is_disabled": 0, "fusion_lat": 0.0, "lat": 38.852553, "bike_id": "53e8979d64c5f8f20fa2bbb093616274", "fusion_lon": 0.0}, {"rental_uris": {"ios": "https://dc.lft.to/lastmile_qr_scan", "android": "https://dc.lft.to/lastmile_qr_scan"}, "type": "electric_scooter", "name": "38d851238367601325510f11a14c7f3c", "is_reserved": 0, "lon": -77.02005733333333, "is_disabled": 0, "fusion_lat": 0.0, "lat": 38.928079, "bike_id": "38d851238367601325510f11a14c7f3c", "fusion_lon": 0.0}, {"rental_uris": {"ios": "https://dc.lft.to/lastmile_qr_scan", "android": "https://dc.lft.to/lastmile_qr_scan"}, "type": "electric_scooter", "name": "93a72d474628d4bd6dc519b5517f5a3b", "is_reserved": 0, "lon": -77.0149775, "is_disabled": 0, "fusion_lat": 0.0, "lat": 38.906559666666666, "bike_id": "93a72d474628d4bd6dc519b5517f5a3b", "fusion_lon": 0.0}, {"rental_uris": {"ios": "https://dc.lft.to/lastmile_qr_scan", "android": "https://dc.lft.to/lastmile_qr_scan"}, "type": "electric_scooter", "name": "748db9eb153487fccf53684940150763", "is_reserved": 0, "lon": -77.03414333333333, "is_disabled": 0, "fusion_lat": 0.0, "lat": 38.901325, "bike_id": "748db9eb153487fccf53684940150763", "fusion_lon": 0.0}, {"rental_uris": {"ios": "https://dc.lft.to/lastmile_qr_scan", "android": "https://dc.lft.to/lastmile_qr_scan"}, "type": "electric_scooter", "name": "14d6a1d5248111fba3c1f7a258cff404", "is_reserved": 0, "lon": -77.00562683333334, "is_disabled": 0, "fusion_lat": 0.0, "lat": 38.87651483333333, "bike_id": "14d6a1d5248111fba3c1f7a258cff404", "fusion_lon": 0.0}, {"rental_uris": {"ios": "https://dc.lft.to/lastmile_qr_scan", "android": "https://dc.lft.to/lastmile_qr_scan"}, "type": "electric_scooter", "name": "a7e6e247e72eae39b12579c9d61ec7fc", "is_reserved": 0, "lon": -76.92306733333334, "is_disabled": 0, "fusion_lat": 0.0, "lat": 38.8939215, "bike_id": "a7e6e247e72eae39b12579c9d61ec7fc", "fusion_lon": 0.0}, {"rental_uris": {"ios": "https://dc.lft.to/lastmile_qr_scan", "android": "https://dc.lft.to/lastmile_qr_scan"}, "type": "electric_scooter", "name": "5784ef5fb733bfef30f3a13dbde91235", "is_reserved": 0, "lon": -77.028667, "is_disabled": 0, "fusion_lat": 0.0, "lat": 38.912617166666664, "bike_id": "5784ef5fb733bfef30f3a13dbde91235", "fusion_lon": 0.0}, {"rental_uris": {"ios": "https://dc.lft.to/lastmile_qr_scan", "android": "https://dc.lft.to/lastmile_qr_scan"}, "type": "electric_scooter", "name": "158d876b73395b800455990d812a1fde", "is_reserved": 0, "lon": -77.05720166666667, "is_disabled": 0, "fusion_lat": 0.0, "lat": 38.93357266666667, "bike_id": "158d876b73395b800455990d812a1fde", "fusion_lon": 0.0}, {"rental_uris": {"ios": "https://dc.lft.to/lastmile_qr_scan", "android": "https://dc.lft.to/lastmile_qr_scan"}, "type": "electric_scooter", "name": "c9da682aa1f67ccd251883ac62271927", "is_reserved": 0, "lon": -77.03812166666667, "is_disabled": 0, "fusion_lat": 0.0, "lat": 38.93599066666667, "bike_id": "c9da682aa1f67ccd251883ac62271927", "fusion_lon": 0.0}, {"rental_uris": {"ios": "https://dc.lft.to/lastmile_qr_scan", "android": "https://dc.lft.to/lastmile_qr_scan"}, "type": "electric_scooter", "name": "7499d2d341c62476e9668d4a13bf58aa", "is_reserved": 0, "lon": -77.01782216666666, "is_disabled": 0, "fusion_lat": 0.0, "lat": 38.903937, "bike_id": "7499d2d341c62476e9668d4a13bf58aa", "fusion_lon": 0.0}, {"rental_uris": {"ios": "https://dc.lft.to/lastmile_qr_scan", "android": "https://dc.lft.to/lastmile_qr_scan"}, "type": "electric_scooter", "name": "98c5424ee3576c5167b4884f5180db2f", "is_reserved": 0, "lon": -77.0006955, "is_disabled": 0, "fusion_lat": 0.0, "lat": 38.8769005, "bike_id": "98c5424ee3576c5167b4884f5180db2f", "fusion_lon": 0.0}, {"rental_uris": {"ios": "https://dc.lft.to/lastmile_qr_scan", "android": "https://dc.lft.to/lastmile_qr_scan"}, "type": "electric_scooter", "name": "0e8dc348427fc85d303c7032a6d99791", "is_reserved": 0, "lon": -77.006455, "is_disabled": 0, "fusion_lat": 0.0, "lat": 38.878456666666665, "bike_id": "0e8dc348427fc85d303c7032a6d99791", "fusion_lon": 0.0}, {"rental_uris": {"ios": "https://dc.lft.to/lastmile_qr_scan", "android": "https://dc.lft.to/lastmile_qr_scan"}, "type": "electric_scooter", "name": "8a4dda1211ac2a65ac1c898ffb7fd9de", "is_reserved": 0, "lon": -76.99383133333333, "is_disabled": 0, "fusion_lat": 0.0, "lat": 38.893367833333336, "bike_id": "8a4dda1211ac2a65ac1c898ffb7fd9de", "fusion_lon": 0.0}, {"rental_uris": {"ios": "https://dc.lft.to/lastmile_qr_scan", "android": "https://dc.lft.to/lastmile_qr_scan"}, "type": "electric_scooter", "name": "bb0626ace1a15f04e00f15c2e913829e", "is_reserved": 0, "lon": -77.019747, "is_disabled": 0, "fusion_lat": 0.0, "lat": 38.92259, "bike_id": "bb0626ace1a15f04e00f15c2e913829e", "fusion_lon": 0.0}, {"rental_uris": {"ios": "https://dc.lft.to/lastmile_qr_scan", "android": "https://dc.lft.to/lastmile_qr_scan"}, "type": "electric_scooter", "name": "54db039ef488c1e25c804446a67bd93b", "is_reserved": 0, "lon": -76.991628, "is_disabled": 0, "fusion_lat": 0.0, "lat": 38.88819383333333, "bike_id": "54db039ef488c1e25c804446a67bd93b", "fusion_lon": 0.0}, {"rental_uris": {"ios": "https://dc.lft.to/lastmile_qr_scan", "android": "https://dc.lft.to/lastmile_qr_scan"}, "type": "electric_scooter", "name": "c6c18a5bc4cfa8125fc3d07f0b501edc", "is_reserved": 0, "lon": -77.024097, "is_disabled": 0, "fusion_lat": 0.0, "lat": 38.938154833333336, "bike_id": "c6c18a5bc4cfa8125fc3d07f0b501edc", "fusion_lon": 0.0}, {"rental_uris": {"ios": "https://dc.lft.to/lastmile_qr_scan", "android": "https://dc.lft.to/lastmile_qr_scan"}, "type": "electric_scooter", "name": "4397fcb31e5edea4e4ba14f022df0ac7", "is_reserved": 0, "lon": -76.99872283333333, "is_disabled": 0, "fusion_lat": 0.0, "lat": 38.90028, "bike_id": "4397fcb31e5edea4e4ba14f022df0ac7", "fusion_lon": 0.0}, {"rental_uris": {"ios": "https://dc.lft.to/lastmile_qr_scan", "android": "https://dc.lft.to/lastmile_qr_scan"}, "type": "electric_scooter", "name": "2a8aa1661d9fdbf79794a440835ce6f5", "is_reserved": 0, "lon": -77.06480216666667, "is_disabled": 0, "fusion_lat": 0.0, "lat": 38.9270195, "bike_id": "2a8aa1661d9fdbf79794a440835ce6f5", "fusion_lon": 0.0}, {"rental_uris": {"ios": "https://dc.lft.to/lastmile_qr_scan", "android": "https://dc.lft.to/lastmile_qr_scan"}, "type": "electric_scooter", "name": "149e22068071307658cd8a310979ac35", "is_reserved": 0, "lon": -77.042289, "is_disabled": 0, "fusion_lat": 0.0, "lat": 38.911091166666665, "bike_id": "149e22068071307658cd8a310979ac35", "fusion_lon": 0.0}, {"rental_uris": {"ios": "https://dc.lft.to/lastmile_qr_scan", "android": "https://dc.lft.to/lastmile_qr_scan"}, "type": "electric_scooter", "name": "f598a111acd7234ca0d87a3a7c5502eb", "is_reserved": 0, "lon": -77.02690566666666, "is_disabled": 0, "fusion_lat": 0.0, "lat": 38.92492766666667, "bike_id": "f598a111acd7234ca0d87a3a7c5502eb", "fusion_lon": 0.0}, {"rental_uris": {"ios": "https://dc.lft.to/lastmile_qr_scan", "android": "https://dc.lft.to/lastmile_qr_scan"}, "type": "electric_scooter", "name": "968a4709dac29ce395deebb1291acbcf", "is_reserved": 0, "lon": -77.04533616666667, "is_disabled": 0, "fusion_lat": 0.0, "lat": 38.911137333333336, "bike_id": "968a4709dac29ce395deebb1291acbcf", "fusion_lon": 0.0}, {"rental_uris": {"ios": "https://dc.lft.to/lastmile_qr_scan", "android": "https://dc.lft.to/lastmile_qr_scan"}, "type": "electric_scooter", "name": "c16f572216fedde4fa9273831da9b300", "is_reserved": 0, "lon": -76.99170933333333, "is_disabled": 0, "fusion_lat": 0.0, "lat": 38.902650666666666, "bike_id": "c16f572216fedde4fa9273831da9b300", "fusion_lon": 0.0}, {"rental_uris": {"ios": "https://dc.lft.to/lastmile_qr_scan", "android": "https://dc.lft.to/lastmile_qr_scan"}, "type": "electric_scooter", "name": "9a234d32a3e782192ea958b178f0d3b1", "is_reserved": 0, "lon": -77.03472483333333, "is_disabled": 0, "fusion_lat": 0.0, "lat": 38.902374, "bike_id": "9a234d32a3e782192ea958b178f0d3b1", "fusion_lon": 0.0}, {"rental_uris": {"ios": "https://dc.lft.to/lastmile_qr_scan", "android": "https://dc.lft.to/lastmile_qr_scan"}, "type": "electric_scooter", "name": "44cf0f835b52fba22ad6c99c6d891bfb", "is_reserved": 0, "lon": -76.94062, "is_disabled": 0, "fusion_lat": 0.0, "lat": 38.88589183333333, "bike_id": "44cf0f835b52fba22ad6c99c6d891bfb", "fusion_lon": 0.0}, {"rental_uris": {"ios": "https://dc.lft.to/lastmile_qr_scan", "android": "https://dc.lft.to/lastmile_qr_scan"}, "type": "electric_scooter", "name": "cf3a5d3a90a6140b27d68fe45463d4b2", "is_reserved": 0, "lon": -77.02297716666666, "is_disabled": 0, "fusion_lat": 0.0, "lat": 38.9493375, "bike_id": "cf3a5d3a90a6140b27d68fe45463d4b2", "fusion_lon": 0.0}, {"rental_uris": {"ios": "https://dc.lft.to/lastmile_qr_scan", "android": "https://dc.lft.to/lastmile_qr_scan"}, "type": "electric_scooter", "name": "06caaae7b8fb29933d32a0271ab63770", "is_reserved": 0, "lon": -77.07246416666666, "is_disabled": 0, "fusion_lat": 0.0, "lat": 38.93433016666667, "bike_id": "06caaae7b8fb29933d32a0271ab63770", "fusion_lon": 0.0}, {"rental_uris": {"ios": "https://dc.lft.to/lastmile_qr_scan", "android": "https://dc.lft.to/lastmile_qr_scan"}, "type": "electric_scooter", "name": "ab7f436c4cae91bd38cf32f721f06b51", "is_reserved": 0, "lon": -77.00478316666667, "is_disabled": 0, "fusion_lat": 0.0, "lat": 38.885132666666664, "bike_id": "ab7f436c4cae91bd38cf32f721f06b51", "fusion_lon": 0.0}, {"rental_uris": {"ios": "https://dc.lft.to/lastmile_qr_scan", "android": "https://dc.lft.to/lastmile_qr_scan"}, "type": "electric_scooter", "name": "569687b7f2f90b67043523b81cc9d706", "is_reserved": 0, "lon": -77.023209, "is_disabled": 0, "fusion_lat": 0.0, "lat": 38.938064, "bike_id": "569687b7f2f90b67043523b81cc9d706", "fusion_lon": 0.0}, {"rental_uris": {"ios": "https://dc.lft.to/lastmile_qr_scan", "android": "https://dc.lft.to/lastmile_qr_scan"}, "type": "electric_scooter", "name": "38b161aa96c484bdcd963ac9d3be8e6c", "is_reserved": 0, "lon": -77.03858, "is_disabled": 0, "fusion_lat": 0.0, "lat": 38.9128215, "bike_id": "38b161aa96c484bdcd963ac9d3be8e6c", "fusion_lon": 0.0}, {"rental_uris": {"ios": "https://dc.lft.to/lastmile_qr_scan", "android": "https://dc.lft.to/lastmile_qr_scan"}, "type": "electric_scooter", "name": "024a1cc949a1bf24a668d605c2686bb2", "is_reserved": 0, "lon": -76.99504366666666, "is_disabled": 0, "fusion_lat": 0.0, "lat": 38.909804666666666, "bike_id": "024a1cc949a1bf24a668d605c2686bb2", "fusion_lon": 0.0}, {"rental_uris": {"ios": "https://dc.lft.to/lastmile_qr_scan", "android": "https://dc.lft.to/lastmile_qr_scan"}, "type": "electric_scooter", "name": "3e21516a84c68cbd8e5bd032eabe75ef", "is_reserved": 0, "lon": -77.00601483333334, "is_disabled": 0, "fusion_lat": 0.0, "lat": 38.90586233333333, "bike_id": "3e21516a84c68cbd8e5bd032eabe75ef", "fusion_lon": 0.0}, {"rental_uris": {"ios": "https://dc.lft.to/lastmile_qr_scan", "android": "https://dc.lft.to/lastmile_qr_scan"}, "type": "electric_scooter", "name": "2153392958332711130019db74215745", "is_reserved": 0, "lon": -77.060909, "is_disabled": 0, "fusion_lat": 0.0, "lat": 38.93990066666667, "bike_id": "2153392958332711130019db74215745", "fusion_lon": 0.0}, {"rental_uris": {"ios": "https://dc.lft.to/lastmile_qr_scan", "android": "https://dc.lft.to/lastmile_qr_scan"}, "type": "electric_scooter", "name": "c7fa5ed79c0d159c90d32d4ff692c100", "is_reserved": 0, "lon": -77.020992, "is_disabled": 0, "fusion_lat": 0.0, "lat": 38.96670966666667, "bike_id": "c7fa5ed79c0d159c90d32d4ff692c100", "fusion_lon": 0.0}, {"rental_uris": {"ios": "https://dc.lft.to/lastmile_qr_scan", "android": "https://dc.lft.to/lastmile_qr_scan"}, "type": "electric_bike", "name": "04d0de25abc381cb5186b9c1a89953ed", "is_reserved": 0, "lon": -77.07659816666667, "is_disabled": 0, "fusion_lat": 0.0, "lat": 38.80982733333333, "bike_id": "04d0de25abc381cb5186b9c1a89953ed", "fusion_lon": 0.0}, {"rental_uris": {"ios": "https://dc.lft.to/lastmile_qr_scan", "android": "https://dc.lft.to/lastmile_qr_scan"}, "type": "electric_scooter", "name": "238a179f42e274f9cd8cae60df91d205", "is_reserved": 0, "lon": -76.99036883333333, "is_disabled": 0, "fusion_lat": 0.0, "lat": 38.88886933333333, "bike_id": "238a179f42e274f9cd8cae60df91d205", "fusion_lon": 0.0}, {"rental_uris": {"ios": "https://dc.lft.to/lastmile_qr_scan", "android": "https://dc.lft.to/lastmile_qr_scan"}, "type": "electric_bike", "name": "fabb144658d6927f7a6fd8721f2f4467", "is_reserved": 0, "lon": -77.02068116666666, "is_disabled": 0, "fusion_lat": 0.0, "lat": 38.964446, "bike_id": "fabb144658d6927f7a6fd8721f2f4467", "fusion_lon": 0.0}, {"rental_uris": {"ios": "https://dc.lft.to/lastmile_qr_scan", "android": "https://dc.lft.to/lastmile_qr_scan"}, "type": "electric_scooter", "name": "dfb5c797181a778cdd7dc52d42f21458", "is_reserved": 0, "lon": -76.99992033333334, "is_disabled": 0, "fusion_lat": 0.0, "lat": 38.90867166666666, "bike_id": "dfb5c797181a778cdd7dc52d42f21458", "fusion_lon": 0.0}, {"rental_uris": {"ios": "https://dc.lft.to/lastmile_qr_scan", "android": "https://dc.lft.to/lastmile_qr_scan"}, "type": "electric_scooter", "name": "cacedc7d40797a5c2546ed9421310a66", "is_reserved": 0, "lon": -77.04670316666666, "is_disabled": 0, "fusion_lat": 0.0, "lat": 38.912477333333335, "bike_id": "cacedc7d40797a5c2546ed9421310a66", "fusion_lon": 0.0}, {"rental_uris": {"ios": "https://dc.lft.to/lastmile_qr_scan", "android": "https://dc.lft.to/lastmile_qr_scan"}, "type": "electric_scooter", "name": "f0ad9de9b4e2060c31ea885361c0e8c3", "is_reserved": 0, "lon": -77.00202383333334, "is_disabled": 0, "fusion_lat": 0.0, "lat": 38.8892705, "bike_id": "f0ad9de9b4e2060c31ea885361c0e8c3", "fusion_lon": 0.0}, {"rental_uris": {"ios": "https://dc.lft.to/lastmile_qr_scan", "android": "https://dc.lft.to/lastmile_qr_scan"}, "type": "electric_scooter", "name": "60596da11458993d9451d4b7dd7b9553", "is_reserved": 0, "lon": -77.03267633333333, "is_disabled": 0, "fusion_lat": 0.0, "lat": 38.92552166666667, "bike_id": "60596da11458993d9451d4b7dd7b9553", "fusion_lon": 0.0}, {"rental_uris": {"ios": "https://dc.lft.to/lastmile_qr_scan", "android": "https://dc.lft.to/lastmile_qr_scan"}, "type": "electric_scooter", "name": "5928bfc4f98c8d7620e750ecf5cf3393", "is_reserved": 0, "lon": -77.06029966666667, "is_disabled": 0, "fusion_lat": 0.0, "lat": 38.938826, "bike_id": "5928bfc4f98c8d7620e750ecf5cf3393", "fusion_lon": 0.0}, {"rental_uris": {"ios": "https://dc.lft.to/lastmile_qr_scan", "android": "https://dc.lft.to/lastmile_qr_scan"}, "type": "electric_scooter", "name": "12731878cd7038c2bbb36b35a53bc989", "is_reserved": 0, "lon": -76.97718416666666, "is_disabled": 0, "fusion_lat": 0.0, "lat": 38.900578, "bike_id": "12731878cd7038c2bbb36b35a53bc989", "fusion_lon": 0.0}, {"rental_uris": {"ios": "https://dc.lft.to/lastmile_qr_scan", "android": "https://dc.lft.to/lastmile_qr_scan"}, "type": "electric_scooter", "name": "c30e44a593fa63bdd6891487f6fc2ca4", "is_reserved": 0, "lon": -76.9853405, "is_disabled": 0, "fusion_lat": 0.0, "lat": 38.914483, "bike_id": "c30e44a593fa63bdd6891487f6fc2ca4", "fusion_lon": 0.0}, {"rental_uris": {"ios": "https://dc.lft.to/lastmile_qr_scan", "android": "https://dc.lft.to/lastmile_qr_scan"}, "type": "electric_bike", "name": "900fc901f069849e8e83fcf1e01a3f71", "is_reserved": 0, "lon": -77.01910283333333, "is_disabled": 0, "fusion_lat": 0.0, "lat": 38.97670033333333, "bike_id": "900fc901f069849e8e83fcf1e01a3f71", "fusion_lon": 0.0}, {"rental_uris": {"ios": "https://dc.lft.to/lastmile_qr_scan", "android": "https://dc.lft.to/lastmile_qr_scan"}, "type": "electric_scooter", "name": "2513bc30c40337bf727ff03590001196", "is_reserved": 0, "lon": -77.040203, "is_disabled": 0, "fusion_lat": 0.0, "lat": 38.92255166666666, "bike_id": "2513bc30c40337bf727ff03590001196", "fusion_lon": 0.0}, {"rental_uris": {"ios": "https://dc.lft.to/lastmile_qr_scan", "android": "https://dc.lft.to/lastmile_qr_scan"}, "type": "electric_scooter", "name": "a6d466fdb75dabddb12a2f9a2bdfe78c", "is_reserved": 0, "lon": -77.05741566666667, "is_disabled": 0, "fusion_lat": 0.0, "lat": 38.93037666666667, "bike_id": "a6d466fdb75dabddb12a2f9a2bdfe78c", "fusion_lon": 0.0}, {"rental_uris": {"ios": "https://dc.lft.to/lastmile_qr_scan", "android": "https://dc.lft.to/lastmile_qr_scan"}, "type": "electric_scooter", "name": "f839d1349215550fa99e6b630a47df9d", "is_reserved": 0, "lon": -77.00962083333333, "is_disabled": 0, "fusion_lat": 0.0, "lat": 38.8746285, "bike_id": "f839d1349215550fa99e6b630a47df9d", "fusion_lon": 0.0}, {"rental_uris": {"ios": "https://dc.lft.to/lastmile_qr_scan", "android": "https://dc.lft.to/lastmile_qr_scan"}, "type": "electric_bike", "name": "62472ffe6b25f2e4000ee1153038f922", "is_reserved": 0, "lon": -77.023849, "is_disabled": 0, "fusion_lat": 0.0, "lat": 38.919596166666665, "bike_id": "62472ffe6b25f2e4000ee1153038f922", "fusion_lon": 0.0}, {"rental_uris": {"ios": "https://dc.lft.to/lastmile_qr_scan", "android": "https://dc.lft.to/lastmile_qr_scan"}, "type": "electric_scooter", "name": "1eb4fe627d5e4ecae8f5787a4ee99100", "is_reserved": 0, "lon": -77.00512716666667, "is_disabled": 0, "fusion_lat": 0.0, "lat": 38.87852083333333, "bike_id": "1eb4fe627d5e4ecae8f5787a4ee99100", "fusion_lon": 0.0}, {"rental_uris": {"ios": "https://dc.lft.to/lastmile_qr_scan", "android": "https://dc.lft.to/lastmile_qr_scan"}, "type": "electric_bike", "name": "df13b9ea773466f5795db7ac73df6cbb", "is_reserved": 0, "lon": -77.09622966666667, "is_disabled": 0, "fusion_lat": 0.0, "lat": 38.974409333333334, "bike_id": "df13b9ea773466f5795db7ac73df6cbb", "fusion_lon": 0.0}, {"rental_uris": {"ios": "https://dc.lft.to/lastmile_qr_scan", "android": "https://dc.lft.to/lastmile_qr_scan"}, "type": "electric_bike", "name": "cace0a0222d4f16ebeab8cdaf00f508f", "is_reserved": 0, "lon": -76.93329583333333, "is_disabled": 0, "fusion_lat": 0.0, "lat": 38.95152083333333, "bike_id": "cace0a0222d4f16ebeab8cdaf00f508f", "fusion_lon": 0.0}, {"rental_uris": {"ios": "https://dc.lft.to/lastmile_qr_scan", "android": "https://dc.lft.to/lastmile_qr_scan"}, "type": "electric_scooter", "name": "d24d6c829e216d89f25f8f83d45bde8a", "is_reserved": 0, "lon": -77.07869933333333, "is_disabled": 0, "fusion_lat": 0.0, "lat": 38.931783, "bike_id": "d24d6c829e216d89f25f8f83d45bde8a", "fusion_lon": 0.0}, {"rental_uris": {"ios": "https://dc.lft.to/lastmile_qr_scan", "android": "https://dc.lft.to/lastmile_qr_scan"}, "type": "electric_scooter", "name": "714c4fd79925e3b4c4d3003683565ec6", "is_reserved": 0, "lon": -77.02982916666667, "is_disabled": 0, "fusion_lat": 0.0, "lat": 38.92373033333333, "bike_id": "714c4fd79925e3b4c4d3003683565ec6", "fusion_lon": 0.0}, {"rental_uris": {"ios": "https://dc.lft.to/lastmile_qr_scan", "android": "https://dc.lft.to/lastmile_qr_scan"}, "type": "electric_scooter", "name": "9b6ae0a2e9d4aa7f6e76a140ac1d8f84", "is_reserved": 0, "lon": -77.01908933333333, "is_disabled": 0, "fusion_lat": 0.0, "lat": 38.90572683333333, "bike_id": "9b6ae0a2e9d4aa7f6e76a140ac1d8f84", "fusion_lon": 0.0}, {"rental_uris": {"ios": "https://dc.lft.to/lastmile_qr_scan", "android": "https://dc.lft.to/lastmile_qr_scan"}, "type": "electric_scooter", "name": "840deb9a2eefe7fcfd357b70e0d7f41e", "is_reserved": 0, "lon": -76.946489, "is_disabled": 0, "fusion_lat": 0.0, "lat": 38.89832366666667, "bike_id": "840deb9a2eefe7fcfd357b70e0d7f41e", "fusion_lon": 0.0}, {"rental_uris": {"ios": "https://dc.lft.to/lastmile_qr_scan", "android": "https://dc.lft.to/lastmile_qr_scan"}, "type": "electric_scooter", "name": "b388c948cdbbab664fce410d289612bf", "is_reserved": 0, "lon": -77.01240766666666, "is_disabled": 0, "fusion_lat": 0.0, "lat": 38.91581633333333, "bike_id": "b388c948cdbbab664fce410d289612bf", "fusion_lon": 0.0}, {"rental_uris": {"ios": "https://dc.lft.to/lastmile_qr_scan", "android": "https://dc.lft.to/lastmile_qr_scan"}, "type": "electric_scooter", "name": "19fbf48e10c2ecaafd08267f22080f0a", "is_reserved": 0, "lon": -77.03498766666667, "is_disabled": 0, "fusion_lat": 0.0, "lat": 38.915606333333336, "bike_id": "19fbf48e10c2ecaafd08267f22080f0a", "fusion_lon": 0.0}, {"rental_uris": {"ios": "https://dc.lft.to/lastmile_qr_scan", "android": "https://dc.lft.to/lastmile_qr_scan"}, "type": "electric_scooter", "name": "0d20c3d05c90a239d21e968d98b1b194", "is_reserved": 0, "lon": -77.01019733333334, "is_disabled": 0, "fusion_lat": 0.0, "lat": 38.912601, "bike_id": "0d20c3d05c90a239d21e968d98b1b194", "fusion_lon": 0.0}, {"rental_uris": {"ios": "https://dc.lft.to/lastmile_qr_scan", "android": "https://dc.lft.to/lastmile_qr_scan"}, "type": "electric_scooter", "name": "e1b6d143e043b004e2bbb710d6dc8554", "is_reserved": 0, "lon": -77.0473605, "is_disabled": 0, "fusion_lat": 0.0, "lat": 38.895611333333335, "bike_id": "e1b6d143e043b004e2bbb710d6dc8554", "fusion_lon": 0.0}, {"rental_uris": {"ios": "https://dc.lft.to/lastmile_qr_scan", "android": "https://dc.lft.to/lastmile_qr_scan"}, "type": "electric_scooter", "name": "f221584e27083a176c91884e81c12789", "is_reserved": 0, "lon": -77.02691966666667, "is_disabled": 0, "fusion_lat": 0.0, "lat": 38.90840166666667, "bike_id": "f221584e27083a176c91884e81c12789", "fusion_lon": 0.0}, {"rental_uris": {"ios": "https://dc.lft.to/lastmile_qr_scan", "android": "https://dc.lft.to/lastmile_qr_scan"}, "type": "electric_scooter", "name": "fc369250642f50aff436702e8014c59c", "is_reserved": 0, "lon": -77.03772966666666, "is_disabled": 0, "fusion_lat": 0.0, "lat": 38.92334666666667, "bike_id": "fc369250642f50aff436702e8014c59c", "fusion_lon": 0.0}, {"rental_uris": {"ios": "https://dc.lft.to/lastmile_qr_scan", "android": "https://dc.lft.to/lastmile_qr_scan"}, "type": "electric_scooter", "name": "5c5aa56511aaeb480f78aea31de93a1d", "is_reserved": 0, "lon": -77.063305, "is_disabled": 0, "fusion_lat": 0.0, "lat": 38.94369616666667, "bike_id": "5c5aa56511aaeb480f78aea31de93a1d", "fusion_lon": 0.0}, {"rental_uris": {"ios": "https://dc.lft.to/lastmile_qr_scan", "android": "https://dc.lft.to/lastmile_qr_scan"}, "type": "electric_scooter", "name": "36097a48ef9372dc32b86bc805b419af", "is_reserved": 0, "lon": -77.03197633333333, "is_disabled": 0, "fusion_lat": 0.0, "lat": 38.9070675, "bike_id": "36097a48ef9372dc32b86bc805b419af", "fusion_lon": 0.0}, {"rental_uris": {"ios": "https://dc.lft.to/lastmile_qr_scan", "android": "https://dc.lft.to/lastmile_qr_scan"}, "type": "electric_scooter", "name": "6d579a52ce1ea1ec1241661574f34152", "is_reserved": 0, "lon": -77.01823933333333, "is_disabled": 0, "fusion_lat": 0.0, "lat": 38.905282166666666, "bike_id": "6d579a52ce1ea1ec1241661574f34152", "fusion_lon": 0.0}, {"rental_uris": {"ios": "https://dc.lft.to/lastmile_qr_scan", "android": "https://dc.lft.to/lastmile_qr_scan"}, "type": "electric_scooter", "name": "bfcefd13162761129b64a9733d0e003a", "is_reserved": 0, "lon": -77.00921666666666, "is_disabled": 0, "fusion_lat": 0.0, "lat": 38.91242183333333, "bike_id": "bfcefd13162761129b64a9733d0e003a", "fusion_lon": 0.0}, {"rental_uris": {"ios": "https://dc.lft.to/lastmile_qr_scan", "android": "https://dc.lft.to/lastmile_qr_scan"}, "type": "electric_scooter", "name": "9bf0e837e9f95973915fd781fdc197b4", "is_reserved": 0, "lon": -77.007606, "is_disabled": 0, "fusion_lat": 0.0, "lat": 38.87836683333333, "bike_id": "9bf0e837e9f95973915fd781fdc197b4", "fusion_lon": 0.0}, {"rental_uris": {"ios": "https://dc.lft.to/lastmile_qr_scan", "android": "https://dc.lft.to/lastmile_qr_scan"}, "type": "electric_scooter", "name": "d889e90020f12c32d2d1dba65da50ae3", "is_reserved": 0, "lon": -77.0302375, "is_disabled": 0, "fusion_lat": 0.0, "lat": 38.8784665, "bike_id": "d889e90020f12c32d2d1dba65da50ae3", "fusion_lon": 0.0}, {"rental_uris": {"ios": "https://dc.lft.to/lastmile_qr_scan", "android": "https://dc.lft.to/lastmile_qr_scan"}, "type": "electric_scooter", "name": "d213c98ea69dd5bd039134010cb531b1", "is_reserved": 0, "lon": -77.00741283333333, "is_disabled": 0, "fusion_lat": 0.0, "lat": 38.89901716666667, "bike_id": "d213c98ea69dd5bd039134010cb531b1", "fusion_lon": 0.0}, {"rental_uris": {"ios": "https://dc.lft.to/lastmile_qr_scan", "android": "https://dc.lft.to/lastmile_qr_scan"}, "type": "electric_bike", "name": "e8a774ff44fa177c8372721fcc87f641", "is_reserved": 0, "lon": -76.99547783333334, "is_disabled": 0, "fusion_lat": 0.0, "lat": 38.862186666666666, "bike_id": "e8a774ff44fa177c8372721fcc87f641", "fusion_lon": 0.0}, {"rental_uris": {"ios": "https://dc.lft.to/lastmile_qr_scan", "android": "https://dc.lft.to/lastmile_qr_scan"}, "type": "electric_scooter", "name": "eec087e446e8e42d8217b85622fdfffe", "is_reserved": 0, "lon": -77.0576155, "is_disabled": 0, "fusion_lat": 0.0, "lat": 38.925100666666665, "bike_id": "eec087e446e8e42d8217b85622fdfffe", "fusion_lon": 0.0}, {"rental_uris": {"ios": "https://dc.lft.to/lastmile_qr_scan", "android": "https://dc.lft.to/lastmile_qr_scan"}, "type": "electric_bike", "name": "781b818dc70db27846fb2f97dacb29a6", "is_reserved": 0, "lon": -76.90738083333333, "is_disabled": 0, "fusion_lat": 0.0, "lat": 38.896199833333334, "bike_id": "781b818dc70db27846fb2f97dacb29a6", "fusion_lon": 0.0}, {"rental_uris": {"ios": "https://dc.lft.to/lastmile_qr_scan", "android": "https://dc.lft.to/lastmile_qr_scan"}, "type": "electric_scooter", "name": "3bcef1c9fd1bc7b71023f2bca9acf219", "is_reserved": 0, "lon": -77.04605416666666, "is_disabled": 0, "fusion_lat": 0.0, "lat": 38.905862166666665, "bike_id": "3bcef1c9fd1bc7b71023f2bca9acf219", "fusion_lon": 0.0}, {"rental_uris": {"ios": "https://dc.lft.to/lastmile_qr_scan", "android": "https://dc.lft.to/lastmile_qr_scan"}, "type": "electric_scooter", "name": "2d3be953b59bfa9ff064c82d24835101", "is_reserved": 0, "lon": -77.02179283333334, "is_disabled": 0, "fusion_lat": 0.0, "lat": 38.91125, "bike_id": "2d3be953b59bfa9ff064c82d24835101", "fusion_lon": 0.0}, {"rental_uris": {"ios": "https://dc.lft.to/lastmile_qr_scan", "android": "https://dc.lft.to/lastmile_qr_scan"}, "type": "electric_scooter", "name": "9e5f2c9289a3a5741d5f8e9e11f50355", "is_reserved": 0, "lon": -77.02017116666667, "is_disabled": 0, "fusion_lat": 0.0, "lat": 38.91113416666666, "bike_id": "9e5f2c9289a3a5741d5f8e9e11f50355", "fusion_lon": 0.0}, {"rental_uris": {"ios": "https://dc.lft.to/lastmile_qr_scan", "android": "https://dc.lft.to/lastmile_qr_scan"}, "type": "electric_scooter", "name": "4f59ea91fb37b5da671f469af9345321", "is_reserved": 0, "lon": -77.05023333333334, "is_disabled": 0, "fusion_lat": 0.0, "lat": 38.89653766666667, "bike_id": "4f59ea91fb37b5da671f469af9345321", "fusion_lon": 0.0}, {"rental_uris": {"ios": "https://dc.lft.to/lastmile_qr_scan", "android": "https://dc.lft.to/lastmile_qr_scan"}, "type": "electric_scooter", "name": "c4f98fd3be959aab52785be10aa2ac34", "is_reserved": 0, "lon": -77.03867, "is_disabled": 0, "fusion_lat": 0.0, "lat": 38.915562333333334, "bike_id": "c4f98fd3be959aab52785be10aa2ac34", "fusion_lon": 0.0}, {"rental_uris": {"ios": "https://dc.lft.to/lastmile_qr_scan", "android": "https://dc.lft.to/lastmile_qr_scan"}, "type": "electric_scooter", "name": "2de9c9819d0948bc47c63584c8ff26c5", "is_reserved": 0, "lon": -77.01589166666666, "is_disabled": 0, "fusion_lat": 0.0, "lat": 38.91647433333333, "bike_id": "2de9c9819d0948bc47c63584c8ff26c5", "fusion_lon": 0.0}, {"rental_uris": {"ios": "https://dc.lft.to/lastmile_qr_scan", "android": "https://dc.lft.to/lastmile_qr_scan"}, "type": "electric_scooter", "name": "7dd2527be8f0c32c1c5c9df503c438bc", "is_reserved": 0, "lon": -77.016105, "is_disabled": 0, "fusion_lat": 0.0, "lat": 38.90612566666667, "bike_id": "7dd2527be8f0c32c1c5c9df503c438bc", "fusion_lon": 0.0}, {"rental_uris": {"ios": "https://dc.lft.to/lastmile_qr_scan", "android": "https://dc.lft.to/lastmile_qr_scan"}, "type": "electric_scooter", "name": "054f5c2a2f85565f8a6096e1d2e5e7da", "is_reserved": 0, "lon": -77.034766, "is_disabled": 0, "fusion_lat": 0.0, "lat": 38.90972716666667, "bike_id": "054f5c2a2f85565f8a6096e1d2e5e7da", "fusion_lon": 0.0}, {"rental_uris": {"ios": "https://dc.lft.to/lastmile_qr_scan", "android": "https://dc.lft.to/lastmile_qr_scan"}, "type": "electric_scooter", "name": "92176bcf0cfbc6e724ee203d1842a6dc", "is_reserved": 0, "lon": -76.9901255, "is_disabled": 0, "fusion_lat": 0.0, "lat": 38.864330333333335, "bike_id": "92176bcf0cfbc6e724ee203d1842a6dc", "fusion_lon": 0.0}, {"rental_uris": {"ios": "https://dc.lft.to/lastmile_qr_scan", "android": "https://dc.lft.to/lastmile_qr_scan"}, "type": "electric_scooter", "name": "538a6dc502334b919284e6a6a6f368c4", "is_reserved": 0, "lon": -76.9921435, "is_disabled": 0, "fusion_lat": 0.0, "lat": 38.889712, "bike_id": "538a6dc502334b919284e6a6a6f368c4", "fusion_lon": 0.0}, {"rental_uris": {"ios": "https://dc.lft.to/lastmile_qr_scan", "android": "https://dc.lft.to/lastmile_qr_scan"}, "type": "electric_scooter", "name": "e892bae3db03a8b560cfcb79c91b3ca6", "is_reserved": 0, "lon": -77.01745333333334, "is_disabled": 0, "fusion_lat": 0.0, "lat": 38.88019516666667, "bike_id": "e892bae3db03a8b560cfcb79c91b3ca6", "fusion_lon": 0.0}, {"rental_uris": {"ios": "https://dc.lft.to/lastmile_qr_scan", "android": "https://dc.lft.to/lastmile_qr_scan"}, "type": "electric_scooter", "name": "adc65e2c1bf07c94055265c0f2282cbd", "is_reserved": 0, "lon": -77.06148316666666, "is_disabled": 0, "fusion_lat": 0.0, "lat": 38.912944333333336, "bike_id": "adc65e2c1bf07c94055265c0f2282cbd", "fusion_lon": 0.0}, {"rental_uris": {"ios": "https://dc.lft.to/lastmile_qr_scan", "android": "https://dc.lft.to/lastmile_qr_scan"}, "type": "electric_scooter", "name": "dbee29cb9607c1ee8a5d7d7e6e14171f", "is_reserved": 0, "lon": -77.02888783333333, "is_disabled": 0, "fusion_lat": 0.0, "lat": 38.907287333333336, "bike_id": "dbee29cb9607c1ee8a5d7d7e6e14171f", "fusion_lon": 0.0}, {"rental_uris": {"ios": "https://dc.lft.to/lastmile_qr_scan", "android": "https://dc.lft.to/lastmile_qr_scan"}, "type": "electric_bike", "name": "9c3fef91240cbd1b261517cdabb00900", "is_reserved": 0, "lon": -76.94973166666666, "is_disabled": 0, "fusion_lat": 0.0, "lat": 38.8829965, "bike_id": "9c3fef91240cbd1b261517cdabb00900", "fusion_lon": 0.0}, {"rental_uris": {"ios": "https://dc.lft.to/lastmile_qr_scan", "android": "https://dc.lft.to/lastmile_qr_scan"}, "type": "electric_scooter", "name": "24c24a5c171a887a46a189021bb89504", "is_reserved": 0, "lon": -77.0123515, "is_disabled": 0, "fusion_lat": 0.0, "lat": 38.91584, "bike_id": "24c24a5c171a887a46a189021bb89504", "fusion_lon": 0.0}, {"rental_uris": {"ios": "https://dc.lft.to/lastmile_qr_scan", "android": "https://dc.lft.to/lastmile_qr_scan"}, "type": "electric_scooter", "name": "b1323b2045a3a8b8a1b1636bd05dd1f2", "is_reserved": 0, "lon": -77.00746783333334, "is_disabled": 0, "fusion_lat": 0.0, "lat": 38.8765, "bike_id": "b1323b2045a3a8b8a1b1636bd05dd1f2", "fusion_lon": 0.0}, {"rental_uris": {"ios": "https://dc.lft.to/lastmile_qr_scan", "android": "https://dc.lft.to/lastmile_qr_scan"}, "type": "electric_scooter", "name": "1957375de5d20dd18a9335cfa929899a", "is_reserved": 0, "lon": -77.02905166666666, "is_disabled": 0, "fusion_lat": 0.0, "lat": 38.940426333333335, "bike_id": "1957375de5d20dd18a9335cfa929899a", "fusion_lon": 0.0}, {"rental_uris": {"ios": "https://dc.lft.to/lastmile_qr_scan", "android": "https://dc.lft.to/lastmile_qr_scan"}, "type": "electric_scooter", "name": "2500304f9a4a435484a61eaed7042808", "is_reserved": 0, "lon": -77.01887383333333, "is_disabled": 0, "fusion_lat": 0.0, "lat": 38.897519333333335, "bike_id": "2500304f9a4a435484a61eaed7042808", "fusion_lon": 0.0}, {"rental_uris": {"ios": "https://dc.lft.to/lastmile_qr_scan", "android": "https://dc.lft.to/lastmile_qr_scan"}, "type": "electric_scooter", "name": "7afc2733a4a8aa3996c474e1f1986861", "is_reserved": 0, "lon": -77.09349733333333, "is_disabled": 0, "fusion_lat": 0.0, "lat": 38.884026, "bike_id": "7afc2733a4a8aa3996c474e1f1986861", "fusion_lon": 0.0}, {"rental_uris": {"ios": "https://dc.lft.to/lastmile_qr_scan", "android": "https://dc.lft.to/lastmile_qr_scan"}, "type": "electric_scooter", "name": "62c40cda722bece0635ca2a53fc04312", "is_reserved": 0, "lon": -77.04362833333333, "is_disabled": 0, "fusion_lat": 0.0, "lat": 38.916605833333335, "bike_id": "62c40cda722bece0635ca2a53fc04312", "fusion_lon": 0.0}, {"rental_uris": {"ios": "https://dc.lft.to/lastmile_qr_scan", "android": "https://dc.lft.to/lastmile_qr_scan"}, "type": "electric_scooter", "name": "dc66a3020fdc0c0acd89fb70d0a60f54", "is_reserved": 0, "lon": -77.0310725, "is_disabled": 0, "fusion_lat": 0.0, "lat": 38.92488483333333, "bike_id": "dc66a3020fdc0c0acd89fb70d0a60f54", "fusion_lon": 0.0}, {"rental_uris": {"ios": "https://dc.lft.to/lastmile_qr_scan", "android": "https://dc.lft.to/lastmile_qr_scan"}, "type": "electric_scooter", "name": "28d58eb301b8fadda63e0b2b79918096", "is_reserved": 0, "lon": -77.03861766666667, "is_disabled": 0, "fusion_lat": 0.0, "lat": 38.915543, "bike_id": "28d58eb301b8fadda63e0b2b79918096", "fusion_lon": 0.0}, {"rental_uris": {"ios": "https://dc.lft.to/lastmile_qr_scan", "android": "https://dc.lft.to/lastmile_qr_scan"}, "type": "electric_scooter", "name": "f3e2be2b37f931e72f2f24f08af92593", "is_reserved": 0, "lon": -77.02508016666667, "is_disabled": 0, "fusion_lat": 0.0, "lat": 38.90334766666667, "bike_id": "f3e2be2b37f931e72f2f24f08af92593", "fusion_lon": 0.0}, {"rental_uris": {"ios": "https://dc.lft.to/lastmile_qr_scan", "android": "https://dc.lft.to/lastmile_qr_scan"}, "type": "electric_scooter", "name": "1d04231233536fd6ec5b3be1630c3f2a", "is_reserved": 0, "lon": -77.05299516666666, "is_disabled": 0, "fusion_lat": 0.0, "lat": 38.9255315, "bike_id": "1d04231233536fd6ec5b3be1630c3f2a", "fusion_lon": 0.0}, {"rental_uris": {"ios": "https://dc.lft.to/lastmile_qr_scan", "android": "https://dc.lft.to/lastmile_qr_scan"}, "type": "electric_scooter", "name": "99f8defcbedf36370ba5d635835391e3", "is_reserved": 0, "lon": -77.03644766666666, "is_disabled": 0, "fusion_lat": 0.0, "lat": 38.9162285, "bike_id": "99f8defcbedf36370ba5d635835391e3", "fusion_lon": 0.0}, {"rental_uris": {"ios": "https://dc.lft.to/lastmile_qr_scan", "android": "https://dc.lft.to/lastmile_qr_scan"}, "type": "electric_scooter", "name": "f404bae2ff0a7569db5be8d53097f6f2", "is_reserved": 0, "lon": -77.07346983333333, "is_disabled": 0, "fusion_lat": 0.0, "lat": 38.94329066666667, "bike_id": "f404bae2ff0a7569db5be8d53097f6f2", "fusion_lon": 0.0}, {"rental_uris": {"ios": "https://dc.lft.to/lastmile_qr_scan", "android": "https://dc.lft.to/lastmile_qr_scan"}, "type": "electric_scooter", "name": "972384b6c06abf4d973571a704fac26c", "is_reserved": 0, "lon": -77.01414116666666, "is_disabled": 0, "fusion_lat": 0.0, "lat": 38.914388833333334, "bike_id": "972384b6c06abf4d973571a704fac26c", "fusion_lon": 0.0}, {"rental_uris": {"ios": "https://dc.lft.to/lastmile_qr_scan", "android": "https://dc.lft.to/lastmile_qr_scan"}, "type": "electric_scooter", "name": "bff0020dd4fa9842764bba32ccc55033", "is_reserved": 0, "lon": -77.07340866666667, "is_disabled": 0, "fusion_lat": 0.0, "lat": 38.960968666666666, "bike_id": "bff0020dd4fa9842764bba32ccc55033", "fusion_lon": 0.0}, {"rental_uris": {"ios": "https://dc.lft.to/lastmile_qr_scan", "android": "https://dc.lft.to/lastmile_qr_scan"}, "type": "electric_bike", "name": "4f1193537af7f8677e0230d1337808be", "is_reserved": 0, "lon": -77.234115, "is_disabled": 0, "fusion_lat": 0.0, "lat": 38.875815833333334, "bike_id": "4f1193537af7f8677e0230d1337808be", "fusion_lon": 0.0}, {"rental_uris": {"ios": "https://dc.lft.to/lastmile_qr_scan", "android": "https://dc.lft.to/lastmile_qr_scan"}, "type": "electric_scooter", "name": "35c0e6271f0dff452d74f735ad6da67d", "is_reserved": 0, "lon": -76.9762735, "is_disabled": 0, "fusion_lat": 0.0, "lat": 38.90575333333334, "bike_id": "35c0e6271f0dff452d74f735ad6da67d", "fusion_lon": 0.0}, {"rental_uris": {"ios": "https://dc.lft.to/lastmile_qr_scan", "android": "https://dc.lft.to/lastmile_qr_scan"}, "type": "electric_scooter", "name": "ed01591bf01d68801a4722ea086dd497", "is_reserved": 0, "lon": -77.04945683333334, "is_disabled": 0, "fusion_lat": 0.0, "lat": 38.920216, "bike_id": "ed01591bf01d68801a4722ea086dd497", "fusion_lon": 0.0}, {"rental_uris": {"ios": "https://dc.lft.to/lastmile_qr_scan", "android": "https://dc.lft.to/lastmile_qr_scan"}, "type": "electric_scooter", "name": "1c5e5f0af839fbc5cb4a5ddd7a8adf8d", "is_reserved": 0, "lon": -77.02628883333334, "is_disabled": 0, "fusion_lat": 0.0, "lat": 38.898582166666664, "bike_id": "1c5e5f0af839fbc5cb4a5ddd7a8adf8d", "fusion_lon": 0.0}, {"rental_uris": {"ios": "https://dc.lft.to/lastmile_qr_scan", "android": "https://dc.lft.to/lastmile_qr_scan"}, "type": "electric_scooter", "name": "d3bd3564e5a31aec4a1b20d42d61632f", "is_reserved": 0, "lon": -77.06841883333334, "is_disabled": 0, "fusion_lat": 0.0, "lat": 38.91729516666667, "bike_id": "d3bd3564e5a31aec4a1b20d42d61632f", "fusion_lon": 0.0}, {"rental_uris": {"ios": "https://dc.lft.to/lastmile_qr_scan", "android": "https://dc.lft.to/lastmile_qr_scan"}, "type": "electric_scooter", "name": "b065bfdd5ffcf085d962a9da5d8d9d02", "is_reserved": 0, "lon": -77.02836316666667, "is_disabled": 0, "fusion_lat": 0.0, "lat": 38.887366166666666, "bike_id": "b065bfdd5ffcf085d962a9da5d8d9d02", "fusion_lon": 0.0}, {"rental_uris": {"ios": "https://dc.lft.to/lastmile_qr_scan", "android": "https://dc.lft.to/lastmile_qr_scan"}, "type": "electric_scooter", "name": "f5366a5c2bb7f1b85927967d0ba356df", "is_reserved": 0, "lon": -77.00207, "is_disabled": 0, "fusion_lat": 0.0, "lat": 38.90763466666667, "bike_id": "f5366a5c2bb7f1b85927967d0ba356df", "fusion_lon": 0.0}, {"rental_uris": {"ios": "https://dc.lft.to/lastmile_qr_scan", "android": "https://dc.lft.to/lastmile_qr_scan"}, "type": "electric_bike", "name": "9bdfadd41b3746a079a41de82a1f5ab3", "is_reserved": 0, "lon": -76.96321183333333, "is_disabled": 0, "fusion_lat": 0.0, "lat": 38.93894933333333, "bike_id": "9bdfadd41b3746a079a41de82a1f5ab3", "fusion_lon": 0.0}, {"rental_uris": {"ios": "https://dc.lft.to/lastmile_qr_scan", "android": "https://dc.lft.to/lastmile_qr_scan"}, "type": "electric_scooter", "name": "3dd2a850e5cfa44f95acb7f26d3f02a7", "is_reserved": 0, "lon": -77.02740416666667, "is_disabled": 0, "fusion_lat": 0.0, "lat": 38.929656333333334, "bike_id": "3dd2a850e5cfa44f95acb7f26d3f02a7", "fusion_lon": 0.0}, {"rental_uris": {"ios": "https://dc.lft.to/lastmile_qr_scan", "android": "https://dc.lft.to/lastmile_qr_scan"}, "type": "electric_scooter", "name": "61e4e82e86a4aa39c6eed8fce942fd08", "is_reserved": 0, "lon": -77.04122866666667, "is_disabled": 0, "fusion_lat": 0.0, "lat": 38.933999166666666, "bike_id": "61e4e82e86a4aa39c6eed8fce942fd08", "fusion_lon": 0.0}, {"rental_uris": {"ios": "https://dc.lft.to/lastmile_qr_scan", "android": "https://dc.lft.to/lastmile_qr_scan"}, "type": "electric_bike", "name": "0e0ed68c534375b070090ee07f3cef7c", "is_reserved": 0, "lon": -77.08139583333333, "is_disabled": 0, "fusion_lat": 0.0, "lat": 38.82302266666667, "bike_id": "0e0ed68c534375b070090ee07f3cef7c", "fusion_lon": 0.0}, {"rental_uris": {"ios": "https://dc.lft.to/lastmile_qr_scan", "android": "https://dc.lft.to/lastmile_qr_scan"}, "type": "electric_scooter", "name": "92fe9cd0624bdae326b4abab788901c1", "is_reserved": 0, "lon": -77.01634733333333, "is_disabled": 0, "fusion_lat": 0.0, "lat": 38.90261133333333, "bike_id": "92fe9cd0624bdae326b4abab788901c1", "fusion_lon": 0.0}, {"rental_uris": {"ios": "https://dc.lft.to/lastmile_qr_scan", "android": "https://dc.lft.to/lastmile_qr_scan"}, "type": "electric_scooter", "name": "e46cbc1674748228bf497045be534248", "is_reserved": 0, "lon": -77.03851033333333, "is_disabled": 0, "fusion_lat": 0.0, "lat": 38.90848233333333, "bike_id": "e46cbc1674748228bf497045be534248", "fusion_lon": 0.0}, {"rental_uris": {"ios": "https://dc.lft.to/lastmile_qr_scan", "android": "https://dc.lft.to/lastmile_qr_scan"}, "type": "electric_scooter", "name": "d22b72b2d5b4539f253292c18a76d0b7", "is_reserved": 0, "lon": -77.020713, "is_disabled": 0, "fusion_lat": 0.0, "lat": 38.9302695, "bike_id": "d22b72b2d5b4539f253292c18a76d0b7", "fusion_lon": 0.0}, {"rental_uris": {"ios": "https://dc.lft.to/lastmile_qr_scan", "android": "https://dc.lft.to/lastmile_qr_scan"}, "type": "electric_scooter", "name": "90c13cbe894316cef928d6c00da2a884", "is_reserved": 0, "lon": -77.02093033333334, "is_disabled": 0, "fusion_lat": 0.0, "lat": 38.931189, "bike_id": "90c13cbe894316cef928d6c00da2a884", "fusion_lon": 0.0}, {"rental_uris": {"ios": "https://dc.lft.to/lastmile_qr_scan", "android": "https://dc.lft.to/lastmile_qr_scan"}, "type": "electric_bike", "name": "afdabd95bb5b9112167a29e2e6024e72", "is_reserved": 0, "lon": -77.00382383333333, "is_disabled": 0, "fusion_lat": 0.0, "lat": 38.836073666666664, "bike_id": "afdabd95bb5b9112167a29e2e6024e72", "fusion_lon": 0.0}, {"rental_uris": {"ios": "https://dc.lft.to/lastmile_qr_scan", "android": "https://dc.lft.to/lastmile_qr_scan"}, "type": "electric_scooter", "name": "a1f354b423f3b3a8a1728db13f569564", "is_reserved": 0, "lon": -77.00414766666667, "is_disabled": 0, "fusion_lat": 0.0, "lat": 38.874718, "bike_id": "a1f354b423f3b3a8a1728db13f569564", "fusion_lon": 0.0}, {"rental_uris": {"ios": "https://dc.lft.to/lastmile_qr_scan", "android": "https://dc.lft.to/lastmile_qr_scan"}, "type": "electric_scooter", "name": "9e9f5548fd33cfd3e40ded455cb57426", "is_reserved": 0, "lon": -77.023454, "is_disabled": 0, "fusion_lat": 0.0, "lat": 38.8813735, "bike_id": "9e9f5548fd33cfd3e40ded455cb57426", "fusion_lon": 0.0}, {"rental_uris": {"ios": "https://dc.lft.to/lastmile_qr_scan", "android": "https://dc.lft.to/lastmile_qr_scan"}, "type": "electric_scooter", "name": "067cf1174ce7dafb912cf559ff52bf1a", "is_reserved": 0, "lon": -77.04116816666667, "is_disabled": 0, "fusion_lat": 0.0, "lat": 38.921225166666666, "bike_id": "067cf1174ce7dafb912cf559ff52bf1a", "fusion_lon": 0.0}, {"rental_uris": {"ios": "https://dc.lft.to/lastmile_qr_scan", "android": "https://dc.lft.to/lastmile_qr_scan"}, "type": "electric_scooter", "name": "3a1dcf4054230f3ef7d399cba39ae521", "is_reserved": 0, "lon": -77.01640216666667, "is_disabled": 0, "fusion_lat": 0.0, "lat": 38.9159655, "bike_id": "3a1dcf4054230f3ef7d399cba39ae521", "fusion_lon": 0.0}, {"rental_uris": {"ios": "https://dc.lft.to/lastmile_qr_scan", "android": "https://dc.lft.to/lastmile_qr_scan"}, "type": "electric_scooter", "name": "e4065bd5f2f0c327c79bf17261dedea3", "is_reserved": 0, "lon": -77.04616366666667, "is_disabled": 0, "fusion_lat": 0.0, "lat": 38.901449666666664, "bike_id": "e4065bd5f2f0c327c79bf17261dedea3", "fusion_lon": 0.0}, {"rental_uris": {"ios": "https://dc.lft.to/lastmile_qr_scan", "android": "https://dc.lft.to/lastmile_qr_scan"}, "type": "electric_scooter", "name": "2a3816d23e79c5ef357c366e66217736", "is_reserved": 0, "lon": -77.008386, "is_disabled": 0, "fusion_lat": 0.0, "lat": 38.91255866666667, "bike_id": "2a3816d23e79c5ef357c366e66217736", "fusion_lon": 0.0}, {"rental_uris": {"ios": "https://dc.lft.to/lastmile_qr_scan", "android": "https://dc.lft.to/lastmile_qr_scan"}, "type": "electric_scooter", "name": "aafb375b7076d96efa1947cbac42089b", "is_reserved": 0, "lon": -77.0386885, "is_disabled": 0, "fusion_lat": 0.0, "lat": 38.9126745, "bike_id": "aafb375b7076d96efa1947cbac42089b", "fusion_lon": 0.0}, {"rental_uris": {"ios": "https://dc.lft.to/lastmile_qr_scan", "android": "https://dc.lft.to/lastmile_qr_scan"}, "type": "electric_scooter", "name": "5207530cc8b50a5365a3b62760ab4996", "is_reserved": 0, "lon": -77.02522266666666, "is_disabled": 0, "fusion_lat": 0.0, "lat": 38.940309666666664, "bike_id": "5207530cc8b50a5365a3b62760ab4996", "fusion_lon": 0.0}, {"rental_uris": {"ios": "https://dc.lft.to/lastmile_qr_scan", "android": "https://dc.lft.to/lastmile_qr_scan"}, "type": "electric_scooter", "name": "55c9a2525c17ca79003098b19c1e49c1", "is_reserved": 0, "lon": -77.06803433333333, "is_disabled": 0, "fusion_lat": 0.0, "lat": 38.90512316666667, "bike_id": "55c9a2525c17ca79003098b19c1e49c1", "fusion_lon": 0.0}, {"rental_uris": {"ios": "https://dc.lft.to/lastmile_qr_scan", "android": "https://dc.lft.to/lastmile_qr_scan"}, "type": "electric_scooter", "name": "5e2082ae6964ed50f69490f74b09f411", "is_reserved": 0, "lon": -77.00590766666667, "is_disabled": 0, "fusion_lat": 0.0, "lat": 38.900371666666665, "bike_id": "5e2082ae6964ed50f69490f74b09f411", "fusion_lon": 0.0}, {"rental_uris": {"ios": "https://dc.lft.to/lastmile_qr_scan", "android": "https://dc.lft.to/lastmile_qr_scan"}, "type": "electric_scooter", "name": "4dd61f6af80d5fcca7888961664f64c6", "is_reserved": 0, "lon": -77.02776183333333, "is_disabled": 0, "fusion_lat": 0.0, "lat": 38.8875015, "bike_id": "4dd61f6af80d5fcca7888961664f64c6", "fusion_lon": 0.0}, {"rental_uris": {"ios": "https://dc.lft.to/lastmile_qr_scan", "android": "https://dc.lft.to/lastmile_qr_scan"}, "type": "electric_scooter", "name": "e0768bd2a4d0c1b905ceac7d1dd12b7b", "is_reserved": 0, "lon": -76.99035883333333, "is_disabled": 0, "fusion_lat": 0.0, "lat": 38.88875733333333, "bike_id": "e0768bd2a4d0c1b905ceac7d1dd12b7b", "fusion_lon": 0.0}, {"rental_uris": {"ios": "https://dc.lft.to/lastmile_qr_scan", "android": "https://dc.lft.to/lastmile_qr_scan"}, "type": "electric_scooter", "name": "aa00afa394419df9ae1ec7c00270b734", "is_reserved": 0, "lon": -77.07202766666667, "is_disabled": 0, "fusion_lat": 0.0, "lat": 38.9126295, "bike_id": "aa00afa394419df9ae1ec7c00270b734", "fusion_lon": 0.0}, {"rental_uris": {"ios": "https://dc.lft.to/lastmile_qr_scan", "android": "https://dc.lft.to/lastmile_qr_scan"}, "type": "electric_scooter", "name": "429da1f9932e2e84bf0151d8a282abdf", "is_reserved": 0, "lon": -77.04674566666667, "is_disabled": 0, "fusion_lat": 0.0, "lat": 38.9072225, "bike_id": "429da1f9932e2e84bf0151d8a282abdf", "fusion_lon": 0.0}, {"rental_uris": {"ios": "https://dc.lft.to/lastmile_qr_scan", "android": "https://dc.lft.to/lastmile_qr_scan"}, "type": "electric_scooter", "name": "6abb8b75b6e35434009fc48fa49628bf", "is_reserved": 0, "lon": -77.03153283333333, "is_disabled": 0, "fusion_lat": 0.0, "lat": 38.905939333333336, "bike_id": "6abb8b75b6e35434009fc48fa49628bf", "fusion_lon": 0.0}, {"rental_uris": {"ios": "https://dc.lft.to/lastmile_qr_scan", "android": "https://dc.lft.to/lastmile_qr_scan"}, "type": "electric_scooter", "name": "9b18f3d5c063d1ff23be96f45054540f", "is_reserved": 0, "lon": -77.02298016666667, "is_disabled": 0, "fusion_lat": 0.0, "lat": 38.89854066666667, "bike_id": "9b18f3d5c063d1ff23be96f45054540f", "fusion_lon": 0.0}, {"rental_uris": {"ios": "https://dc.lft.to/lastmile_qr_scan", "android": "https://dc.lft.to/lastmile_qr_scan"}, "type": "electric_bike", "name": "08df1a3d78bc46398b318b5fbd04de4b", "is_reserved": 0, "lon": -77.1007755, "is_disabled": 0, "fusion_lat": 0.0, "lat": 38.85737116666667, "bike_id": "08df1a3d78bc46398b318b5fbd04de4b", "fusion_lon": 0.0}, {"rental_uris": {"ios": "https://dc.lft.to/lastmile_qr_scan", "android": "https://dc.lft.to/lastmile_qr_scan"}, "type": "electric_scooter", "name": "6153a603d0ec2151d73481cf5ab02aff", "is_reserved": 0, "lon": -77.03178216666667, "is_disabled": 0, "fusion_lat": 0.0, "lat": 38.9290885, "bike_id": "6153a603d0ec2151d73481cf5ab02aff", "fusion_lon": 0.0}, {"rental_uris": {"ios": "https://dc.lft.to/lastmile_qr_scan", "android": "https://dc.lft.to/lastmile_qr_scan"}, "type": "electric_scooter", "name": "217e0170e95ce0bc62089478adb4d9bd", "is_reserved": 0, "lon": -77.0022185, "is_disabled": 0, "fusion_lat": 0.0, "lat": 38.894552, "bike_id": "217e0170e95ce0bc62089478adb4d9bd", "fusion_lon": 0.0}, {"rental_uris": {"ios": "https://dc.lft.to/lastmile_qr_scan", "android": "https://dc.lft.to/lastmile_qr_scan"}, "type": "electric_scooter", "name": "79ac83320cd6788ada30299254bb4c80", "is_reserved": 0, "lon": -77.00274833333333, "is_disabled": 0, "fusion_lat": 0.0, "lat": 38.8876765, "bike_id": "79ac83320cd6788ada30299254bb4c80", "fusion_lon": 0.0}, {"rental_uris": {"ios": "https://dc.lft.to/lastmile_qr_scan", "android": "https://dc.lft.to/lastmile_qr_scan"}, "type": "electric_scooter", "name": "6d9df0264fb29255ab232987763edbd0", "is_reserved": 0, "lon": -77.033771, "is_disabled": 0, "fusion_lat": 0.0, "lat": 38.938685, "bike_id": "6d9df0264fb29255ab232987763edbd0", "fusion_lon": 0.0}, {"rental_uris": {"ios": "https://dc.lft.to/lastmile_qr_scan", "android": "https://dc.lft.to/lastmile_qr_scan"}, "type": "electric_scooter", "name": "b946501e849ef894a7e6d18e8231efe4", "is_reserved": 0, "lon": -77.04511916666667, "is_disabled": 0, "fusion_lat": 0.0, "lat": 38.916148166666666, "bike_id": "b946501e849ef894a7e6d18e8231efe4", "fusion_lon": 0.0}, {"rental_uris": {"ios": "https://dc.lft.to/lastmile_qr_scan", "android": "https://dc.lft.to/lastmile_qr_scan"}, "type": "electric_scooter", "name": "aeafa68720bea256aa18d63e1d51feff", "is_reserved": 0, "lon": -76.98537416666667, "is_disabled": 0, "fusion_lat": 0.0, "lat": 38.858517166666665, "bike_id": "aeafa68720bea256aa18d63e1d51feff", "fusion_lon": 0.0}, {"rental_uris": {"ios": "https://dc.lft.to/lastmile_qr_scan", "android": "https://dc.lft.to/lastmile_qr_scan"}, "type": "electric_scooter", "name": "7aeacc9d0684fff5aebe361bd111ef58", "is_reserved": 0, "lon": -77.04536116666667, "is_disabled": 0, "fusion_lat": 0.0, "lat": 38.91120816666667, "bike_id": "7aeacc9d0684fff5aebe361bd111ef58", "fusion_lon": 0.0}, {"rental_uris": {"ios": "https://dc.lft.to/lastmile_qr_scan", "android": "https://dc.lft.to/lastmile_qr_scan"}, "type": "electric_scooter", "name": "65e6b691438eb99d42dddc84f4b79733", "is_reserved": 0, "lon": -77.047523, "is_disabled": 0, "fusion_lat": 0.0, "lat": 38.89593283333333, "bike_id": "65e6b691438eb99d42dddc84f4b79733", "fusion_lon": 0.0}, {"rental_uris": {"ios": "https://dc.lft.to/lastmile_qr_scan", "android": "https://dc.lft.to/lastmile_qr_scan"}, "type": "electric_scooter", "name": "0d63106272eea5f4905f89bba08cc3f5", "is_reserved": 0, "lon": -77.06603133333333, "is_disabled": 0, "fusion_lat": 0.0, "lat": 38.911123833333335, "bike_id": "0d63106272eea5f4905f89bba08cc3f5", "fusion_lon": 0.0}, {"rental_uris": {"ios": "https://dc.lft.to/lastmile_qr_scan", "android": "https://dc.lft.to/lastmile_qr_scan"}, "type": "electric_scooter", "name": "2a9ac8a93ab257c94e1109b17f23c834", "is_reserved": 0, "lon": -77.051205, "is_disabled": 0, "fusion_lat": 0.0, "lat": 38.92526066666667, "bike_id": "2a9ac8a93ab257c94e1109b17f23c834", "fusion_lon": 0.0}, {"rental_uris": {"ios": "https://dc.lft.to/lastmile_qr_scan", "android": "https://dc.lft.to/lastmile_qr_scan"}, "type": "electric_scooter", "name": "34fb161dc7d02d13b9c3cd2ef3e7f7df", "is_reserved": 0, "lon": -77.04671783333333, "is_disabled": 0, "fusion_lat": 0.0, "lat": 38.89282583333333, "bike_id": "34fb161dc7d02d13b9c3cd2ef3e7f7df", "fusion_lon": 0.0}, {"rental_uris": {"ios": "https://dc.lft.to/lastmile_qr_scan", "android": "https://dc.lft.to/lastmile_qr_scan"}, "type": "electric_scooter", "name": "17c075d1a0870e38754ef2ce846b2e5f", "is_reserved": 0, "lon": -77.017487, "is_disabled": 0, "fusion_lat": 0.0, "lat": 38.91420816666667, "bike_id": "17c075d1a0870e38754ef2ce846b2e5f", "fusion_lon": 0.0}, {"rental_uris": {"ios": "https://dc.lft.to/lastmile_qr_scan", "android": "https://dc.lft.to/lastmile_qr_scan"}, "type": "electric_scooter", "name": "56b88310a5411010bb6298aa3182ddb1", "is_reserved": 0, "lon": -77.06855516666667, "is_disabled": 0, "fusion_lat": 0.0, "lat": 38.952754666666664, "bike_id": "56b88310a5411010bb6298aa3182ddb1", "fusion_lon": 0.0}, {"rental_uris": {"ios": "https://dc.lft.to/lastmile_qr_scan", "android": "https://dc.lft.to/lastmile_qr_scan"}, "type": "electric_scooter", "name": "c5ba2a8fb2786a4362284e70d0b39b7d", "is_reserved": 0, "lon": -77.04163, "is_disabled": 0, "fusion_lat": 0.0, "lat": 38.91087866666667, "bike_id": "c5ba2a8fb2786a4362284e70d0b39b7d", "fusion_lon": 0.0}, {"rental_uris": {"ios": "https://dc.lft.to/lastmile_qr_scan", "android": "https://dc.lft.to/lastmile_qr_scan"}, "type": "electric_scooter", "name": "908ecb00edc02b8028f88c492ae0db07", "is_reserved": 0, "lon": -76.994763, "is_disabled": 0, "fusion_lat": 0.0, "lat": 38.899758166666665, "bike_id": "908ecb00edc02b8028f88c492ae0db07", "fusion_lon": 0.0}, {"rental_uris": {"ios": "https://dc.lft.to/lastmile_qr_scan", "android": "https://dc.lft.to/lastmile_qr_scan"}, "type": "electric_scooter", "name": "7ae4fd524a3342c90476ec6f5f5826a0", "is_reserved": 0, "lon": -77.04602416666667, "is_disabled": 0, "fusion_lat": 0.0, "lat": 38.923334, "bike_id": "7ae4fd524a3342c90476ec6f5f5826a0", "fusion_lon": 0.0}, {"rental_uris": {"ios": "https://dc.lft.to/lastmile_qr_scan", "android": "https://dc.lft.to/lastmile_qr_scan"}, "type": "electric_bike", "name": "b748b753fb0261ab0f1eb89978e86b54", "is_reserved": 0, "lon": -76.99923116666666, "is_disabled": 0, "fusion_lat": 0.0, "lat": 38.994721, "bike_id": "b748b753fb0261ab0f1eb89978e86b54", "fusion_lon": 0.0}, {"rental_uris": {"ios": "https://dc.lft.to/lastmile_qr_scan", "android": "https://dc.lft.to/lastmile_qr_scan"}, "type": "electric_scooter", "name": "ee7fcc55d971918f1fe4497e99302e2c", "is_reserved": 0, "lon": -77.02633416666667, "is_disabled": 0, "fusion_lat": 0.0, "lat": 38.924793333333334, "bike_id": "ee7fcc55d971918f1fe4497e99302e2c", "fusion_lon": 0.0}, {"rental_uris": {"ios": "https://dc.lft.to/lastmile_qr_scan", "android": "https://dc.lft.to/lastmile_qr_scan"}, "type": "electric_bike", "name": "ddaca04bb0e07109dd8f92ea9c19907e", "is_reserved": 0, "lon": -76.91807266666666, "is_disabled": 0, "fusion_lat": 0.0, "lat": 39.00000166666667, "bike_id": "ddaca04bb0e07109dd8f92ea9c19907e", "fusion_lon": 0.0}, {"rental_uris": {"ios": "https://dc.lft.to/lastmile_qr_scan", "android": "https://dc.lft.to/lastmile_qr_scan"}, "type": "electric_scooter", "name": "4ae1cefeec6d94a69fab25e0207329d2", "is_reserved": 0, "lon": -77.027153, "is_disabled": 0, "fusion_lat": 0.0, "lat": 38.9176915, "bike_id": "4ae1cefeec6d94a69fab25e0207329d2", "fusion_lon": 0.0}, {"rental_uris": {"ios": "https://dc.lft.to/lastmile_qr_scan", "android": "https://dc.lft.to/lastmile_qr_scan"}, "type": "electric_scooter", "name": "a79c466a2d1077ce92e483a32349e25c", "is_reserved": 0, "lon": -77.04364316666667, "is_disabled": 0, "fusion_lat": 0.0, "lat": 38.92247316666667, "bike_id": "a79c466a2d1077ce92e483a32349e25c", "fusion_lon": 0.0}, {"rental_uris": {"ios": "https://dc.lft.to/lastmile_qr_scan", "android": "https://dc.lft.to/lastmile_qr_scan"}, "type": "electric_scooter", "name": "14f8ca808d5ac8ad6ae3e3f770dd930a", "is_reserved": 0, "lon": -77.04171166666667, "is_disabled": 0, "fusion_lat": 0.0, "lat": 38.91192916666667, "bike_id": "14f8ca808d5ac8ad6ae3e3f770dd930a", "fusion_lon": 0.0}, {"rental_uris": {"ios": "https://dc.lft.to/lastmile_qr_scan", "android": "https://dc.lft.to/lastmile_qr_scan"}, "type": "electric_bike", "name": "78a99120bfc687b9eb87454f938b80ec", "is_reserved": 0, "lon": -77.13231383333333, "is_disabled": 0, "fusion_lat": 0.0, "lat": 38.8044885, "bike_id": "78a99120bfc687b9eb87454f938b80ec", "fusion_lon": 0.0}, {"rental_uris": {"ios": "https://dc.lft.to/lastmile_qr_scan", "android": "https://dc.lft.to/lastmile_qr_scan"}, "type": "electric_bike", "name": "d42df1f9392e7bb0f90c2d56d7959702", "is_reserved": 0, "lon": -76.98343816666667, "is_disabled": 0, "fusion_lat": 0.0, "lat": 38.86266616666666, "bike_id": "d42df1f9392e7bb0f90c2d56d7959702", "fusion_lon": 0.0}, {"rental_uris": {"ios": "https://dc.lft.to/lastmile_qr_scan", "android": "https://dc.lft.to/lastmile_qr_scan"}, "type": "electric_scooter", "name": "853cd30f03492e64dcf6ecf11618fbbd", "is_reserved": 0, "lon": -77.017973, "is_disabled": 0, "fusion_lat": 0.0, "lat": 38.8860285, "bike_id": "853cd30f03492e64dcf6ecf11618fbbd", "fusion_lon": 0.0}, {"rental_uris": {"ios": "https://dc.lft.to/lastmile_qr_scan", "android": "https://dc.lft.to/lastmile_qr_scan"}, "type": "electric_scooter", "name": "323ffb032785ac1ae1c5eecf9151d432", "is_reserved": 0, "lon": -77.02691483333334, "is_disabled": 0, "fusion_lat": 0.0, "lat": 38.90843383333333, "bike_id": "323ffb032785ac1ae1c5eecf9151d432", "fusion_lon": 0.0}, {"rental_uris": {"ios": "https://dc.lft.to/lastmile_qr_scan", "android": "https://dc.lft.to/lastmile_qr_scan"}, "type": "electric_scooter", "name": "263d67faba9a7cccd8fb3539060cc472", "is_reserved": 0, "lon": -77.04744633333334, "is_disabled": 0, "fusion_lat": 0.0, "lat": 38.91778683333333, "bike_id": "263d67faba9a7cccd8fb3539060cc472", "fusion_lon": 0.0}, {"rental_uris": {"ios": "https://dc.lft.to/lastmile_qr_scan", "android": "https://dc.lft.to/lastmile_qr_scan"}, "type": "electric_scooter", "name": "a495f00765a731371deb2fa4fce1dfbb", "is_reserved": 0, "lon": -77.066733, "is_disabled": 0, "fusion_lat": 0.0, "lat": 38.90386983333333, "bike_id": "a495f00765a731371deb2fa4fce1dfbb", "fusion_lon": 0.0}, {"rental_uris": {"ios": "https://dc.lft.to/lastmile_qr_scan", "android": "https://dc.lft.to/lastmile_qr_scan"}, "type": "electric_scooter", "name": "a869d0a74fb846786ed0d17643850877", "is_reserved": 0, "lon": -77.01889066666666, "is_disabled": 0, "fusion_lat": 0.0, "lat": 38.90239433333333, "bike_id": "a869d0a74fb846786ed0d17643850877", "fusion_lon": 0.0}, {"rental_uris": {"ios": "https://dc.lft.to/lastmile_qr_scan", "android": "https://dc.lft.to/lastmile_qr_scan"}, "type": "electric_scooter", "name": "ff9e9c15c030d4880a4df5079caab04c", "is_reserved": 0, "lon": -77.00049683333333, "is_disabled": 0, "fusion_lat": 0.0, "lat": 38.879250666666664, "bike_id": "ff9e9c15c030d4880a4df5079caab04c", "fusion_lon": 0.0}, {"rental_uris": {"ios": "https://dc.lft.to/lastmile_qr_scan", "android": "https://dc.lft.to/lastmile_qr_scan"}, "type": "electric_scooter", "name": "9d2f3b38607edc1cc6158cb49cdc9809", "is_reserved": 0, "lon": -77.03271916666667, "is_disabled": 0, "fusion_lat": 0.0, "lat": 38.92001533333333, "bike_id": "9d2f3b38607edc1cc6158cb49cdc9809", "fusion_lon": 0.0}, {"rental_uris": {"ios": "https://dc.lft.to/lastmile_qr_scan", "android": "https://dc.lft.to/lastmile_qr_scan"}, "type": "electric_scooter", "name": "3c838f71c17cf5d1394213d78f41e03f", "is_reserved": 0, "lon": -77.0453335, "is_disabled": 0, "fusion_lat": 0.0, "lat": 38.919099833333334, "bike_id": "3c838f71c17cf5d1394213d78f41e03f", "fusion_lon": 0.0}, {"rental_uris": {"ios": "https://dc.lft.to/lastmile_qr_scan", "android": "https://dc.lft.to/lastmile_qr_scan"}, "type": "electric_scooter", "name": "5dc9a8866a6884e66a8326a8256d48fa", "is_reserved": 0, "lon": -77.03267483333333, "is_disabled": 0, "fusion_lat": 0.0, "lat": 38.91051483333333, "bike_id": "5dc9a8866a6884e66a8326a8256d48fa", "fusion_lon": 0.0}, {"rental_uris": {"ios": "https://dc.lft.to/lastmile_qr_scan", "android": "https://dc.lft.to/lastmile_qr_scan"}, "type": "electric_scooter", "name": "ff39a7127351c51c987b4e0b8701e52d", "is_reserved": 0, "lon": -77.03905766666666, "is_disabled": 0, "fusion_lat": 0.0, "lat": 38.91423116666667, "bike_id": "ff39a7127351c51c987b4e0b8701e52d", "fusion_lon": 0.0}, {"rental_uris": {"ios": "https://dc.lft.to/lastmile_qr_scan", "android": "https://dc.lft.to/lastmile_qr_scan"}, "type": "electric_scooter", "name": "7ac1b460667327dd3aa666893f5043f8", "is_reserved": 0, "lon": -77.03184583333334, "is_disabled": 0, "fusion_lat": 0.0, "lat": 38.91827833333333, "bike_id": "7ac1b460667327dd3aa666893f5043f8", "fusion_lon": 0.0}, {"rental_uris": {"ios": "https://dc.lft.to/lastmile_qr_scan", "android": "https://dc.lft.to/lastmile_qr_scan"}, "type": "electric_scooter", "name": "da852db73557c6b7e1dcc0145c77189a", "is_reserved": 0, "lon": -77.04373066666666, "is_disabled": 0, "fusion_lat": 0.0, "lat": 38.931571, "bike_id": "da852db73557c6b7e1dcc0145c77189a", "fusion_lon": 0.0}, {"rental_uris": {"ios": "https://dc.lft.to/lastmile_qr_scan", "android": "https://dc.lft.to/lastmile_qr_scan"}, "type": "electric_scooter", "name": "57400eb5746bf60a7297622f913bd537", "is_reserved": 0, "lon": -77.03635066666666, "is_disabled": 0, "fusion_lat": 0.0, "lat": 38.925966333333335, "bike_id": "57400eb5746bf60a7297622f913bd537", "fusion_lon": 0.0}, {"rental_uris": {"ios": "https://dc.lft.to/lastmile_qr_scan", "android": "https://dc.lft.to/lastmile_qr_scan"}, "type": "electric_scooter", "name": "05c4d7ce7d3bc2bfbe004f4f8bc5c3aa", "is_reserved": 0, "lon": -77.05639166666667, "is_disabled": 0, "fusion_lat": 0.0, "lat": 38.9359835, "bike_id": "05c4d7ce7d3bc2bfbe004f4f8bc5c3aa", "fusion_lon": 0.0}, {"rental_uris": {"ios": "https://dc.lft.to/lastmile_qr_scan", "android": "https://dc.lft.to/lastmile_qr_scan"}, "type": "electric_scooter", "name": "e0c2fdeb60a7c6b08a6cd3654cf25786", "is_reserved": 0, "lon": -77.01432116666666, "is_disabled": 0, "fusion_lat": 0.0, "lat": 38.887468, "bike_id": "e0c2fdeb60a7c6b08a6cd3654cf25786", "fusion_lon": 0.0}, {"rental_uris": {"ios": "https://dc.lft.to/lastmile_qr_scan", "android": "https://dc.lft.to/lastmile_qr_scan"}, "type": "electric_scooter", "name": "8c45d4a4d849b5502c1c9275a2ad073d", "is_reserved": 0, "lon": -77.06653466666667, "is_disabled": 0, "fusion_lat": 0.0, "lat": 38.937374, "bike_id": "8c45d4a4d849b5502c1c9275a2ad073d", "fusion_lon": 0.0}, {"rental_uris": {"ios": "https://dc.lft.to/lastmile_qr_scan", "android": "https://dc.lft.to/lastmile_qr_scan"}, "type": "electric_scooter", "name": "b56b337e66d6730fe4e7a09a93528c59", "is_reserved": 0, "lon": -77.02813366666666, "is_disabled": 0, "fusion_lat": 0.0, "lat": 38.89238983333333, "bike_id": "b56b337e66d6730fe4e7a09a93528c59", "fusion_lon": 0.0}, {"rental_uris": {"ios": "https://dc.lft.to/lastmile_qr_scan", "android": "https://dc.lft.to/lastmile_qr_scan"}, "type": "electric_scooter", "name": "4c05232004de6f9ff1111dd507277bb2", "is_reserved": 0, "lon": -77.04132466666667, "is_disabled": 0, "fusion_lat": 0.0, "lat": 38.925425833333335, "bike_id": "4c05232004de6f9ff1111dd507277bb2", "fusion_lon": 0.0}, {"rental_uris": {"ios": "https://dc.lft.to/lastmile_qr_scan", "android": "https://dc.lft.to/lastmile_qr_scan"}, "type": "electric_scooter", "name": "3795327daead5574fd473f749463775f", "is_reserved": 0, "lon": -77.05240333333333, "is_disabled": 0, "fusion_lat": 0.0, "lat": 38.924665166666664, "bike_id": "3795327daead5574fd473f749463775f", "fusion_lon": 0.0}, {"rental_uris": {"ios": "https://dc.lft.to/lastmile_qr_scan", "android": "https://dc.lft.to/lastmile_qr_scan"}, "type": "electric_scooter", "name": "6105987097a7dd259ae0a0613ce138f3", "is_reserved": 0, "lon": -77.01601116666667, "is_disabled": 0, "fusion_lat": 0.0, "lat": 38.900303666666666, "bike_id": "6105987097a7dd259ae0a0613ce138f3", "fusion_lon": 0.0}, {"rental_uris": {"ios": "https://dc.lft.to/lastmile_qr_scan", "android": "https://dc.lft.to/lastmile_qr_scan"}, "type": "electric_scooter", "name": "ab6a403afa724ed3280b7ebfbbe30a2a", "is_reserved": 0, "lon": -77.0491345, "is_disabled": 0, "fusion_lat": 0.0, "lat": 38.910414333333335, "bike_id": "ab6a403afa724ed3280b7ebfbbe30a2a", "fusion_lon": 0.0}, {"rental_uris": {"ios": "https://dc.lft.to/lastmile_qr_scan", "android": "https://dc.lft.to/lastmile_qr_scan"}, "type": "electric_scooter", "name": "07285b28aeeb592c591c23361b41892a", "is_reserved": 0, "lon": -77.03457283333333, "is_disabled": 0, "fusion_lat": 0.0, "lat": 38.9043635, "bike_id": "07285b28aeeb592c591c23361b41892a", "fusion_lon": 0.0}, {"rental_uris": {"ios": "https://dc.lft.to/lastmile_qr_scan", "android": "https://dc.lft.to/lastmile_qr_scan"}, "type": "electric_scooter", "name": "4a8b692ae3d6ee25eb90bf1508bb9065", "is_reserved": 0, "lon": -77.00957333333334, "is_disabled": 0, "fusion_lat": 0.0, "lat": 38.921330833333336, "bike_id": "4a8b692ae3d6ee25eb90bf1508bb9065", "fusion_lon": 0.0}, {"rental_uris": {"ios": "https://dc.lft.to/lastmile_qr_scan", "android": "https://dc.lft.to/lastmile_qr_scan"}, "type": "electric_scooter", "name": "e38e0bc5e0e30d489c463897302305bb", "is_reserved": 0, "lon": -76.9983595, "is_disabled": 0, "fusion_lat": 0.0, "lat": 38.90731533333334, "bike_id": "e38e0bc5e0e30d489c463897302305bb", "fusion_lon": 0.0}, {"rental_uris": {"ios": "https://dc.lft.to/lastmile_qr_scan", "android": "https://dc.lft.to/lastmile_qr_scan"}, "type": "electric_scooter", "name": "7402c6788361d63836dc11403786e72d", "is_reserved": 0, "lon": -77.02884266666666, "is_disabled": 0, "fusion_lat": 0.0, "lat": 38.91718016666667, "bike_id": "7402c6788361d63836dc11403786e72d", "fusion_lon": 0.0}, {"rental_uris": {"ios": "https://dc.lft.to/lastmile_qr_scan", "android": "https://dc.lft.to/lastmile_qr_scan"}, "type": "electric_scooter", "name": "c745b9e94fb2d1866d01bb12063be250", "is_reserved": 0, "lon": -77.040774, "is_disabled": 0, "fusion_lat": 0.0, "lat": 38.920241, "bike_id": "c745b9e94fb2d1866d01bb12063be250", "fusion_lon": 0.0}, {"rental_uris": {"ios": "https://dc.lft.to/lastmile_qr_scan", "android": "https://dc.lft.to/lastmile_qr_scan"}, "type": "electric_scooter", "name": "363ea31bcea87d8cea72061766905843", "is_reserved": 0, "lon": -77.0322105, "is_disabled": 0, "fusion_lat": 0.0, "lat": 38.91999066666666, "bike_id": "363ea31bcea87d8cea72061766905843", "fusion_lon": 0.0}, {"rental_uris": {"ios": "https://dc.lft.to/lastmile_qr_scan", "android": "https://dc.lft.to/lastmile_qr_scan"}, "type": "electric_bike", "name": "4a238632799cda03183dc48712982acf", "is_reserved": 0, "lon": -76.902996, "is_disabled": 0, "fusion_lat": 0.0, "lat": 39.0029495, "bike_id": "4a238632799cda03183dc48712982acf", "fusion_lon": 0.0}, {"rental_uris": {"ios": "https://dc.lft.to/lastmile_qr_scan", "android": "https://dc.lft.to/lastmile_qr_scan"}, "type": "electric_scooter", "name": "d1dfc68a3ec0757d2abb12b8712b172b", "is_reserved": 0, "lon": -77.008753, "is_disabled": 0, "fusion_lat": 0.0, "lat": 38.91254716666667, "bike_id": "d1dfc68a3ec0757d2abb12b8712b172b", "fusion_lon": 0.0}, {"rental_uris": {"ios": "https://dc.lft.to/lastmile_qr_scan", "android": "https://dc.lft.to/lastmile_qr_scan"}, "type": "electric_scooter", "name": "4a9d4e1625a60e8b3f2ba70ae39d2db5", "is_reserved": 0, "lon": -77.02871183333333, "is_disabled": 0, "fusion_lat": 0.0, "lat": 38.907421, "bike_id": "4a9d4e1625a60e8b3f2ba70ae39d2db5", "fusion_lon": 0.0}, {"rental_uris": {"ios": "https://dc.lft.to/lastmile_qr_scan", "android": "https://dc.lft.to/lastmile_qr_scan"}, "type": "electric_scooter", "name": "8f2af46ddc068b35a9ddb7b30a6c34de", "is_reserved": 0, "lon": -77.047292, "is_disabled": 0, "fusion_lat": 0.0, "lat": 38.8960915, "bike_id": "8f2af46ddc068b35a9ddb7b30a6c34de", "fusion_lon": 0.0}, {"rental_uris": {"ios": "https://dc.lft.to/lastmile_qr_scan", "android": "https://dc.lft.to/lastmile_qr_scan"}, "type": "electric_scooter", "name": "d412e73363ab9e985a79325743ba88d1", "is_reserved": 0, "lon": -77.035125, "is_disabled": 0, "fusion_lat": 0.0, "lat": 38.92222833333334, "bike_id": "d412e73363ab9e985a79325743ba88d1", "fusion_lon": 0.0}, {"rental_uris": {"ios": "https://dc.lft.to/lastmile_qr_scan", "android": "https://dc.lft.to/lastmile_qr_scan"}, "type": "electric_scooter", "name": "4f6813da4509269dc02c4e82daa12eb4", "is_reserved": 0, "lon": -76.99840983333333, "is_disabled": 0, "fusion_lat": 0.0, "lat": 38.902994166666666, "bike_id": "4f6813da4509269dc02c4e82daa12eb4", "fusion_lon": 0.0}, {"rental_uris": {"ios": "https://dc.lft.to/lastmile_qr_scan", "android": "https://dc.lft.to/lastmile_qr_scan"}, "type": "electric_scooter", "name": "9fe4679748458591c1f8a94121479482", "is_reserved": 0, "lon": -77.050637, "is_disabled": 0, "fusion_lat": 0.0, "lat": 38.923587, "bike_id": "9fe4679748458591c1f8a94121479482", "fusion_lon": 0.0}, {"rental_uris": {"ios": "https://dc.lft.to/lastmile_qr_scan", "android": "https://dc.lft.to/lastmile_qr_scan"}, "type": "electric_scooter", "name": "b9bfcee9919a52d0d52d0543e2b18460", "is_reserved": 0, "lon": -77.0372775, "is_disabled": 0, "fusion_lat": 0.0, "lat": 38.92644883333333, "bike_id": "b9bfcee9919a52d0d52d0543e2b18460", "fusion_lon": 0.0}, {"rental_uris": {"ios": "https://dc.lft.to/lastmile_qr_scan", "android": "https://dc.lft.to/lastmile_qr_scan"}, "type": "electric_scooter", "name": "5675d72e7cdb0c96b5cacc02cdd0fb57", "is_reserved": 0, "lon": -77.0057165, "is_disabled": 0, "fusion_lat": 0.0, "lat": 38.909155, "bike_id": "5675d72e7cdb0c96b5cacc02cdd0fb57", "fusion_lon": 0.0}, {"rental_uris": {"ios": "https://dc.lft.to/lastmile_qr_scan", "android": "https://dc.lft.to/lastmile_qr_scan"}, "type": "electric_scooter", "name": "67f039d69740d1126047a86097bee0ef", "is_reserved": 0, "lon": -76.99410233333333, "is_disabled": 0, "fusion_lat": 0.0, "lat": 38.87788116666667, "bike_id": "67f039d69740d1126047a86097bee0ef", "fusion_lon": 0.0}, {"rental_uris": {"ios": "https://dc.lft.to/lastmile_qr_scan", "android": "https://dc.lft.to/lastmile_qr_scan"}, "type": "electric_scooter", "name": "3112a7f990ce512137d1e65b3daa6a01", "is_reserved": 0, "lon": -77.03475016666667, "is_disabled": 0, "fusion_lat": 0.0, "lat": 38.9302575, "bike_id": "3112a7f990ce512137d1e65b3daa6a01", "fusion_lon": 0.0}, {"rental_uris": {"ios": "https://dc.lft.to/lastmile_qr_scan", "android": "https://dc.lft.to/lastmile_qr_scan"}, "type": "electric_bike", "name": "2d037b298e75d157eca708ffdd557ada", "is_reserved": 0, "lon": -77.08971866666667, "is_disabled": 0, "fusion_lat": 0.0, "lat": 38.911703, "bike_id": "2d037b298e75d157eca708ffdd557ada", "fusion_lon": 0.0}, {"rental_uris": {"ios": "https://dc.lft.to/lastmile_qr_scan", "android": "https://dc.lft.to/lastmile_qr_scan"}, "type": "electric_scooter", "name": "e8fe31960ace15f0b9323af94e03fe8b", "is_reserved": 0, "lon": -77.03872866666667, "is_disabled": 0, "fusion_lat": 0.0, "lat": 38.93305983333333, "bike_id": "e8fe31960ace15f0b9323af94e03fe8b", "fusion_lon": 0.0}, {"rental_uris": {"ios": "https://dc.lft.to/lastmile_qr_scan", "android": "https://dc.lft.to/lastmile_qr_scan"}, "type": "electric_scooter", "name": "3a5733e3244b869a4635d5eb42a35822", "is_reserved": 0, "lon": -77.01081016666667, "is_disabled": 0, "fusion_lat": 0.0, "lat": 38.90336966666667, "bike_id": "3a5733e3244b869a4635d5eb42a35822", "fusion_lon": 0.0}, {"rental_uris": {"ios": "https://dc.lft.to/lastmile_qr_scan", "android": "https://dc.lft.to/lastmile_qr_scan"}, "type": "electric_scooter", "name": "092d7eb86f4b1008b6bea38ae10629ec", "is_reserved": 0, "lon": -77.043278, "is_disabled": 0, "fusion_lat": 0.0, "lat": 38.917905166666664, "bike_id": "092d7eb86f4b1008b6bea38ae10629ec", "fusion_lon": 0.0}, {"rental_uris": {"ios": "https://dc.lft.to/lastmile_qr_scan", "android": "https://dc.lft.to/lastmile_qr_scan"}, "type": "electric_scooter", "name": "c46e731eb8c287e0744bbdb8cd6e2b22", "is_reserved": 0, "lon": -77.01651733333334, "is_disabled": 0, "fusion_lat": 0.0, "lat": 38.90384933333333, "bike_id": "c46e731eb8c287e0744bbdb8cd6e2b22", "fusion_lon": 0.0}, {"rental_uris": {"ios": "https://dc.lft.to/lastmile_qr_scan", "android": "https://dc.lft.to/lastmile_qr_scan"}, "type": "electric_scooter", "name": "12305e1696f4d2545fff82901aaae0fa", "is_reserved": 0, "lon": -77.03562783333334, "is_disabled": 0, "fusion_lat": 0.0, "lat": 38.90475683333333, "bike_id": "12305e1696f4d2545fff82901aaae0fa", "fusion_lon": 0.0}, {"rental_uris": {"ios": "https://dc.lft.to/lastmile_qr_scan", "android": "https://dc.lft.to/lastmile_qr_scan"}, "type": "electric_scooter", "name": "f5e4b422b070e1c8c4b62ac0919c9c7a", "is_reserved": 0, "lon": -77.03609816666666, "is_disabled": 0, "fusion_lat": 0.0, "lat": 38.90312633333333, "bike_id": "f5e4b422b070e1c8c4b62ac0919c9c7a", "fusion_lon": 0.0}, {"rental_uris": {"ios": "https://dc.lft.to/lastmile_qr_scan", "android": "https://dc.lft.to/lastmile_qr_scan"},