{"data": {"bikes": [{"lon": -76.9615195, "bike_id": "f07116be6191941e730dc8e0e9298a36", "lat": 38.883604166666665, "fusion_lon": 0.0, "fusion_lat": 0.0, "type": "electric_scooter", "name": "f07116be6191941e730dc8e0e9298a36", "is_disabled": 0, "rental_uris": {"ios": "https://dc.lft.to/lastmile_qr_scan", "android": "https://dc.lft.to/lastmile_qr_scan"}, "is_reserved": 0}, {"lon": -77.042013, "bike_id": "e10aaf8216990edff2842dc4303f4316", "lat": 38.912656166666665, "fusion_lon": 0.0, "fusion_lat": 0.0, "type": "electric_scooter", "name": "e10aaf8216990edff2842dc4303f4316", "is_disabled": 0, "rental_uris": {"ios": "https://dc.lft.to/lastmile_qr_scan", "android": "https://dc.lft.to/lastmile_qr_scan"}, "is_reserved": 0}, {"lon": -77.04587016666666, "bike_id": "2518044d9448373ddf58c6f4d5c7f5be", "lat": 38.903744333333336, "fusion_lon": 0.0, "fusion_lat": 0.0, "type": "electric_scooter", "name": "2518044d9448373ddf58c6f4d5c7f5be", "is_disabled": 0, "rental_uris": {"ios": "https://dc.lft.to/lastmile_qr_scan", "android": "https://dc.lft.to/lastmile_qr_scan"}, "is_reserved": 0}, {"lon": -76.98090283333333, "bike_id": "84deba9159b186e7020ba06d264b5daa", "lat": 38.895604666666664, "fusion_lon": 0.0, "fusion_lat": 0.0, "type": "electric_scooter", "name": "84deba9159b186e7020ba06d264b5daa", "is_disabled": 0, "rental_uris": {"ios": "https://dc.lft.to/lastmile_qr_scan", "android": "https://dc.lft.to/lastmile_qr_scan"}, "is_reserved": 0}, {"lon": -77.03862516666666, "bike_id": "2e545c920f6c34c4450b4fadc3c2e757", "lat": 38.94507883333333, "fusion_lon": 0.0, "fusion_lat": 0.0, "type": "electric_scooter", "name": "2e545c920f6c34c4450b4fadc3c2e757", "is_disabled": 0, "rental_uris": {"ios": "https://dc.lft.to/lastmile_qr_scan", "android": "https://dc.lft.to/lastmile_qr_scan"}, "is_reserved": 0}, {"lon": -77.00589883333333, "bike_id": "aa47a4df20fd5ab28f69ca63e1a611d4", "lat": 38.8843655, "fusion_lon": 0.0, "fusion_lat": 0.0, "type": "electric_scooter", "name": "aa47a4df20fd5ab28f69ca63e1a611d4", "is_disabled": 0, "rental_uris": {"ios": "https://dc.lft.to/lastmile_qr_scan", "android": "https://dc.lft.to/lastmile_qr_scan"}, "is_reserved": 0}, {"lon": -77.03711466666667, "bike_id": "fae81f3efad8d88057666415975de937", "lat": 38.92636683333333, "fusion_lon": 0.0, "fusion_lat": 0.0, "type": "electric_scooter", "name": "fae81f3efad8d88057666415975de937", "is_disabled": 0, "rental_uris": {"ios": "https://dc.lft.to/lastmile_qr_scan", "android": "https://dc.lft.to/lastmile_qr_scan"}, "is_reserved": 0}, {"lon": -76.998358, "bike_id": "288552302009a3fc6353f818a56dd4ef", "lat": 38.90209316666667, "fusion_lon": 0.0, "fusion_lat": 0.0, "type": "electric_scooter", "name": "288552302009a3fc6353f818a56dd4ef", "is_disabled": 0, "rental_uris": {"ios": "https://dc.lft.to/lastmile_qr_scan", "android": "https://dc.lft.to/lastmile_qr_scan"}, "is_reserved": 0}, {"lon": -77.03480733333333, "bike_id": "69b579cb90f09c2cb5f743ddf360c581", "lat": 38.92889783333333, "fusion_lon": 0.0, "fusion_lat": 0.0, "type": "electric_scooter", "name": "69b579cb90f09c2cb5f743ddf360c581", "is_disabled": 0, "rental_uris": {"ios": "https://dc.lft.to/lastmile_qr_scan", "android": "https://dc.lft.to/lastmile_qr_scan"}, "is_reserved": 0}, {"lon": -77.03884083333334, "bike_id": "6f30fc6a20bd71eb1b5c66fbe4f7f281", "lat": 38.91004016666667, "fusion_lon": 0.0, "fusion_lat": 0.0, "type": "electric_scooter", "name": "6f30fc6a20bd71eb1b5c66fbe4f7f281", "is_disabled": 0, "rental_uris": {"ios": "https://dc.lft.to/lastmile_qr_scan", "android": "https://dc.lft.to/lastmile_qr_scan"}, "is_reserved": 0}, {"lon": -76.953696, "bike_id": "2ddd5fcc533a788eee4c938e29ec0143", "lat": 38.892066, "fusion_lon": 0.0, "fusion_lat": 0.0, "type": "electric_scooter", "name": "2ddd5fcc533a788eee4c938e29ec0143", "is_disabled": 0, "rental_uris": {"ios": "https://dc.lft.to/lastmile_qr_scan", "android": "https://dc.lft.to/lastmile_qr_scan"}, "is_reserved": 0}, {"lon": -76.99858483333334, "bike_id": "eee1ad738b1a2a77a324d98e9ad21894", "lat": 38.900265, "fusion_lon": 0.0, "fusion_lat": 0.0, "type": "electric_scooter", "name": "eee1ad738b1a2a77a324d98e9ad21894", "is_disabled": 0, "rental_uris": {"ios": "https://dc.lft.to/lastmile_qr_scan", "android": "https://dc.lft.to/lastmile_qr_scan"}, "is_reserved": 0}, {"lon": -77.00191783333334, "bike_id": "24ae45079df8d482006a36a2e20bba4b", "lat": 38.914761, "fusion_lon": 0.0, "fusion_lat": 0.0, "type": "electric_scooter", "name": "24ae45079df8d482006a36a2e20bba4b", "is_disabled": 0, "rental_uris": {"ios": "https://dc.lft.to/lastmile_qr_scan", "android": "https://dc.lft.to/lastmile_qr_scan"}, "is_reserved": 0}, {"lon": -77.02453733333333, "bike_id": "cae1a63eab068be595e05b326ec81cb3", "lat": 38.89988683333333, "fusion_lon": 0.0, "fusion_lat": 0.0, "type": "electric_scooter", "name": "cae1a63eab068be595e05b326ec81cb3", "is_disabled": 0, "rental_uris": {"ios": "https://dc.lft.to/lastmile_qr_scan", "android": "https://dc.lft.to/lastmile_qr_scan"}, "is_reserved": 0}, {"lon": -77.01777433333334, "bike_id": "5e9afca4c5793472669a21b93d693195", "lat": 38.901205833333336, "fusion_lon": 0.0, "fusion_lat": 0.0, "type": "electric_scooter", "name": "5e9afca4c5793472669a21b93d693195", "is_disabled": 0, "rental_uris": {"ios": "https://dc.lft.to/lastmile_qr_scan", "android": "https://dc.lft.to/lastmile_qr_scan"}, "is_reserved": 0}, {"lon": -77.02975883333333, "bike_id": "51fda03646baf3e7e4a9f609462ff70b", "lat": 38.916779, "fusion_lon": 0.0, "fusion_lat": 0.0, "type": "electric_scooter", "name": "51fda03646baf3e7e4a9f609462ff70b", "is_disabled": 0, "rental_uris": {"ios": "https://dc.lft.to/lastmile_qr_scan", "android": "https://dc.lft.to/lastmile_qr_scan"}, "is_reserved": 0}, {"lon": -77.04357466666667, "bike_id": "fcaea51898518dd591704a6bf9ed4a83", "lat": 38.9206455, "fusion_lon": 0.0, "fusion_lat": 0.0, "type": "electric_scooter", "name": "fcaea51898518dd591704a6bf9ed4a83", "is_disabled": 0, "rental_uris": {"ios": "https://dc.lft.to/lastmile_qr_scan", "android": "https://dc.lft.to/lastmile_qr_scan"}, "is_reserved": 0}, {"lon": -77.02516, "bike_id": "92a3872929b76f484673436823f36cdf", "lat": 38.88054733333333, "fusion_lon": 0.0, "fusion_lat": 0.0, "type": "electric_scooter", "name": "92a3872929b76f484673436823f36cdf", "is_disabled": 0, "rental_uris": {"ios": "https://dc.lft.to/lastmile_qr_scan", "android": "https://dc.lft.to/lastmile_qr_scan"}, "is_reserved": 0}, {"lon": -77.004756, "bike_id": "5c9136100100392a034f23a73313aa58", "lat": 38.920684333333334, "fusion_lon": 0.0, "fusion_lat": 0.0, "type": "electric_scooter", "name": "5c9136100100392a034f23a73313aa58", "is_disabled": 0, "rental_uris": {"ios": "https://dc.lft.to/lastmile_qr_scan", "android": "https://dc.lft.to/lastmile_qr_scan"}, "is_reserved": 0}, {"lon": -76.9785905, "bike_id": "73b169e5b375afcbe19c5d940ba0a7e0", "lat": 38.870776666666664, "fusion_lon": 0.0, "fusion_lat": 0.0, "type": "electric_scooter", "name": "73b169e5b375afcbe19c5d940ba0a7e0", "is_disabled": 0, "rental_uris": {"ios": "https://dc.lft.to/lastmile_qr_scan", "android": "https://dc.lft.to/lastmile_qr_scan"}, "is_reserved": 0}, {"lon": -77.04868333333333, "bike_id": "175301fc997558b5a75d12c2b37273ba", "lat": 38.892936166666665, "fusion_lon": 0.0, "fusion_lat": 0.0, "type": "electric_scooter", "name": "175301fc997558b5a75d12c2b37273ba", "is_disabled": 0, "rental_uris": {"ios": "https://dc.lft.to/lastmile_qr_scan", "android": "https://dc.lft.to/lastmile_qr_scan"}, "is_reserved": 0}, {"lon": -77.02947933333333, "bike_id": "a79a09eaaf4a0a4e74cfcbec13f16d89", "lat": 38.92179466666666, "fusion_lon": 0.0, "fusion_lat": 0.0, "type": "electric_scooter", "name": "a79a09eaaf4a0a4e74cfcbec13f16d89", "is_disabled": 0, "rental_uris": {"ios": "https://dc.lft.to/lastmile_qr_scan", "android": "https://dc.lft.to/lastmile_qr_scan"}, "is_reserved": 0}, {"lon": -77.06411466666667, "bike_id": "75841bc5fb82f4dccfb441b07e2a3054", "lat": 38.840779833333336, "fusion_lon": 0.0, "fusion_lat": 0.0, "type": "electric_bike", "name": "75841bc5fb82f4dccfb441b07e2a3054", "is_disabled": 0, "rental_uris": {"ios": "https://dc.lft.to/lastmile_qr_scan", "android": "https://dc.lft.to/lastmile_qr_scan"}, "is_reserved": 0}, {"lon": -77.02387216666666, "bike_id": "d2514f95cd59168d754f35f4be54db27", "lat": 38.90109966666667, "fusion_lon": 0.0, "fusion_lat": 0.0, "type": "electric_scooter", "name": "d2514f95cd59168d754f35f4be54db27", "is_disabled": 0, "rental_uris": {"ios": "https://dc.lft.to/lastmile_qr_scan", "android": "https://dc.lft.to/lastmile_qr_scan"}, "is_reserved": 0}, {"lon": -77.034784, "bike_id": "1ab474b383fe0d1a89360b407c9f7810", "lat": 38.92887783333333, "fusion_lon": 0.0, "fusion_lat": 0.0, "type": "electric_scooter", "name": "1ab474b383fe0d1a89360b407c9f7810", "is_disabled": 0, "rental_uris": {"ios": "https://dc.lft.to/lastmile_qr_scan", "android": "https://dc.lft.to/lastmile_qr_scan"}, "is_reserved": 0}, {"lon": -76.93507333333334, "bike_id": "1ec16f11b135673f117204c9f6b626c4", "lat": 38.887279, "fusion_lon": 0.0, "fusion_lat": 0.0, "type": "electric_bike", "name": "1ec16f11b135673f117204c9f6b626c4", "is_disabled": 0, "rental_uris": {"ios": "https://dc.lft.to/lastmile_qr_scan", "android": "https://dc.lft.to/lastmile_qr_scan"}, "is_reserved": 0}, {"lon": -77.03247033333334, "bike_id": "d1ab8b5702600dbab936c2eaf9d442f2", "lat": 38.91566316666667, "fusion_lon": 0.0, "fusion_lat": 0.0, "type": "electric_scooter", "name": "d1ab8b5702600dbab936c2eaf9d442f2", "is_disabled": 0, "rental_uris": {"ios": "https://dc.lft.to/lastmile_qr_scan", "android": "https://dc.lft.to/lastmile_qr_scan"}, "is_reserved": 0}, {"lon": -76.97000083333333, "bike_id": "679ed2aab2be20f915a30f27b50fb42d", "lat": 38.873691, "fusion_lon": 0.0, "fusion_lat": 0.0, "type": "electric_scooter", "name": "679ed2aab2be20f915a30f27b50fb42d", "is_disabled": 0, "rental_uris": {"ios": "https://dc.lft.to/lastmile_qr_scan", "android": "https://dc.lft.to/lastmile_qr_scan"}, "is_reserved": 0}, {"lon": -77.05333083333333, "bike_id": "c6c8ec009cdc61c271f471c5da3497d0", "lat": 38.907361333333334, "fusion_lon": 0.0, "fusion_lat": 0.0, "type": "electric_scooter", "name": "c6c8ec009cdc61c271f471c5da3497d0", "is_disabled": 0, "rental_uris": {"ios": "https://dc.lft.to/lastmile_qr_scan", "android": "https://dc.lft.to/lastmile_qr_scan"}, "is_reserved": 0}, {"lon": -77.0248445, "bike_id": "c2089ef89f341f097b1b2c26af4aa727", "lat": 38.8839695, "fusion_lon": 0.0, "fusion_lat": 0.0, "type": "electric_scooter", "name": "c2089ef89f341f097b1b2c26af4aa727", "is_disabled": 0, "rental_uris": {"ios": "https://dc.lft.to/lastmile_qr_scan", "android": "https://dc.lft.to/lastmile_qr_scan"}, "is_reserved": 0}, {"lon": -77.07794633333333, "bike_id": "e537d9b46aa096e363e4eae5312284ec", "lat": 38.99604516666667, "fusion_lon": 0.0, "fusion_lat": 0.0, "type": "electric_bike", "name": "e537d9b46aa096e363e4eae5312284ec", "is_disabled": 0, "rental_uris": {"ios": "https://dc.lft.to/lastmile_qr_scan", "android": "https://dc.lft.to/lastmile_qr_scan"}, "is_reserved": 0}, {"lon": -77.0257865, "bike_id": "0039284aaa82762a7bcb37542536f661", "lat": 38.903819666666664, "fusion_lon": 0.0, "fusion_lat": 0.0, "type": "electric_scooter", "name": "0039284aaa82762a7bcb37542536f661", "is_disabled": 0, "rental_uris": {"ios": "https://dc.lft.to/lastmile_qr_scan", "android": "https://dc.lft.to/lastmile_qr_scan"}, "is_reserved": 0}, {"lon": -77.00128733333334, "bike_id": "1ebc2c96781cefc776c053b5cf31ca87", "lat": 38.88530683333333, "fusion_lon": 0.0, "fusion_lat": 0.0, "type": "electric_scooter", "name": "1ebc2c96781cefc776c053b5cf31ca87", "is_disabled": 0, "rental_uris": {"ios": "https://dc.lft.to/lastmile_qr_scan", "android": "https://dc.lft.to/lastmile_qr_scan"}, "is_reserved": 0}, {"lon": -77.02227483333333, "bike_id": "fc2be4ee61133700b0edebc16d92ec5c", "lat": 38.892201, "fusion_lon": 0.0, "fusion_lat": 0.0, "type": "electric_scooter", "name": "fc2be4ee61133700b0edebc16d92ec5c", "is_disabled": 0, "rental_uris": {"ios": "https://dc.lft.to/lastmile_qr_scan", "android": "https://dc.lft.to/lastmile_qr_scan"}, "is_reserved": 0}, {"lon": -77.0253005, "bike_id": "ba6bf126613cd262be2747d1b44e2a16", "lat": 38.943023333333336, "fusion_lon": 0.0, "fusion_lat": 0.0, "type": "electric_scooter", "name": "ba6bf126613cd262be2747d1b44e2a16", "is_disabled": 0, "rental_uris": {"ios": "https://dc.lft.to/lastmile_qr_scan", "android": "https://dc.lft.to/lastmile_qr_scan"}, "is_reserved": 0}, {"lon": -77.06144966666666, "bike_id": "07621601a42b958a3a17493de999df82", "lat": 38.9436415, "fusion_lon": 0.0, "fusion_lat": 0.0, "type": "electric_scooter", "name": "07621601a42b958a3a17493de999df82", "is_disabled": 0, "rental_uris": {"ios": "https://dc.lft.to/lastmile_qr_scan", "android": "https://dc.lft.to/lastmile_qr_scan"}, "is_reserved": 0}, {"lon": -77.0092435, "bike_id": "fbe52f4b4969b5271f62bfc489a4a13c", "lat": 38.918130166666664, "fusion_lon": 0.0, "fusion_lat": 0.0, "type": "electric_scooter", "name": "fbe52f4b4969b5271f62bfc489a4a13c", "is_disabled": 0, "rental_uris": {"ios": "https://dc.lft.to/lastmile_qr_scan", "android": "https://dc.lft.to/lastmile_qr_scan"}, "is_reserved": 0}, {"lon": -77.001615, "bike_id": "92a7dc5769c3714276432fea46b42e2c", "lat": 38.91949316666667, "fusion_lon": 0.0, "fusion_lat": 0.0, "type": "electric_scooter", "name": "92a7dc5769c3714276432fea46b42e2c", "is_disabled": 0, "rental_uris": {"ios": "https://dc.lft.to/lastmile_qr_scan", "android": "https://dc.lft.to/lastmile_qr_scan"}, "is_reserved": 0}, {"lon": -77.04000466666666, "bike_id": "f64bbec5d8871f41bef16f7bd3c6ad5c", "lat": 38.91817983333333, "fusion_lon": 0.0, "fusion_lat": 0.0, "type": "electric_scooter", "name": "f64bbec5d8871f41bef16f7bd3c6ad5c", "is_disabled": 0, "rental_uris": {"ios": "https://dc.lft.to/lastmile_qr_scan", "android": "https://dc.lft.to/lastmile_qr_scan"}, "is_reserved": 0}, {"lon": -76.997813, "bike_id": "1c7ebc91dcc8f081abcc80e1a8501eeb", "lat": 38.910656333333336, "fusion_lon": 0.0, "fusion_lat": 0.0, "type": "electric_scooter", "name": "1c7ebc91dcc8f081abcc80e1a8501eeb", "is_disabled": 0, "rental_uris": {"ios": "https://dc.lft.to/lastmile_qr_scan", "android": "https://dc.lft.to/lastmile_qr_scan"}, "is_reserved": 0}, {"lon": -77.02296766666667, "bike_id": "0135cf36e9b185a48bf5e13e3ad6b9c5", "lat": 38.923307333333334, "fusion_lon": 0.0, "fusion_lat": 0.0, "type": "electric_bike", "name": "0135cf36e9b185a48bf5e13e3ad6b9c5", "is_disabled": 0, "rental_uris": {"ios": "https://dc.lft.to/lastmile_qr_scan", "android": "https://dc.lft.to/lastmile_qr_scan"}, "is_reserved": 0}, {"lon": -77.04945, "bike_id": "591eb7c5f6dc63213a28e3128da7f99b", "lat": 38.908513666666664, "fusion_lon": 0.0, "fusion_lat": 0.0, "type": "electric_scooter", "name": "591eb7c5f6dc63213a28e3128da7f99b", "is_disabled": 0, "rental_uris": {"ios": "https://dc.lft.to/lastmile_qr_scan", "android": "https://dc.lft.to/lastmile_qr_scan"}, "is_reserved": 0}, {"lon": -77.05024333333333, "bike_id": "b16dd1a617b163570c0d83a1b77650a1", "lat": 38.89821416666667, "fusion_lon": 0.0, "fusion_lat": 0.0, "type": "electric_scooter", "name": "b16dd1a617b163570c0d83a1b77650a1", "is_disabled": 0, "rental_uris": {"ios": "https://dc.lft.to/lastmile_qr_scan", "android": "https://dc.lft.to/lastmile_qr_scan"}, "is_reserved": 0}, {"lon": -77.043748, "bike_id": "e4d921b6f7fa95632f423787ada4cd5b", "lat": 38.898642333333335, "fusion_lon": 0.0, "fusion_lat": 0.0, "type": "electric_scooter", "name": "e4d921b6f7fa95632f423787ada4cd5b", "is_disabled": 0, "rental_uris": {"ios": "https://dc.lft.to/lastmile_qr_scan", "android": "https://dc.lft.to/lastmile_qr_scan"}, "is_reserved": 0}, {"lon": -77.00431916666666, "bike_id": "08de7a04fab0f1b53efad3a8671ff8c9", "lat": 38.91332383333334, "fusion_lon": 0.0, "fusion_lat": 0.0, "type": "electric_scooter", "name": "08de7a04fab0f1b53efad3a8671ff8c9", "is_disabled": 0, "rental_uris": {"ios": "https://dc.lft.to/lastmile_qr_scan", "android": "https://dc.lft.to/lastmile_qr_scan"}, "is_reserved": 0}, {"lon": -76.94125716666667, "bike_id": "8ae5779a52d097fc9dedf74b40944f80", "lat": 38.88611, "fusion_lon": 0.0, "fusion_lat": 0.0, "type": "electric_scooter", "name": "8ae5779a52d097fc9dedf74b40944f80", "is_disabled": 0, "rental_uris": {"ios": "https://dc.lft.to/lastmile_qr_scan", "android": "https://dc.lft.to/lastmile_qr_scan"}, "is_reserved": 0}, {"lon": -77.0312965, "bike_id": "a9e7cc41520db6c78938a978680d82ba", "lat": 38.9203875, "fusion_lon": 0.0, "fusion_lat": 0.0, "type": "electric_scooter", "name": "a9e7cc41520db6c78938a978680d82ba", "is_disabled": 0, "rental_uris": {"ios": "https://dc.lft.to/lastmile_qr_scan", "android": "https://dc.lft.to/lastmile_qr_scan"}, "is_reserved": 0}, {"lon": -77.05216, "bike_id": "b37de2a5c8f919376b6215c57abfd828", "lat": 38.91573483333333, "fusion_lon": 0.0, "fusion_lat": 0.0, "type": "electric_scooter", "name": "b37de2a5c8f919376b6215c57abfd828", "is_disabled": 0, "rental_uris": {"ios": "https://dc.lft.to/lastmile_qr_scan", "android": "https://dc.lft.to/lastmile_qr_scan"}, "is_reserved": 0}, {"lon": -77.02712216666667, "bike_id": "5bd6cf648c547c0d017a4fce03f34071", "lat": 38.916839833333334, "fusion_lon": 0.0, "fusion_lat": 0.0, "type": "electric_scooter", "name": "5bd6cf648c547c0d017a4fce03f34071", "is_disabled": 0, "rental_uris": {"ios": "https://dc.lft.to/lastmile_qr_scan", "android": "https://dc.lft.to/lastmile_qr_scan"}, "is_reserved": 0}, {"lon": -76.9849765, "bike_id": "e317348a6472482d9ce2159a8fdda086", "lat": 38.87850366666667, "fusion_lon": 0.0, "fusion_lat": 0.0, "type": "electric_scooter", "name": "e317348a6472482d9ce2159a8fdda086", "is_disabled": 0, "rental_uris": {"ios": "https://dc.lft.to/lastmile_qr_scan", "android": "https://dc.lft.to/lastmile_qr_scan"}, "is_reserved": 0}, {"lon": -77.05539383333333, "bike_id": "8ed7b50629fe694c74dd56140753c68c", "lat": 38.90950566666667, "fusion_lon": 0.0, "fusion_lat": 0.0, "type": "electric_scooter", "name": "8ed7b50629fe694c74dd56140753c68c", "is_disabled": 0, "rental_uris": {"ios": "https://dc.lft.to/lastmile_qr_scan", "android": "https://dc.lft.to/lastmile_qr_scan"}, "is_reserved": 0}, {"lon": -77.03544466666666, "bike_id": "930b14454497c0df803fae9a040fb958", "lat": 38.90774916666667, "fusion_lon": 0.0, "fusion_lat": 0.0, "type": "electric_scooter", "name": "930b14454497c0df803fae9a040fb958", "is_disabled": 0, "rental_uris": {"ios": "https://dc.lft.to/lastmile_qr_scan", "android": "https://dc.lft.to/lastmile_qr_scan"}, "is_reserved": 0}, {"lon": -77.03261733333333, "bike_id": "f2f800c9c3bd030aceec92aa4fd351a7", "lat": 38.920727, "fusion_lon": 0.0, "fusion_lat": 0.0, "type": "electric_scooter", "name": "f2f800c9c3bd030aceec92aa4fd351a7", "is_disabled": 0, "rental_uris": {"ios": "https://dc.lft.to/lastmile_qr_scan", "android": "https://dc.lft.to/lastmile_qr_scan"}, "is_reserved": 0}, {"lon": -77.033492, "bike_id": "247ef9ce8f6f31960171644c91062b11", "lat": 38.88709216666667, "fusion_lon": 0.0, "fusion_lat": 0.0, "type": "electric_scooter", "name": "247ef9ce8f6f31960171644c91062b11", "is_disabled": 0, "rental_uris": {"ios": "https://dc.lft.to/lastmile_qr_scan", "android": "https://dc.lft.to/lastmile_qr_scan"}, "is_reserved": 0}, {"lon": -76.9463525, "bike_id": "a0fc332656711c900671605a3e366bd1", "lat": 38.898325166666666, "fusion_lon": 0.0, "fusion_lat": 0.0, "type": "electric_scooter", "name": "a0fc332656711c900671605a3e366bd1", "is_disabled": 0, "rental_uris": {"ios": "https://dc.lft.to/lastmile_qr_scan", "android": "https://dc.lft.to/lastmile_qr_scan"}, "is_reserved": 0}, {"lon": -77.0320445, "bike_id": "2c2ada423258dc99c7ce86bd3f66ecc5", "lat": 38.91679533333333, "fusion_lon": 0.0, "fusion_lat": 0.0, "type": "electric_scooter", "name": "2c2ada423258dc99c7ce86bd3f66ecc5", "is_disabled": 0, "rental_uris": {"ios": "https://dc.lft.to/lastmile_qr_scan", "android": "https://dc.lft.to/lastmile_qr_scan"}, "is_reserved": 0}, {"lon": -77.0534105, "bike_id": "870b9106ac251cf3f51e981111d6569d", "lat": 38.927090666666665, "fusion_lon": 0.0, "fusion_lat": 0.0, "type": "electric_scooter", "name": "870b9106ac251cf3f51e981111d6569d", "is_disabled": 0, "rental_uris": {"ios": "https://dc.lft.to/lastmile_qr_scan", "android": "https://dc.lft.to/lastmile_qr_scan"}, "is_reserved": 0}, {"lon": -77.02931816666667, "bike_id": "2d96bb5e85f1982cb687f262ac16ecf2", "lat": 38.8980645, "fusion_lon": 0.0, "fusion_lat": 0.0, "type": "electric_scooter", "name": "2d96bb5e85f1982cb687f262ac16ecf2", "is_disabled": 0, "rental_uris": {"ios": "https://dc.lft.to/lastmile_qr_scan", "android": "https://dc.lft.to/lastmile_qr_scan"}, "is_reserved": 0}, {"lon": -77.05686433333334, "bike_id": "5a5532735bcbe6ed87dcd03220802d17", "lat": 38.9050615, "fusion_lon": 0.0, "fusion_lat": 0.0, "type": "electric_scooter", "name": "5a5532735bcbe6ed87dcd03220802d17", "is_disabled": 0, "rental_uris": {"ios": "https://dc.lft.to/lastmile_qr_scan", "android": "https://dc.lft.to/lastmile_qr_scan"}, "is_reserved": 0}, {"lon": -77.04119266666666, "bike_id": "a47c9f68919c3f4872eb1a080ec529de", "lat": 38.94415566666667, "fusion_lon": 0.0, "fusion_lat": 0.0, "type": "electric_bike", "name": "a47c9f68919c3f4872eb1a080ec529de", "is_disabled": 0, "rental_uris": {"ios": "https://dc.lft.to/lastmile_qr_scan", "android": "https://dc.lft.to/lastmile_qr_scan"}, "is_reserved": 0}, {"lon": -77.02391866666666, "bike_id": "db915d9af94c58d09606cf5822df98cb", "lat": 38.903135, "fusion_lon": 0.0, "fusion_lat": 0.0, "type": "electric_scooter", "name": "db915d9af94c58d09606cf5822df98cb", "is_disabled": 0, "rental_uris": {"ios": "https://dc.lft.to/lastmile_qr_scan", "android": "https://dc.lft.to/lastmile_qr_scan"}, "is_reserved": 0}, {"lon": -77.05204466666666, "bike_id": "c57b380e44de451b5d3c93640a68c918", "lat": 38.92429683333334, "fusion_lon": 0.0, "fusion_lat": 0.0, "type": "electric_scooter", "name": "c57b380e44de451b5d3c93640a68c918", "is_disabled": 0, "rental_uris": {"ios": "https://dc.lft.to/lastmile_qr_scan", "android": "https://dc.lft.to/lastmile_qr_scan"}, "is_reserved": 0}, {"lon": -76.9855495, "bike_id": "1b755d5378131c5860e3e3e3b3bdeceb", "lat": 38.91038016666667, "fusion_lon": 0.0, "fusion_lat": 0.0, "type": "electric_scooter", "name": "1b755d5378131c5860e3e3e3b3bdeceb", "is_disabled": 0, "rental_uris": {"ios": "https://dc.lft.to/lastmile_qr_scan", "android": "https://dc.lft.to/lastmile_qr_scan"}, "is_reserved": 0}, {"lon": -76.99813733333333, "bike_id": "28f9d992c7fc8d53a6a6abd66130721c", "lat": 38.90718666666667, "fusion_lon": 0.0, "fusion_lat": 0.0, "type": "electric_scooter", "name": "28f9d992c7fc8d53a6a6abd66130721c", "is_disabled": 0, "rental_uris": {"ios": "https://dc.lft.to/lastmile_qr_scan", "android": "https://dc.lft.to/lastmile_qr_scan"}, "is_reserved": 0}, {"lon": -76.99352116666667, "bike_id": "e1bf75ec33d8c3d9a6cef42d168c22c0", "lat": 38.937210666666665, "fusion_lon": 0.0, "fusion_lat": 0.0, "type": "electric_bike", "name": "e1bf75ec33d8c3d9a6cef42d168c22c0", "is_disabled": 0, "rental_uris": {"ios": "https://dc.lft.to/lastmile_qr_scan", "android": "https://dc.lft.to/lastmile_qr_scan"}, "is_reserved": 0}, {"lon": -77.0520655, "bike_id": "1c0c9754d55db878f2f1d5a97d8d8e84", "lat": 38.92484066666667, "fusion_lon": 0.0, "fusion_lat": 0.0, "type": "electric_scooter", "name": "1c0c9754d55db878f2f1d5a97d8d8e84", "is_disabled": 0, "rental_uris": {"ios": "https://dc.lft.to/lastmile_qr_scan", "android": "https://dc.lft.to/lastmile_qr_scan"}, "is_reserved": 0}, {"lon": -77.03833016666667, "bike_id": "906baf3431983a48bbd44d1159fc8dfd", "lat": 38.9121665, "fusion_lon": 0.0, "fusion_lat": 0.0, "type": "electric_scooter", "name": "906baf3431983a48bbd44d1159fc8dfd", "is_disabled": 0, "rental_uris": {"ios": "https://dc.lft.to/lastmile_qr_scan", "android": "https://dc.lft.to/lastmile_qr_scan"}, "is_reserved": 0}, {"lon": -77.02089966666666, "bike_id": "a92a0798c423c199262a6e07f3b57461", "lat": 38.945283, "fusion_lon": 0.0, "fusion_lat": 0.0, "type": "electric_scooter", "name": "a92a0798c423c199262a6e07f3b57461", "is_disabled": 0, "rental_uris": {"ios": "https://dc.lft.to/lastmile_qr_scan", "android": "https://dc.lft.to/lastmile_qr_scan"}, "is_reserved": 0}, {"lon": -77.00338566666667, "bike_id": "5119ec30e838dc88b419fd7703d90cb8", "lat": 38.89525066666667, "fusion_lon": 0.0, "fusion_lat": 0.0, "type": "electric_scooter", "name": "5119ec30e838dc88b419fd7703d90cb8", "is_disabled": 0, "rental_uris": {"ios": "https://dc.lft.to/lastmile_qr_scan", "android": "https://dc.lft.to/lastmile_qr_scan"}, "is_reserved": 0}, {"lon": -77.08070916666667, "bike_id": "35c31c9df78e652f25ea8adf42155059", "lat": 38.963169, "fusion_lon": 0.0, "fusion_lat": 0.0, "type": "electric_bike", "name": "35c31c9df78e652f25ea8adf42155059", "is_disabled": 0, "rental_uris": {"ios": "https://dc.lft.to/lastmile_qr_scan", "android": "https://dc.lft.to/lastmile_qr_scan"}, "is_reserved": 0}, {"lon": -76.9785655, "bike_id": "1bd56f96a81b46ac5b79c53791f75165", "lat": 38.92565966666667, "fusion_lon": 0.0, "fusion_lat": 0.0, "type": "electric_bike", "name": "1bd56f96a81b46ac5b79c53791f75165", "is_disabled": 0, "rental_uris": {"ios": "https://dc.lft.to/lastmile_qr_scan", "android": "https://dc.lft.to/lastmile_qr_scan"}, "is_reserved": 0}, {"lon": -77.00572683333333, "bike_id": "5801e017c20ade5bcae1c9b16d4d1ff1", "lat": 38.835974666666665, "fusion_lon": 0.0, "fusion_lat": 0.0, "type": "electric_scooter", "name": "5801e017c20ade5bcae1c9b16d4d1ff1", "is_disabled": 0, "rental_uris": {"ios": "https://dc.lft.to/lastmile_qr_scan", "android": "https://dc.lft.to/lastmile_qr_scan"}, "is_reserved": 0}, {"lon": -76.94873233333334, "bike_id": "47b1fab30cca5f65ae918514a961136b", "lat": 38.895459, "fusion_lon": 0.0, "fusion_lat": 0.0, "type": "electric_scooter", "name": "47b1fab30cca5f65ae918514a961136b", "is_disabled": 0, "rental_uris": {"ios": "https://dc.lft.to/lastmile_qr_scan", "android": "https://dc.lft.to/lastmile_qr_scan"}, "is_reserved": 0}, {"lon": -77.0700835, "bike_id": "35a4127c8cd3bd85bbf6450e65a539c3", "lat": 38.958587, "fusion_lon": 0.0, "fusion_lat": 0.0, "type": "electric_scooter", "name": "35a4127c8cd3bd85bbf6450e65a539c3", "is_disabled": 0, "rental_uris": {"ios": "https://dc.lft.to/lastmile_qr_scan", "android": "https://dc.lft.to/lastmile_qr_scan"}, "is_reserved": 0}, {"lon": -77.01206, "bike_id": "a39a0c4d1932f4bb5fdfda764a5ecb5b", "lat": 38.87105733333333, "fusion_lon": 0.0, "fusion_lat": 0.0, "type": "electric_bike", "name": "a39a0c4d1932f4bb5fdfda764a5ecb5b", "is_disabled": 0, "rental_uris": {"ios": "https://dc.lft.to/lastmile_qr_scan", "android": "https://dc.lft.to/lastmile_qr_scan"}, "is_reserved": 0}, {"lon": -77.05260883333334, "bike_id": "236decf6fb3d61c4b1aee988d210b86f", "lat": 38.9238075, "fusion_lon": 0.0, "fusion_lat": 0.0, "type": "electric_scooter", "name": "236decf6fb3d61c4b1aee988d210b86f", "is_disabled": 0, "rental_uris": {"ios": "https://dc.lft.to/lastmile_qr_scan", "android": "https://dc.lft.to/lastmile_qr_scan"}, "is_reserved": 0}, {"lon": -77.032348, "bike_id": "8434f883da4f00a968f473aa0e54c5be", "lat": 38.914135333333334, "fusion_lon": 0.0, "fusion_lat": 0.0, "type": "electric_scooter", "name": "8434f883da4f00a968f473aa0e54c5be", "is_disabled": 0, "rental_uris": {"ios": "https://dc.lft.to/lastmile_qr_scan", "android": "https://dc.lft.to/lastmile_qr_scan"}, "is_reserved": 0}, {"lon": -77.03957333333334, "bike_id": "9cac7e61c6fb11f53b9ed33dfcd65401", "lat": 38.90073783333333, "fusion_lon": 0.0, "fusion_lat": 0.0, "type": "electric_scooter", "name": "9cac7e61c6fb11f53b9ed33dfcd65401", "is_disabled": 0, "rental_uris": {"ios": "https://dc.lft.to/lastmile_qr_scan", "android": "https://dc.lft.to/lastmile_qr_scan"}, "is_reserved": 0}, {"lon": -77.04803366666667, "bike_id": "dea1ac9ce8719d4e6cc591ab0ce2bc38", "lat": 38.909795333333335, "fusion_lon": 0.0, "fusion_lat": 0.0, "type": "electric_scooter", "name": "dea1ac9ce8719d4e6cc591ab0ce2bc38", "is_disabled": 0, "rental_uris": {"ios": "https://dc.lft.to/lastmile_qr_scan", "android": "https://dc.lft.to/lastmile_qr_scan"}, "is_reserved": 0}, {"lon": -76.99376833333334, "bike_id": "be3e399d2977f2b0c57372797afcbc01", "lat": 38.97193933333333, "fusion_lon": 0.0, "fusion_lat": 0.0, "type": "electric_bike", "name": "be3e399d2977f2b0c57372797afcbc01", "is_disabled": 0, "rental_uris": {"ios": "https://dc.lft.to/lastmile_qr_scan", "android": "https://dc.lft.to/lastmile_qr_scan"}, "is_reserved": 0}, {"lon": -77.02437833333333, "bike_id": "4c610c2b026ec6325902ea6df8aca023", "lat": 38.917099666666665, "fusion_lon": 0.0, "fusion_lat": 0.0, "type": "electric_scooter", "name": "4c610c2b026ec6325902ea6df8aca023", "is_disabled": 0, "rental_uris": {"ios": "https://dc.lft.to/lastmile_qr_scan", "android": "https://dc.lft.to/lastmile_qr_scan"}, "is_reserved": 0}, {"lon": -77.0269575, "bike_id": "f03ac7a32af8fa954daebc4ae88fd306", "lat": 38.923390166666664, "fusion_lon": 0.0, "fusion_lat": 0.0, "type": "electric_scooter", "name": "f03ac7a32af8fa954daebc4ae88fd306", "is_disabled": 0, "rental_uris": {"ios": "https://dc.lft.to/lastmile_qr_scan", "android": "https://dc.lft.to/lastmile_qr_scan"}, "is_reserved": 0}, {"lon": -77.00593083333334, "bike_id": "111383fdee492e13acd5970ba312b154", "lat": 38.9003615, "fusion_lon": 0.0, "fusion_lat": 0.0, "type": "electric_scooter", "name": "111383fdee492e13acd5970ba312b154", "is_disabled": 0, "rental_uris": {"ios": "https://dc.lft.to/lastmile_qr_scan", "android": "https://dc.lft.to/lastmile_qr_scan"}, "is_reserved": 0}, {"lon": -77.03726116666667, "bike_id": "03d576a4f43829e2b139aa018bf912f5", "lat": 38.92836616666666, "fusion_lon": 0.0, "fusion_lat": 0.0, "type": "electric_scooter", "name": "03d576a4f43829e2b139aa018bf912f5", "is_disabled": 0, "rental_uris": {"ios": "https://dc.lft.to/lastmile_qr_scan", "android": "https://dc.lft.to/lastmile_qr_scan"}, "is_reserved": 0}, {"lon": -77.00239816666667, "bike_id": "bdd98360f68c662d30f2f3ba4e0e3221", "lat": 38.8851055, "fusion_lon": 0.0, "fusion_lat": 0.0, "type": "electric_scooter", "name": "bdd98360f68c662d30f2f3ba4e0e3221", "is_disabled": 0, "rental_uris": {"ios": "https://dc.lft.to/lastmile_qr_scan", "android": "https://dc.lft.to/lastmile_qr_scan"}, "is_reserved": 0}, {"lon": -76.98104566666666, "bike_id": "ebbf95134709573e7897a889bc515814", "lat": 38.87733583333333, "fusion_lon": 0.0, "fusion_lat": 0.0, "type": "electric_bike", "name": "ebbf95134709573e7897a889bc515814", "is_disabled": 0, "rental_uris": {"ios": "https://dc.lft.to/lastmile_qr_scan", "android": "https://dc.lft.to/lastmile_qr_scan"}, "is_reserved": 0}, {"lon": -76.9824495, "bike_id": "9a5b7ddec3ac31cc3a76c9cd59ae406b", "lat": 38.8646725, "fusion_lon": 0.0, "fusion_lat": 0.0, "type": "electric_scooter", "name": "9a5b7ddec3ac31cc3a76c9cd59ae406b", "is_disabled": 0, "rental_uris": {"ios": "https://dc.lft.to/lastmile_qr_scan", "android": "https://dc.lft.to/lastmile_qr_scan"}, "is_reserved": 0}, {"lon": -77.04701533333333, "bike_id": "a2590af9e8388ca09788be28c9e7a187", "lat": 38.91899166666666, "fusion_lon": 0.0, "fusion_lat": 0.0, "type": "electric_scooter", "name": "a2590af9e8388ca09788be28c9e7a187", "is_disabled": 0, "rental_uris": {"ios": "https://dc.lft.to/lastmile_qr_scan", "android": "https://dc.lft.to/lastmile_qr_scan"}, "is_reserved": 0}, {"lon": -77.00300916666667, "bike_id": "6df0ba372af9c756e80bf487a1c46e0c", "lat": 38.9014885, "fusion_lon": 0.0, "fusion_lat": 0.0, "type": "electric_scooter", "name": "6df0ba372af9c756e80bf487a1c46e0c", "is_disabled": 0, "rental_uris": {"ios": "https://dc.lft.to/lastmile_qr_scan", "android": "https://dc.lft.to/lastmile_qr_scan"}, "is_reserved": 0}, {"lon": -76.9986765, "bike_id": "13512f6ca614916050b5c9fb1ac24a77", "lat": 38.900272333333334, "fusion_lon": 0.0, "fusion_lat": 0.0, "type": "electric_scooter", "name": "13512f6ca614916050b5c9fb1ac24a77", "is_disabled": 0, "rental_uris": {"ios": "https://dc.lft.to/lastmile_qr_scan", "android": "https://dc.lft.to/lastmile_qr_scan"}, "is_reserved": 0}, {"lon": -76.94941883333334, "bike_id": "0cf16e8b26bd322892a968baba1a4d18", "lat": 38.9037475, "fusion_lon": 0.0, "fusion_lat": 0.0, "type": "electric_scooter", "name": "0cf16e8b26bd322892a968baba1a4d18", "is_disabled": 0, "rental_uris": {"ios": "https://dc.lft.to/lastmile_qr_scan", "android": "https://dc.lft.to/lastmile_qr_scan"}, "is_reserved": 0}, {"lon": -77.03151733333333, "bike_id": "f93f5324a55d29129e19d8c52a131fb6", "lat": 38.917003, "fusion_lon": 0.0, "fusion_lat": 0.0, "type": "electric_scooter", "name": "f93f5324a55d29129e19d8c52a131fb6", "is_disabled": 0, "rental_uris": {"ios": "https://dc.lft.to/lastmile_qr_scan", "android": "https://dc.lft.to/lastmile_qr_scan"}, "is_reserved": 0}, {"lon": -77.01502383333333, "bike_id": "0240ddb0315b71c51b3260bc68d9fb3d", "lat": 38.9453395, "fusion_lon": 0.0, "fusion_lat": 0.0, "type": "electric_scooter", "name": "0240ddb0315b71c51b3260bc68d9fb3d", "is_disabled": 0, "rental_uris": {"ios": "https://dc.lft.to/lastmile_qr_scan", "android": "https://dc.lft.to/lastmile_qr_scan"}, "is_reserved": 0}, {"lon": -77.00111133333333, "bike_id": "4cc0bb649d41a64247ce87c115dcf5e7", "lat": 38.9196915, "fusion_lon": 0.0, "fusion_lat": 0.0, "type": "electric_scooter", "name": "4cc0bb649d41a64247ce87c115dcf5e7", "is_disabled": 0, "rental_uris": {"ios": "https://dc.lft.to/lastmile_qr_scan", "android": "https://dc.lft.to/lastmile_qr_scan"}, "is_reserved": 0}, {"lon": -77.03218566666666, "bike_id": "48e5b60638e592549e16fdf5f624536d", "lat": 38.914904666666665, "fusion_lon": 0.0, "fusion_lat": 0.0, "type": "electric_scooter", "name": "48e5b60638e592549e16fdf5f624536d", "is_disabled": 0, "rental_uris": {"ios": "https://dc.lft.to/lastmile_qr_scan", "android": "https://dc.lft.to/lastmile_qr_scan"}, "is_reserved": 0}, {"lon": -77.03261183333333, "bike_id": "ef26e1562123f16fbda99e7935ea93f8", "lat": 38.932360333333335, "fusion_lon": 0.0, "fusion_lat": 0.0, "type": "electric_scooter", "name": "ef26e1562123f16fbda99e7935ea93f8", "is_disabled": 0, "rental_uris": {"ios": "https://dc.lft.to/lastmile_qr_scan", "android": "https://dc.lft.to/lastmile_qr_scan"}, "is_reserved": 0}, {"lon": -77.00188533333333, "bike_id": "c7feb185ca385e8d8a1caa7227485200", "lat": 38.894792333333335, "fusion_lon": 0.0, "fusion_lat": 0.0, "type": "electric_scooter", "name": "c7feb185ca385e8d8a1caa7227485200", "is_disabled": 0, "rental_uris": {"ios": "https://dc.lft.to/lastmile_qr_scan", "android": "https://dc.lft.to/lastmile_qr_scan"}, "is_reserved": 0}, {"lon": -77.05860033333333, "bike_id": "5e6735e008e122153f5645d9b7d6c0f4", "lat": 38.936132, "fusion_lon": 0.0, "fusion_lat": 0.0, "type": "electric_scooter", "name": "5e6735e008e122153f5645d9b7d6c0f4", "is_disabled": 0, "rental_uris": {"ios": "https://dc.lft.to/lastmile_qr_scan", "android": "https://dc.lft.to/lastmile_qr_scan"}, "is_reserved": 0}, {"lon": -76.99791683333333, "bike_id": "f4ee9e3cfe4e1a28cab114c44b7f0b54", "lat": 38.891001833333334, "fusion_lon": 0.0, "fusion_lat": 0.0, "type": "electric_scooter", "name": "f4ee9e3cfe4e1a28cab114c44b7f0b54", "is_disabled": 0, "rental_uris": {"ios": "https://dc.lft.to/lastmile_qr_scan", "android": "https://dc.lft.to/lastmile_qr_scan"}, "is_reserved": 0}, {"lon": -76.98331016666667, "bike_id": "bf9d14db5daa8f5d0629452a26106f3b", "lat": 38.9010175, "fusion_lon": 0.0, "fusion_lat": 0.0, "type": "electric_scooter", "name": "bf9d14db5daa8f5d0629452a26106f3b", "is_disabled": 0, "rental_uris": {"ios": "https://dc.lft.to/lastmile_qr_scan", "android": "https://dc.lft.to/lastmile_qr_scan"}, "is_reserved": 0}, {"lon": -77.02367533333333, "bike_id": "2561e5195b26bf4ca1264b11da1abe76", "lat": 38.91953266666667, "fusion_lon": 0.0, "fusion_lat": 0.0, "type": "electric_scooter", "name": "2561e5195b26bf4ca1264b11da1abe76", "is_disabled": 0, "rental_uris": {"ios": "https://dc.lft.to/lastmile_qr_scan", "android": "https://dc.lft.to/lastmile_qr_scan"}, "is_reserved": 0}, {"lon": -77.08813933333333, "bike_id": "e45d094a7dabf62b9642e510e77be50b", "lat": 38.90975066666667, "fusion_lon": 0.0, "fusion_lat": 0.0, "type": "electric_scooter", "name": "e45d094a7dabf62b9642e510e77be50b", "is_disabled": 0, "rental_uris": {"ios": "https://dc.lft.to/lastmile_qr_scan", "android": "https://dc.lft.to/lastmile_qr_scan"}, "is_reserved": 0}, {"lon": -76.99271233333333, "bike_id": "eecc78a6f3ecc2e5f9300fbed1159068", "lat": 38.89766083333333, "fusion_lon": 0.0, "fusion_lat": 0.0, "type": "electric_scooter", "name": "eecc78a6f3ecc2e5f9300fbed1159068", "is_disabled": 0, "rental_uris": {"ios": "https://dc.lft.to/lastmile_qr_scan", "android": "https://dc.lft.to/lastmile_qr_scan"}, "is_reserved": 0}, {"lon": -77.02159066666667, "bike_id": "adb19a162b74e11b6d0f78678ff65327", "lat": 38.8921845, "fusion_lon": 0.0, "fusion_lat": 0.0, "type": "electric_scooter", "name": "adb19a162b74e11b6d0f78678ff65327", "is_disabled": 0, "rental_uris": {"ios": "https://dc.lft.to/lastmile_qr_scan", "android": "https://dc.lft.to/lastmile_qr_scan"}, "is_reserved": 0}, {"lon": -77.02130533333333, "bike_id": "e54c1fceddddce518ea8b0f667fc51db", "lat": 38.9246475, "fusion_lon": 0.0, "fusion_lat": 0.0, "type": "electric_scooter", "name": "e54c1fceddddce518ea8b0f667fc51db", "is_disabled": 0, "rental_uris": {"ios": "https://dc.lft.to/lastmile_qr_scan", "android": "https://dc.lft.to/lastmile_qr_scan"}, "is_reserved": 0}, {"lon": -77.014568, "bike_id": "1a63750c19bc929559202487a4e9bd31", "lat": 38.89938883333333, "fusion_lon": 0.0, "fusion_lat": 0.0, "type": "electric_scooter", "name": "1a63750c19bc929559202487a4e9bd31", "is_disabled": 0, "rental_uris": {"ios": "https://dc.lft.to/lastmile_qr_scan", "android": "https://dc.lft.to/lastmile_qr_scan"}, "is_reserved": 0}, {"lon": -76.941559, "bike_id": "60962e106053e9b11e624efa5844d6ba", "lat": 38.8791555, "fusion_lon": 0.0, "fusion_lat": 0.0, "type": "electric_scooter", "name": "60962e106053e9b11e624efa5844d6ba", "is_disabled": 0, "rental_uris": {"ios": "https://dc.lft.to/lastmile_qr_scan", "android": "https://dc.lft.to/lastmile_qr_scan"}, "is_reserved": 0}, {"lon": -77.0235335, "bike_id": "1aff4e478996041adbd7dad78465a5f3", "lat": 38.931983, "fusion_lon": 0.0, "fusion_lat": 0.0, "type": "electric_scooter", "name": "1aff4e478996041adbd7dad78465a5f3", "is_disabled": 0, "rental_uris": {"ios": "https://dc.lft.to/lastmile_qr_scan", "android": "https://dc.lft.to/lastmile_qr_scan"}, "is_reserved": 0}, {"lon": -77.06693216666666, "bike_id": "d17c2450f230534789426579967b1538", "lat": 38.914803166666665, "fusion_lon": 0.0, "fusion_lat": 0.0, "type": "electric_scooter", "name": "d17c2450f230534789426579967b1538", "is_disabled": 0, "rental_uris": {"ios": "https://dc.lft.to/lastmile_qr_scan", "android": "https://dc.lft.to/lastmile_qr_scan"}, "is_reserved": 0}, {"lon": -77.04603116666667, "bike_id": "896c91a3aea2b71ac46e87d48cf1250f", "lat": 38.92182233333333, "fusion_lon": 0.0, "fusion_lat": 0.0, "type": "electric_scooter", "name": "896c91a3aea2b71ac46e87d48cf1250f", "is_disabled": 0, "rental_uris": {"ios": "https://dc.lft.to/lastmile_qr_scan", "android": "https://dc.lft.to/lastmile_qr_scan"}, "is_reserved": 0}, {"lon": -77.00710533333333, "bike_id": "a4f66d82676b95c1d62908f9b0457f35", "lat": 38.88491766666667, "fusion_lon": 0.0, "fusion_lat": 0.0, "type": "electric_scooter", "name": "a4f66d82676b95c1d62908f9b0457f35", "is_disabled": 0, "rental_uris": {"ios": "https://dc.lft.to/lastmile_qr_scan", "android": "https://dc.lft.to/lastmile_qr_scan"}, "is_reserved": 0}, {"lon": -77.0063195, "bike_id": "4b02e978a0953c1fdbd0a6609d8b0703", "lat": 38.95601383333333, "fusion_lon": 0.0, "fusion_lat": 0.0, "type": "electric_scooter", "name": "4b02e978a0953c1fdbd0a6609d8b0703", "is_disabled": 0, "rental_uris": {"ios": "https://dc.lft.to/lastmile_qr_scan", "android": "https://dc.lft.to/lastmile_qr_scan"}, "is_reserved": 0}, {"lon": -77.03189516666667, "bike_id": "75141eaab753c5cf6af8daabda69bc51", "lat": 38.908764, "fusion_lon": 0.0, "fusion_lat": 0.0, "type": "electric_scooter", "name": "75141eaab753c5cf6af8daabda69bc51", "is_disabled": 0, "rental_uris": {"ios": "https://dc.lft.to/lastmile_qr_scan", "android": "https://dc.lft.to/lastmile_qr_scan"}, "is_reserved": 0}, {"lon": -77.03840833333334, "bike_id": "c50d51150b7980e3f4045d3c8de22645", "lat": 38.91141866666667, "fusion_lon": 0.0, "fusion_lat": 0.0, "type": "electric_scooter", "name": "c50d51150b7980e3f4045d3c8de22645", "is_disabled": 0, "rental_uris": {"ios": "https://dc.lft.to/lastmile_qr_scan", "android": "https://dc.lft.to/lastmile_qr_scan"}, "is_reserved": 0}, {"lon": -77.02373116666666, "bike_id": "1a164dc83d6d28570bbc1faaa5fc7d13", "lat": 38.92659616666667, "fusion_lon": 0.0, "fusion_lat": 0.0, "type": "electric_scooter", "name": "1a164dc83d6d28570bbc1faaa5fc7d13", "is_disabled": 0, "rental_uris": {"ios": "https://dc.lft.to/lastmile_qr_scan", "android": "https://dc.lft.to/lastmile_qr_scan"}, "is_reserved": 0}, {"lon": -77.0334675, "bike_id": "8fb35f7808b170db2bcab6ce9a55d040", "lat": 38.899529, "fusion_lon": 0.0, "fusion_lat": 0.0, "type": "electric_scooter", "name": "8fb35f7808b170db2bcab6ce9a55d040", "is_disabled": 0, "rental_uris": {"ios": "https://dc.lft.to/lastmile_qr_scan", "android": "https://dc.lft.to/lastmile_qr_scan"}, "is_reserved": 0}, {"lon": -77.011021, "bike_id": "0c3a5d61b2f04698318c71d8ed230163", "lat": 38.903871, "fusion_lon": 0.0, "fusion_lat": 0.0, "type": "electric_scooter", "name": "0c3a5d61b2f04698318c71d8ed230163", "is_disabled": 0, "rental_uris": {"ios": "https://dc.lft.to/lastmile_qr_scan", "android": "https://dc.lft.to/lastmile_qr_scan"}, "is_reserved": 0}, {"lon": -77.027038, "bike_id": "2dde3ad87f38003b8da660cd1186ba3f", "lat": 38.89739733333333, "fusion_lon": 0.0, "fusion_lat": 0.0, "type": "electric_scooter", "name": "2dde3ad87f38003b8da660cd1186ba3f", "is_disabled": 0, "rental_uris": {"ios": "https://dc.lft.to/lastmile_qr_scan", "android": "https://dc.lft.to/lastmile_qr_scan"}, "is_reserved": 0}, {"lon": -77.05508783333333, "bike_id": "5b6c57639ccd230c0644ab166a12fd39", "lat": 38.90442266666667, "fusion_lon": 0.0, "fusion_lat": 0.0, "type": "electric_scooter", "name": "5b6c57639ccd230c0644ab166a12fd39", "is_disabled": 0, "rental_uris": {"ios": "https://dc.lft.to/lastmile_qr_scan", "android": "https://dc.lft.to/lastmile_qr_scan"}, "is_reserved": 0}, {"lon": -77.00380333333334, "bike_id": "92af779fe13e536dcfdb7c15625f7a10", "lat": 38.89933883333333, "fusion_lon": 0.0, "fusion_lat": 0.0, "type": "electric_scooter", "name": "92af779fe13e536dcfdb7c15625f7a10", "is_disabled": 0, "rental_uris": {"ios": "https://dc.lft.to/lastmile_qr_scan", "android": "https://dc.lft.to/lastmile_qr_scan"}, "is_reserved": 0}, {"lon": -77.0433395, "bike_id": "6dafe719c397ba622b9bc0fe0805c5c0", "lat": 38.921941833333335, "fusion_lon": 0.0, "fusion_lat": 0.0, "type": "electric_scooter", "name": "6dafe719c397ba622b9bc0fe0805c5c0", "is_disabled": 0, "rental_uris": {"ios": "https://dc.lft.to/lastmile_qr_scan", "android": "https://dc.lft.to/lastmile_qr_scan"}, "is_reserved": 0}, {"lon": -77.02385666666666, "bike_id": "96e5e3ce50f2996324f75a3d8c410d60", "lat": 38.92075466666667, "fusion_lon": 0.0, "fusion_lat": 0.0, "type": "electric_scooter", "name": "96e5e3ce50f2996324f75a3d8c410d60", "is_disabled": 0, "rental_uris": {"ios": "https://dc.lft.to/lastmile_qr_scan", "android": "https://dc.lft.to/lastmile_qr_scan"}, "is_reserved": 0}, {"lon": -76.99864083333334, "bike_id": "7d033c06cee86f99c7637d6c7fef992f", "lat": 38.902461, "fusion_lon": 0.0, "fusion_lat": 0.0, "type": "electric_scooter", "name": "7d033c06cee86f99c7637d6c7fef992f", "is_disabled": 0, "rental_uris": {"ios": "https://dc.lft.to/lastmile_qr_scan", "android": "https://dc.lft.to/lastmile_qr_scan"}, "is_reserved": 0}, {"lon": -77.032146, "bike_id": "b8ba4af0e9a914355c2f7c4ac96bd347", "lat": 38.91713016666667, "fusion_lon": 0.0, "fusion_lat": 0.0, "type": "electric_scooter", "name": "b8ba4af0e9a914355c2f7c4ac96bd347", "is_disabled": 0, "rental_uris": {"ios": "https://dc.lft.to/lastmile_qr_scan", "android": "https://dc.lft.to/lastmile_qr_scan"}, "is_reserved": 0}, {"lon": -77.02848866666666, "bike_id": "fd3f4e0594a9da22e1cc8b1f38c134f2", "lat": 38.89754, "fusion_lon": 0.0, "fusion_lat": 0.0, "type": "electric_bike", "name": "fd3f4e0594a9da22e1cc8b1f38c134f2", "is_disabled": 0, "rental_uris": {"ios": "https://dc.lft.to/lastmile_qr_scan", "android": "https://dc.lft.to/lastmile_qr_scan"}, "is_reserved": 0}, {"lon": -77.06629333333333, "bike_id": "1ac82235026d16cb704a26865341dd36", "lat": 38.905997166666666, "fusion_lon": 0.0, "fusion_lat": 0.0, "type": "electric_scooter", "name": "1ac82235026d16cb704a26865341dd36", "is_disabled": 0, "rental_uris": {"ios": "https://dc.lft.to/lastmile_qr_scan", "android": "https://dc.lft.to/lastmile_qr_scan"}, "is_reserved": 0}, {"lon": -77.066526, "bike_id": "4a8ea504ae0ea241e01ff644e8ebe5b1", "lat": 38.9052175, "fusion_lon": 0.0, "fusion_lat": 0.0, "type": "electric_scooter", "name": "4a8ea504ae0ea241e01ff644e8ebe5b1", "is_disabled": 0, "rental_uris": {"ios": "https://dc.lft.to/lastmile_qr_scan", "android": "https://dc.lft.to/lastmile_qr_scan"}, "is_reserved": 0}, {"lon": -76.98847816666667, "bike_id": "f2eef20f8984136bcd5451fecfa167b3", "lat": 38.90130816666667, "fusion_lon": 0.0, "fusion_lat": 0.0, "type": "electric_scooter", "name": "f2eef20f8984136bcd5451fecfa167b3", "is_disabled": 0, "rental_uris": {"ios": "https://dc.lft.to/lastmile_qr_scan", "android": "https://dc.lft.to/lastmile_qr_scan"}, "is_reserved": 0}, {"lon": -76.9811585, "bike_id": "4b751cefda30ab439b5f00c7da4866dc", "lat": 38.90409983333333, "fusion_lon": 0.0, "fusion_lat": 0.0, "type": "electric_scooter", "name": "4b751cefda30ab439b5f00c7da4866dc", "is_disabled": 0, "rental_uris": {"ios": "https://dc.lft.to/lastmile_qr_scan", "android": "https://dc.lft.to/lastmile_qr_scan"}, "is_reserved": 0}, {"lon": -77.04491883333333, "bike_id": "5510e921c607b0819e29c44ed0abcba4", "lat": 38.901052, "fusion_lon": 0.0, "fusion_lat": 0.0, "type": "electric_scooter", "name": "5510e921c607b0819e29c44ed0abcba4", "is_disabled": 0, "rental_uris": {"ios": "https://dc.lft.to/lastmile_qr_scan", "android": "https://dc.lft.to/lastmile_qr_scan"}, "is_reserved": 0}, {"lon": -77.05126566666667, "bike_id": "c9a2a08fc698061b299c7485310af7be", "lat": 38.92365383333333, "fusion_lon": 0.0, "fusion_lat": 0.0, "type": "electric_scooter", "name": "c9a2a08fc698061b299c7485310af7be", "is_disabled": 0, "rental_uris": {"ios": "https://dc.lft.to/lastmile_qr_scan", "android": "https://dc.lft.to/lastmile_qr_scan"}, "is_reserved": 0}, {"lon": -77.02142066666667, "bike_id": "1a20dbf9add03d3a4ed754cd63d1f8dd", "lat": 38.8970355, "fusion_lon": 0.0, "fusion_lat": 0.0, "type": "electric_scooter", "name": "1a20dbf9add03d3a4ed754cd63d1f8dd", "is_disabled": 0, "rental_uris": {"ios": "https://dc.lft.to/lastmile_qr_scan", "android": "https://dc.lft.to/lastmile_qr_scan"}, "is_reserved": 0}, {"lon": -77.00951566666667, "bike_id": "e3b03093d1b1bcd3f99b0f8bda4891c4", "lat": 38.87634583333333, "fusion_lon": 0.0, "fusion_lat": 0.0, "type": "electric_scooter", "name": "e3b03093d1b1bcd3f99b0f8bda4891c4", "is_disabled": 0, "rental_uris": {"ios": "https://dc.lft.to/lastmile_qr_scan", "android": "https://dc.lft.to/lastmile_qr_scan"}, "is_reserved": 0}, {"lon": -76.98006083333334, "bike_id": "f67555f8b614eb5b60d443e65a1810b5", "lat": 38.9044085, "fusion_lon": 0.0, "fusion_lat": 0.0, "type": "electric_scooter", "name": "f67555f8b614eb5b60d443e65a1810b5", "is_disabled": 0, "rental_uris": {"ios": "https://dc.lft.to/lastmile_qr_scan", "android": "https://dc.lft.to/lastmile_qr_scan"}, "is_reserved": 0}, {"lon": -76.97492716666666, "bike_id": "e2975b67c0fa7c8b091b080944f2eb2c", "lat": 38.91926766666667, "fusion_lon": 0.0, "fusion_lat": 0.0, "type": "electric_scooter", "name": "e2975b67c0fa7c8b091b080944f2eb2c", "is_disabled": 0, "rental_uris": {"ios": "https://dc.lft.to/lastmile_qr_scan", "android": "https://dc.lft.to/lastmile_qr_scan"}, "is_reserved": 0}, {"lon": -76.94398233333334, "bike_id": "74ad02540c9dd3f7808b6f009dc2f735", "lat": 38.881407833333334, "fusion_lon": 0.0, "fusion_lat": 0.0, "type": "electric_scooter", "name": "74ad02540c9dd3f7808b6f009dc2f735", "is_disabled": 0, "rental_uris": {"ios": "https://dc.lft.to/lastmile_qr_scan", "android": "https://dc.lft.to/lastmile_qr_scan"}, "is_reserved": 0}, {"lon": -76.99355016666667, "bike_id": "25bfd5d35f3958582365530ba81e7f3a", "lat": 38.8450925, "fusion_lon": 0.0, "fusion_lat": 0.0, "type": "electric_bike", "name": "25bfd5d35f3958582365530ba81e7f3a", "is_disabled": 0, "rental_uris": {"ios": "https://dc.lft.to/lastmile_qr_scan", "android": "https://dc.lft.to/lastmile_qr_scan"}, "is_reserved": 0}, {"lon": -77.04579066666666, "bike_id": "fb363083802ac6893afbdd7b40e43592", "lat": 38.92123683333333, "fusion_lon": 0.0, "fusion_lat": 0.0, "type": "electric_scooter", "name": "fb363083802ac6893afbdd7b40e43592", "is_disabled": 0, "rental_uris": {"ios": "https://dc.lft.to/lastmile_qr_scan", "android": "https://dc.lft.to/lastmile_qr_scan"}, "is_reserved": 0}, {"lon": -77.03280833333334, "bike_id": "42876a3fd77fca0c011b44db2dd4f845", "lat": 38.92342433333334, "fusion_lon": 0.0, "fusion_lat": 0.0, "type": "electric_scooter", "name": "42876a3fd77fca0c011b44db2dd4f845", "is_disabled": 0, "rental_uris": {"ios": "https://dc.lft.to/lastmile_qr_scan", "android": "https://dc.lft.to/lastmile_qr_scan"}, "is_reserved": 0}, {"lon": -77.0629325, "bike_id": "452af615cbc27e9f06569dd662a1abad", "lat": 38.903974833333336, "fusion_lon": 0.0, "fusion_lat": 0.0, "type": "electric_scooter", "name": "452af615cbc27e9f06569dd662a1abad", "is_disabled": 0, "rental_uris": {"ios": "https://dc.lft.to/lastmile_qr_scan", "android": "https://dc.lft.to/lastmile_qr_scan"}, "is_reserved": 0}, {"lon": -77.03443183333333, "bike_id": "6c9c7b8eac3b75f8a59454fc07af5cce", "lat": 38.91808966666667, "fusion_lon": 0.0, "fusion_lat": 0.0, "type": "electric_scooter", "name": "6c9c7b8eac3b75f8a59454fc07af5cce", "is_disabled": 0, "rental_uris": {"ios": "https://dc.lft.to/lastmile_qr_scan", "android": "https://dc.lft.to/lastmile_qr_scan"}, "is_reserved": 0}, {"lon": -77.021817, "bike_id": "fe0d9bbf863ef03fe28b80ecd4c06a3e", "lat": 38.900071833333335, "fusion_lon": 0.0, "fusion_lat": 0.0, "type": "electric_scooter", "name": "fe0d9bbf863ef03fe28b80ecd4c06a3e", "is_disabled": 0, "rental_uris": {"ios": "https://dc.lft.to/lastmile_qr_scan", "android": "https://dc.lft.to/lastmile_qr_scan"}, "is_reserved": 0}, {"lon": -77.02280216666666, "bike_id": "1801dac2c2c49cc04b482a3e71029b54", "lat": 38.927471833333335, "fusion_lon": 0.0, "fusion_lat": 0.0, "type": "electric_scooter", "name": "1801dac2c2c49cc04b482a3e71029b54", "is_disabled": 0, "rental_uris": {"ios": "https://dc.lft.to/lastmile_qr_scan", "android": "https://dc.lft.to/lastmile_qr_scan"}, "is_reserved": 0}, {"lon": -77.0240625, "bike_id": "f3cc801854b54c3afd7c6c564d59848c", "lat": 38.899911833333334, "fusion_lon": 0.0, "fusion_lat": 0.0, "type": "electric_scooter", "name": "f3cc801854b54c3afd7c6c564d59848c", "is_disabled": 0, "rental_uris": {"ios": "https://dc.lft.to/lastmile_qr_scan", "android": "https://dc.lft.to/lastmile_qr_scan"}, "is_reserved": 0}, {"lon": -77.03645533333334, "bike_id": "143408ee86832cdb66d4912c9570351d", "lat": 38.91870216666667, "fusion_lon": 0.0, "fusion_lat": 0.0, "type": "electric_scooter", "name": "143408ee86832cdb66d4912c9570351d", "is_disabled": 0, "rental_uris": {"ios": "https://dc.lft.to/lastmile_qr_scan", "android": "https://dc.lft.to/lastmile_qr_scan"}, "is_reserved": 0}, {"lon": -77.03763983333333, "bike_id": "598eabc8922ae29e9cab2054bdcc1e25", "lat": 38.91894283333333, "fusion_lon": 0.0, "fusion_lat": 0.0, "type": "electric_scooter", "name": "598eabc8922ae29e9cab2054bdcc1e25", "is_disabled": 0, "rental_uris": {"ios": "https://dc.lft.to/lastmile_qr_scan", "android": "https://dc.lft.to/lastmile_qr_scan"}, "is_reserved": 0}, {"lon": -76.94194766666666, "bike_id": "d8e65cf88ee703f7df0e706fe8b6d78c", "lat": 38.893080833333336, "fusion_lon": 0.0, "fusion_lat": 0.0, "type": "electric_bike", "name": "d8e65cf88ee703f7df0e706fe8b6d78c", "is_disabled": 0, "rental_uris": {"ios": "https://dc.lft.to/lastmile_qr_scan", "android": "https://dc.lft.to/lastmile_qr_scan"}, "is_reserved": 0}, {"lon": -77.01511966666666, "bike_id": "76d8b289da2f1246b0c17ded155c21b7", "lat": 38.8996835, "fusion_lon": 0.0, "fusion_lat": 0.0, "type": "electric_scooter", "name": "76d8b289da2f1246b0c17ded155c21b7", "is_disabled": 0, "rental_uris": {"ios": "https://dc.lft.to/lastmile_qr_scan", "android": "https://dc.lft.to/lastmile_qr_scan"}, "is_reserved": 0}, {"lon": -76.99447116666667, "bike_id": "c91859f46d37c699a12bd0ee21667ee8", "lat": 38.90032766666667, "fusion_lon": 0.0, "fusion_lat": 0.0, "type": "electric_scooter", "name": "c91859f46d37c699a12bd0ee21667ee8", "is_disabled": 0, "rental_uris": {"ios": "https://dc.lft.to/lastmile_qr_scan", "android": "https://dc.lft.to/lastmile_qr_scan"}, "is_reserved": 0}, {"lon": -77.0465625, "bike_id": "3083e4f1a8de50f44da9cdb7b658ffa8", "lat": 38.90043283333333, "fusion_lon": 0.0, "fusion_lat": 0.0, "type": "electric_scooter", "name": "3083e4f1a8de50f44da9cdb7b658ffa8", "is_disabled": 0, "rental_uris": {"ios": "https://dc.lft.to/lastmile_qr_scan", "android": "https://dc.lft.to/lastmile_qr_scan"}, "is_reserved": 0}, {"lon": -77.025533, "bike_id": "73ba24a2c5eccb90de8eb9b67c2513bb", "lat": 38.94148083333333, "fusion_lon": 0.0, "fusion_lat": 0.0, "type": "electric_scooter", "name": "73ba24a2c5eccb90de8eb9b67c2513bb", "is_disabled": 0, "rental_uris": {"ios": "https://dc.lft.to/lastmile_qr_scan", "android": "https://dc.lft.to/lastmile_qr_scan"}, "is_reserved": 0}, {"lon": -77.0781855, "bike_id": "a8b0282a786cceb2d79dbf775fb62399", "lat": 38.9431945, "fusion_lon": 0.0, "fusion_lat": 0.0, "type": "electric_scooter", "name": "a8b0282a786cceb2d79dbf775fb62399", "is_disabled": 0, "rental_uris": {"ios": "https://dc.lft.to/lastmile_qr_scan", "android": "https://dc.lft.to/lastmile_qr_scan"}, "is_reserved": 0}, {"lon": -77.0349135, "bike_id": "f54c2dc16c3ce85ea12a3a0853e270f1", "lat": 38.932782333333336, "fusion_lon": 0.0, "fusion_lat": 0.0, "type": "electric_scooter", "name": "f54c2dc16c3ce85ea12a3a0853e270f1", "is_disabled": 0, "rental_uris": {"ios": "https://dc.lft.to/lastmile_qr_scan", "android": "https://dc.lft.to/lastmile_qr_scan"}, "is_reserved": 0}, {"lon": -76.982368, "bike_id": "4c0033b64cb8d1aaca519b814d9090bc", "lat": 38.9167725, "fusion_lon": 0.0, "fusion_lat": 0.0, "type": "electric_scooter", "name": "4c0033b64cb8d1aaca519b814d9090bc", "is_disabled": 0, "rental_uris": {"ios": "https://dc.lft.to/lastmile_qr_scan", "android": "https://dc.lft.to/lastmile_qr_scan"}, "is_reserved": 0}, {"lon": -77.05600616666666, "bike_id": "303b22c0721ab7fcdaf6dc381c8062c8", "lat": 38.937028833333336, "fusion_lon": 0.0, "fusion_lat": 0.0, "type": "electric_scooter", "name": "303b22c0721ab7fcdaf6dc381c8062c8", "is_disabled": 0, "rental_uris": {"ios": "https://dc.lft.to/lastmile_qr_scan", "android": "https://dc.lft.to/lastmile_qr_scan"}, "is_reserved": 0}, {"lon": -76.97741183333333, "bike_id": "3713865c46d56146eb34b64320edc6fb", "lat": 38.886864, "fusion_lon": 0.0, "fusion_lat": 0.0, "type": "electric_bike", "name": "3713865c46d56146eb34b64320edc6fb", "is_disabled": 0, "rental_uris": {"ios": "https://dc.lft.to/lastmile_qr_scan", "android": "https://dc.lft.to/lastmile_qr_scan"}, "is_reserved": 0}, {"lon": -77.03269833333333, "bike_id": "0d45af3f4eee5245964ee884ccb55c12", "lat": 38.905664333333334, "fusion_lon": 0.0, "fusion_lat": 0.0, "type": "electric_scooter", "name": "0d45af3f4eee5245964ee884ccb55c12", "is_disabled": 0, "rental_uris": {"ios": "https://dc.lft.to/lastmile_qr_scan", "android": "https://dc.lft.to/lastmile_qr_scan"}, "is_reserved": 0}, {"lon": -76.95201716666666, "bike_id": "99ecad293c889778fe4cb7cb547028b9", "lat": 38.900191, "fusion_lon": 0.0, "fusion_lat": 0.0, "type": "electric_scooter", "name": "99ecad293c889778fe4cb7cb547028b9", "is_disabled": 0, "rental_uris": {"ios": "https://dc.lft.to/lastmile_qr_scan", "android": "https://dc.lft.to/lastmile_qr_scan"}, "is_reserved": 0}, {"lon": -77.04445766666667, "bike_id": "3527a5213b8e6f1f3562eb47d66caaf1", "lat": 38.91943066666666, "fusion_lon": 0.0, "fusion_lat": 0.0, "type": "electric_scooter", "name": "3527a5213b8e6f1f3562eb47d66caaf1", "is_disabled": 0, "rental_uris": {"ios": "https://dc.lft.to/lastmile_qr_scan", "android": "https://dc.lft.to/lastmile_qr_scan"}, "is_reserved": 0}, {"lon": -77.02196916666666, "bike_id": "ba0ea4a22334f12ddd51baba2dd0948c", "lat": 38.911377, "fusion_lon": 0.0, "fusion_lat": 0.0, "type": "electric_scooter", "name": "ba0ea4a22334f12ddd51baba2dd0948c", "is_disabled": 0, "rental_uris": {"ios": "https://dc.lft.to/lastmile_qr_scan", "android": "https://dc.lft.to/lastmile_qr_scan"}, "is_reserved": 0}, {"lon": -77.03475083333333, "bike_id": "f680f1725d5e1e8147f1a4ec1f483e8f", "lat": 38.9289095, "fusion_lon": 0.0, "fusion_lat": 0.0, "type": "electric_scooter", "name": "f680f1725d5e1e8147f1a4ec1f483e8f", "is_disabled": 0, "rental_uris": {"ios": "https://dc.lft.to/lastmile_qr_scan", "android": "https://dc.lft.to/lastmile_qr_scan"}, "is_reserved": 0}, {"lon": -77.03856633333334, "bike_id": "7f2b116950949eb5c5f7e2806a4cc431", "lat": 38.9313265, "fusion_lon": 0.0, "fusion_lat": 0.0, "type": "electric_scooter", "name": "7f2b116950949eb5c5f7e2806a4cc431", "is_disabled": 0, "rental_uris": {"ios": "https://dc.lft.to/lastmile_qr_scan", "android": "https://dc.lft.to/lastmile_qr_scan"}, "is_reserved": 0}, {"lon": -76.98813783333334, "bike_id": "10b15d68ea21ae1f05cbc724828e2426", "lat": 38.8583425, "fusion_lon": 0.0, "fusion_lat": 0.0, "type": "electric_scooter", "name": "10b15d68ea21ae1f05cbc724828e2426", "is_disabled": 0, "rental_uris": {"ios": "https://dc.lft.to/lastmile_qr_scan", "android": "https://dc.lft.to/lastmile_qr_scan"}, "is_reserved": 0}, {"lon": -77.012087, "bike_id": "5e0013a045dd43a61fa3d5e8916c6c1c", "lat": 38.91248933333333, "fusion_lon": 0.0, "fusion_lat": 0.0, "type": "electric_scooter", "name": "5e0013a045dd43a61fa3d5e8916c6c1c", "is_disabled": 0, "rental_uris": {"ios": "https://dc.lft.to/lastmile_qr_scan", "android": "https://dc.lft.to/lastmile_qr_scan"}, "is_reserved": 0}, {"lon": -76.93174583333334, "bike_id": "7dc57a71754e0508398e362ed701c35b", "lat": 38.898845666666666, "fusion_lon": 0.0, "fusion_lat": 0.0, "type": "electric_scooter", "name": "7dc57a71754e0508398e362ed701c35b", "is_disabled": 0, "rental_uris": {"ios": "https://dc.lft.to/lastmile_qr_scan", "android": "https://dc.lft.to/lastmile_qr_scan"}, "is_reserved": 0}, {"lon": -77.0218895, "bike_id": "6df3e4919292cb5aab351b22c569c24e", "lat": 38.91485616666667, "fusion_lon": 0.0, "fusion_lat": 0.0, "type": "electric_scooter", "name": "6df3e4919292cb5aab351b22c569c24e", "is_disabled": 0, "rental_uris": {"ios": "https://dc.lft.to/lastmile_qr_scan", "android": "https://dc.lft.to/lastmile_qr_scan"}, "is_reserved": 0}, {"lon": -76.94956166666667, "bike_id": "082f5159b8a2f5fc288de91ae5608fe1", "lat": 38.89445, "fusion_lon": 0.0, "fusion_lat": 0.0, "type": "electric_scooter", "name": "082f5159b8a2f5fc288de91ae5608fe1", "is_disabled": 0, "rental_uris": {"ios": "https://dc.lft.to/lastmile_qr_scan", "android": "https://dc.lft.to/lastmile_qr_scan"}, "is_reserved": 0}, {"lon": -77.03377766666667, "bike_id": "f90d8212c463993fed2564d65772a634", "lat": 38.909569, "fusion_lon": 0.0, "fusion_lat": 0.0, "type": "electric_scooter", "name": "f90d8212c463993fed2564d65772a634", "is_disabled": 0, "rental_uris": {"ios": "https://dc.lft.to/lastmile_qr_scan", "android": "https://dc.lft.to/lastmile_qr_scan"}, "is_reserved": 0}, {"lon": -77.02450016666667, "bike_id": "bdb7b9df13cf8ced97e73c60a081eb2d", "lat": 38.9184785, "fusion_lon": 0.0, "fusion_lat": 0.0, "type": "electric_scooter", "name": "bdb7b9df13cf8ced97e73c60a081eb2d", "is_disabled": 0, "rental_uris": {"ios": "https://dc.lft.to/lastmile_qr_scan", "android": "https://dc.lft.to/lastmile_qr_scan"}, "is_reserved": 0}, {"lon": -76.99567133333333, "bike_id": "8becfbf86d0d4cdf00458ae02839f81a", "lat": 38.85179883333333, "fusion_lon": 0.0, "fusion_lat": 0.0, "type": "electric_bike", "name": "8becfbf86d0d4cdf00458ae02839f81a", "is_disabled": 0, "rental_uris": {"ios": "https://dc.lft.to/lastmile_qr_scan", "android": "https://dc.lft.to/lastmile_qr_scan"}, "is_reserved": 0}, {"lon": -76.99607516666667, "bike_id": "0bc1042134b91189bfeef928a661e088", "lat": 38.883180833333334, "fusion_lon": 0.0, "fusion_lat": 0.0, "type": "electric_scooter", "name": "0bc1042134b91189bfeef928a661e088", "is_disabled": 0, "rental_uris": {"ios": "https://dc.lft.to/lastmile_qr_scan", "android": "https://dc.lft.to/lastmile_qr_scan"}, "is_reserved": 0}, {"lon": -76.9336405, "bike_id": "58fbf99766c950d62f93ad0d06038547", "lat": 38.89917716666667, "fusion_lon": 0.0, "fusion_lat": 0.0, "type": "electric_scooter", "name": "58fbf99766c950d62f93ad0d06038547", "is_disabled": 0, "rental_uris": {"ios": "https://dc.lft.to/lastmile_qr_scan", "android": "https://dc.lft.to/lastmile_qr_scan"}, "is_reserved": 0}, {"lon": -77.029726, "bike_id": "03a7f2272a32e0b1bf3a9d426d3432ee", "lat": 38.91247533333333, "fusion_lon": 0.0, "fusion_lat": 0.0, "type": "electric_scooter", "name": "03a7f2272a32e0b1bf3a9d426d3432ee", "is_disabled": 0, "rental_uris": {"ios": "https://dc.lft.to/lastmile_qr_scan", "android": "https://dc.lft.to/lastmile_qr_scan"}, "is_reserved": 0}, {"lon": -76.9987075, "bike_id": "7942b6b0443c5b1249277a3f70527feb", "lat": 38.9075615, "fusion_lon": 0.0, "fusion_lat": 0.0, "type": "electric_scooter", "name": "7942b6b0443c5b1249277a3f70527feb", "is_disabled": 0, "rental_uris": {"ios": "https://dc.lft.to/lastmile_qr_scan", "android": "https://dc.lft.to/lastmile_qr_scan"}, "is_reserved": 0}, {"lon": -76.96091833333334, "bike_id": "872d9d4a920363c9a0ba6e997c123b21", "lat": 38.918687166666665, "fusion_lon": 0.0, "fusion_lat": 0.0, "type": "electric_bike", "name": "872d9d4a920363c9a0ba6e997c123b21", "is_disabled": 0, "rental_uris": {"ios": "https://dc.lft.to/lastmile_qr_scan", "android": "https://dc.lft.to/lastmile_qr_scan"}, "is_reserved": 0}, {"lon": -77.04359116666667, "bike_id": "fc4a9f63033437b95327386dade96569", "lat": 38.9216385, "fusion_lon": 0.0, "fusion_lat": 0.0, "type": "electric_scooter", "name": "fc4a9f63033437b95327386dade96569", "is_disabled": 0, "rental_uris": {"ios": "https://dc.lft.to/lastmile_qr_scan", "android": "https://dc.lft.to/lastmile_qr_scan"}, "is_reserved": 0}, {"lon": -77.04326883333333, "bike_id": "819bdfd490017f79b61f877865397796", "lat": 38.928241166666666, "fusion_lon": 0.0, "fusion_lat": 0.0, "type": "electric_scooter", "name": "819bdfd490017f79b61f877865397796", "is_disabled": 0, "rental_uris": {"ios": "https://dc.lft.to/lastmile_qr_scan", "android": "https://dc.lft.to/lastmile_qr_scan"}, "is_reserved": 0}, {"lon": -77.006757, "bike_id": "65dc1e807236c80bbba899fb3571b025", "lat": 38.90017183333333, "fusion_lon": 0.0, "fusion_lat": 0.0, "type": "electric_scooter", "name": "65dc1e807236c80bbba899fb3571b025", "is_disabled": 0, "rental_uris": {"ios": "https://dc.lft.to/lastmile_qr_scan", "android": "https://dc.lft.to/lastmile_qr_scan"}, "is_reserved": 0}, {"lon": -77.05443066666666, "bike_id": "beaca091e7aa0cd0e8dfbd6ae02f40e0", "lat": 38.855255666666665, "fusion_lon": 0.0, "fusion_lat": 0.0, "type": "electric_bike", "name": "beaca091e7aa0cd0e8dfbd6ae02f40e0", "is_disabled": 0, "rental_uris": {"ios": "https://dc.lft.to/lastmile_qr_scan", "android": "https://dc.lft.to/lastmile_qr_scan"}, "is_reserved": 0}, {"lon": -77.028733, "bike_id": "a198e7bb27f6b7d5ae4a7690e43b24b0", "lat": 38.8850375, "fusion_lon": 0.0, "fusion_lat": 0.0, "type": "electric_scooter", "name": "a198e7bb27f6b7d5ae4a7690e43b24b0", "is_disabled": 0, "rental_uris": {"ios": "https://dc.lft.to/lastmile_qr_scan", "android": "https://dc.lft.to/lastmile_qr_scan"}, "is_reserved": 0}, {"lon": -77.1298185, "bike_id": "a4753bf9ec8e4093e5c3ce5906f4381a", "lat": 38.79987233333333, "fusion_lon": 0.0, "fusion_lat": 0.0, "type": "electric_bike", "name": "a4753bf9ec8e4093e5c3ce5906f4381a", "is_disabled": 0, "rental_uris": {"ios": "https://dc.lft.to/lastmile_qr_scan", "android": "https://dc.lft.to/lastmile_qr_scan"}, "is_reserved": 0}, {"lon": -76.976116, "bike_id": "563d0ccad04293daa7e636786dbaff8c", "lat": 38.92656616666667, "fusion_lon": 0.0, "fusion_lat": 0.0, "type": "electric_scooter", "name": "563d0ccad04293daa7e636786dbaff8c", "is_disabled": 0, "rental_uris": {"ios": "https://dc.lft.to/lastmile_qr_scan", "android": "https://dc.lft.to/lastmile_qr_scan"}, "is_reserved": 0}, {"lon": -77.01865316666667, "bike_id": "2241a6ab4d805296abd6b4328f7904a4", "lat": 38.95153616666666, "fusion_lon": 0.0, "fusion_lat": 0.0, "type": "electric_scooter", "name": "2241a6ab4d805296abd6b4328f7904a4", "is_disabled": 0, "rental_uris": {"ios": "https://dc.lft.to/lastmile_qr_scan", "android": "https://dc.lft.to/lastmile_qr_scan"}, "is_reserved": 0}, {"lon": -77.01432533333333, "bike_id": "fcdcde6c350aebc0867c690349397be8", "lat": 38.9722865, "fusion_lon": 0.0, "fusion_lat": 0.0, "type": "electric_bike", "name": "fcdcde6c350aebc0867c690349397be8", "is_disabled": 0, "rental_uris": {"ios": "https://dc.lft.to/lastmile_qr_scan", "android": "https://dc.lft.to/lastmile_qr_scan"}, "is_reserved": 0}, {"lon": -77.03655766666667, "bike_id": "0c19e1cb206f9ba3a9e5ef750ef25458", "lat": 38.903851, "fusion_lon": 0.0, "fusion_lat": 0.0, "type": "electric_scooter", "name": "0c19e1cb206f9ba3a9e5ef750ef25458", "is_disabled": 0, "rental_uris": {"ios": "https://dc.lft.to/lastmile_qr_scan", "android": "https://dc.lft.to/lastmile_qr_scan"}, "is_reserved": 0}, {"lon": -77.03872966666667, "bike_id": "74e0bf6d95e363f7c426410bce905d02", "lat": 38.932499166666666, "fusion_lon": 0.0, "fusion_lat": 0.0, "type": "electric_scooter", "name": "74e0bf6d95e363f7c426410bce905d02", "is_disabled": 0, "rental_uris": {"ios": "https://dc.lft.to/lastmile_qr_scan", "android": "https://dc.lft.to/lastmile_qr_scan"}, "is_reserved": 0}, {"lon": -77.050513, "bike_id": "4615ee238d89498814feaf8b0fc8b844", "lat": 38.9236415, "fusion_lon": 0.0, "fusion_lat": 0.0, "type": "electric_scooter", "name": "4615ee238d89498814feaf8b0fc8b844", "is_disabled": 0, "rental_uris": {"ios": "https://dc.lft.to/lastmile_qr_scan", "android": "https://dc.lft.to/lastmile_qr_scan"}, "is_reserved": 0}, {"lon": -77.03868933333334, "bike_id": "d83ae9958e2e46176e63cf01f24ecb2e", "lat": 38.91560333333334, "fusion_lon": 0.0, "fusion_lat": 0.0, "type": "electric_scooter", "name": "d83ae9958e2e46176e63cf01f24ecb2e", "is_disabled": 0, "rental_uris": {"ios": "https://dc.lft.to/lastmile_qr_scan", "android": "https://dc.lft.to/lastmile_qr_scan"}, "is_reserved": 0}, {"lon": -77.05476966666667, "bike_id": "31cfa9f0c7154d9576498e7cb3a6bfdc", "lat": 38.89791316666667, "fusion_lon": 0.0, "fusion_lat": 0.0, "type": "electric_scooter", "name": "31cfa9f0c7154d9576498e7cb3a6bfdc", "is_disabled": 0, "rental_uris": {"ios": "https://dc.lft.to/lastmile_qr_scan", "android": "https://dc.lft.to/lastmile_qr_scan"}, "is_reserved": 0}, {"lon": -77.033524, "bike_id": "2ab568d831bb9a8a17f61460d8c6c986", "lat": 38.89618266666667, "fusion_lon": 0.0, "fusion_lat": 0.0, "type": "electric_scooter", "name": "2ab568d831bb9a8a17f61460d8c6c986", "is_disabled": 0, "rental_uris": {"ios": "https://dc.lft.to/lastmile_qr_scan", "android": "https://dc.lft.to/lastmile_qr_scan"}, "is_reserved": 0}, {"lon": -77.026119, "bike_id": "9ccf5763781cb89ff225d5fa488cfce1", "lat": 38.9299005, "fusion_lon": 0.0, "fusion_lat": 0.0, "type": "electric_scooter", "name": "9ccf5763781cb89ff225d5fa488cfce1", "is_disabled": 0, "rental_uris": {"ios": "https://dc.lft.to/lastmile_qr_scan", "android": "https://dc.lft.to/lastmile_qr_scan"}, "is_reserved": 0}, {"lon": -77.0243315, "bike_id": "29653a843e601bdc1e7b614d5d066948", "lat": 38.92656566666667, "fusion_lon": 0.0, "fusion_lat": 0.0, "type": "electric_scooter", "name": "29653a843e601bdc1e7b614d5d066948", "is_disabled": 0, "rental_uris": {"ios": "https://dc.lft.to/lastmile_qr_scan", "android": "https://dc.lft.to/lastmile_qr_scan"}, "is_reserved": 0}, {"lon": -77.02796066666667, "bike_id": "7ff5524ea9886d1314ad679c2a6eab4d", "lat": 38.961355833333336, "fusion_lon": 0.0, "fusion_lat": 0.0, "type": "electric_scooter", "name": "7ff5524ea9886d1314ad679c2a6eab4d", "is_disabled": 0, "rental_uris": {"ios": "https://dc.lft.to/lastmile_qr_scan", "android": "https://dc.lft.to/lastmile_qr_scan"}, "is_reserved": 0}, {"lon": -77.0246885, "bike_id": "16ace5eb9824c4a653f941aebe6c15b9", "lat": 38.9202355, "fusion_lon": 0.0, "fusion_lat": 0.0, "type": "electric_scooter", "name": "16ace5eb9824c4a653f941aebe6c15b9", "is_disabled": 0, "rental_uris": {"ios": "https://dc.lft.to/lastmile_qr_scan", "android": "https://dc.lft.to/lastmile_qr_scan"}, "is_reserved": 0}, {"lon": -77.04596733333334, "bike_id": "94c69ae2c126bd67ee75109370500557", "lat": 38.921845833333336, "fusion_lon": 0.0, "fusion_lat": 0.0, "type": "electric_scooter", "name": "94c69ae2c126bd67ee75109370500557", "is_disabled": 0, "rental_uris": {"ios": "https://dc.lft.to/lastmile_qr_scan", "android": "https://dc.lft.to/lastmile_qr_scan"}, "is_reserved": 0}, {"lon": -77.02366016666667, "bike_id": "bcd0033df0f30d6e1cc46adff20999a2", "lat": 38.9031715, "fusion_lon": 0.0, "fusion_lat": 0.0, "type": "electric_scooter", "name": "bcd0033df0f30d6e1cc46adff20999a2", "is_disabled": 0, "rental_uris": {"ios": "https://dc.lft.to/lastmile_qr_scan", "android": "https://dc.lft.to/lastmile_qr_scan"}, "is_reserved": 0}, {"lon": -77.05098916666667, "bike_id": "0dc7ecb812560df455211b7a73c1b10b", "lat": 38.9231105, "fusion_lon": 0.0, "fusion_lat": 0.0, "type": "electric_scooter", "name": "0dc7ecb812560df455211b7a73c1b10b", "is_disabled": 0, "rental_uris": {"ios": "https://dc.lft.to/lastmile_qr_scan", "android": "https://dc.lft.to/lastmile_qr_scan"}, "is_reserved": 0}, {"lon": -77.00650483333334, "bike_id": "53c1c6ad265ec900634a41ffc94a7748", "lat": 38.88085016666667, "fusion_lon": 0.0, "fusion_lat": 0.0, "type": "electric_scooter", "name": "53c1c6ad265ec900634a41ffc94a7748", "is_disabled": 0, "rental_uris": {"ios": "https://dc.lft.to/lastmile_qr_scan", "android": "https://dc.lft.to/lastmile_qr_scan"}, "is_reserved": 0}, {"lon": -77.06111916666667, "bike_id": "bfe570b0b6ff5407b0b54d0c606e596e", "lat": 38.943695166666664, "fusion_lon": 0.0, "fusion_lat": 0.0, "type": "electric_scooter", "name": "bfe570b0b6ff5407b0b54d0c606e596e", "is_disabled": 0, "rental_uris": {"ios": "https://dc.lft.to/lastmile_qr_scan", "android": "https://dc.lft.to/lastmile_qr_scan"}, "is_reserved": 0}, {"lon": -76.9837765, "bike_id": "4ddc544910599e8fa4709beb71656d59", "lat": 38.8914575, "fusion_lon": 0.0, "fusion_lat": 0.0, "type": "electric_scooter", "name": "4ddc544910599e8fa4709beb71656d59", "is_disabled": 0, "rental_uris": {"ios": "https://dc.lft.to/lastmile_qr_scan", "android": "https://dc.lft.to/lastmile_qr_scan"}, "is_reserved": 0}, {"lon": -76.98568866666666, "bike_id": "cbbff3ccfd14769d279052f13b1d4fb3", "lat": 38.8962065, "fusion_lon": 0.0, "fusion_lat": 0.0, "type": "electric_scooter", "name": "cbbff3ccfd14769d279052f13b1d4fb3", "is_disabled": 0, "rental_uris": {"ios": "https://dc.lft.to/lastmile_qr_scan", "android": "https://dc.lft.to/lastmile_qr_scan"}, "is_reserved": 0}, {"lon": -77.031839, "bike_id": "319cb10faddeed63711d0a3593ff3ac2", "lat": 38.93621266666667, "fusion_lon": 0.0, "fusion_lat": 0.0, "type": "electric_scooter", "name": "319cb10faddeed63711d0a3593ff3ac2", "is_disabled": 0, "rental_uris": {"ios": "https://dc.lft.to/lastmile_qr_scan", "android": "https://dc.lft.to/lastmile_qr_scan"}, "is_reserved": 0}, {"lon": -77.0336675, "bike_id": "f8b720ac969c3e258234337c6e3c1e9c", "lat": 38.89334933333333, "fusion_lon": 0.0, "fusion_lat": 0.0, "type": "electric_scooter", "name": "f8b720ac969c3e258234337c6e3c1e9c", "is_disabled": 0, "rental_uris": {"ios": "https://dc.lft.to/lastmile_qr_scan", "android": "https://dc.lft.to/lastmile_qr_scan"}, "is_reserved": 0}, {"lon": -77.02353483333333, "bike_id": "e7fca96824892a375da3a7d01cbda136", "lat": 38.9044035, "fusion_lon": 0.0, "fusion_lat": 0.0, "type": "electric_scooter", "name": "e7fca96824892a375da3a7d01cbda136", "is_disabled": 0, "rental_uris": {"ios": "https://dc.lft.to/lastmile_qr_scan", "android": "https://dc.lft.to/lastmile_qr_scan"}, "is_reserved": 0}, {"lon": -77.038632, "bike_id": "fa06249a92b2a4fb3ae1b014d6e7f56e", "lat": 38.9171135, "fusion_lon": 0.0, "fusion_lat": 0.0, "type": "electric_scooter", "name": "fa06249a92b2a4fb3ae1b014d6e7f56e", "is_disabled": 0, "rental_uris": {"ios": "https://dc.lft.to/lastmile_qr_scan", "android": "https://dc.lft.to/lastmile_qr_scan"}, "is_reserved": 0}, {"lon": -76.98838883333333, "bike_id": "d3ca715ed7f1a7a1b04c64e99eb4302a", "lat": 38.900765166666666, "fusion_lon": 0.0, "fusion_lat": 0.0, "type": "electric_scooter", "name": "d3ca715ed7f1a7a1b04c64e99eb4302a", "is_disabled": 0, "rental_uris": {"ios": "https://dc.lft.to/lastmile_qr_scan", "android": "https://dc.lft.to/lastmile_qr_scan"}, "is_reserved": 0}, {"lon": -77.03392433333333, "bike_id": "3396ec51cf590114dda7090bee0edc9f", "lat": 38.899779333333335, "fusion_lon": 0.0, "fusion_lat": 0.0, "type": "electric_scooter", "name": "3396ec51cf590114dda7090bee0edc9f", "is_disabled": 0, "rental_uris": {"ios": "https://dc.lft.to/lastmile_qr_scan", "android": "https://dc.lft.to/lastmile_qr_scan"}, "is_reserved": 0}, {"lon": -77.02564683333334, "bike_id": "4ade71b005f8070731d363ea7b26dc77", "lat": 38.94183733333333, "fusion_lon": 0.0, "fusion_lat": 0.0, "type": "electric_scooter", "name": "4ade71b005f8070731d363ea7b26dc77", "is_disabled": 0, "rental_uris": {"ios": "https://dc.lft.to/lastmile_qr_scan", "android": "https://dc.lft.to/lastmile_qr_scan"}, "is_reserved": 0}, {"lon": -77.040229, "bike_id": "339d6633d353e9a932e6cf9a56120f5b", "lat": 38.91613983333333, "fusion_lon": 0.0, "fusion_lat": 0.0, "type": "electric_scooter", "name": "339d6633d353e9a932e6cf9a56120f5b", "is_disabled": 0, "rental_uris": {"ios": "https://dc.lft.to/lastmile_qr_scan", "android": "https://dc.lft.to/lastmile_qr_scan"}, "is_reserved": 0}, {"lon": -77.02472116666667, "bike_id": "a7866ce3a561a745d18ee646d3e4afdd", "lat": 38.91699216666667, "fusion_lon": 0.0, "fusion_lat": 0.0, "type": "electric_scooter", "name": "a7866ce3a561a745d18ee646d3e4afdd", "is_disabled": 0, "rental_uris": {"ios": "https://dc.lft.to/lastmile_qr_scan", "android": "https://dc.lft.to/lastmile_qr_scan"}, "is_reserved": 0}, {"lon": -77.03345583333333, "bike_id": "71e9a3785326162a72c26d5fab448c78", "lat": 38.91700016666667, "fusion_lon": 0.0, "fusion_lat": 0.0, "type": "electric_scooter", "name": "71e9a3785326162a72c26d5fab448c78", "is_disabled": 0, "rental_uris": {"ios": "https://dc.lft.to/lastmile_qr_scan", "android": "https://dc.lft.to/lastmile_qr_scan"}, "is_reserved": 0}, {"lon": -77.03775516666667, "bike_id": "fbe83263ff2550a897c53c97b47d4bd3", "lat": 38.929634, "fusion_lon": 0.0, "fusion_lat": 0.0, "type": "electric_scooter", "name": "fbe83263ff2550a897c53c97b47d4bd3", "is_disabled": 0, "rental_uris": {"ios": "https://dc.lft.to/lastmile_qr_scan", "android": "https://dc.lft.to/lastmile_qr_scan"}, "is_reserved": 0}, {"lon": -77.02190966666667, "bike_id": "da7ca887fbc9257bc34d8e35c030f486", "lat": 38.9112705, "fusion_lon": 0.0, "fusion_lat": 0.0, "type": "electric_scooter", "name": "da7ca887fbc9257bc34d8e35c030f486", "is_disabled": 0, "rental_uris": {"ios": "https://dc.lft.to/lastmile_qr_scan", "android": "https://dc.lft.to/lastmile_qr_scan"}, "is_reserved": 0}, {"lon": -77.02441283333333, "bike_id": "ae05186931281ade66d1f56cd55d9a36", "lat": 38.92044583333333, "fusion_lon": 0.0, "fusion_lat": 0.0, "type": "electric_scooter", "name": "ae05186931281ade66d1f56cd55d9a36", "is_disabled": 0, "rental_uris": {"ios": "https://dc.lft.to/lastmile_qr_scan", "android": "https://dc.lft.to/lastmile_qr_scan"}, "is_reserved": 0}, {"lon": -77.02142583333334, "bike_id": "1e22a5f972491792db2c5231837c61df", "lat": 38.894027, "fusion_lon": 0.0, "fusion_lat": 0.0, "type": "electric_scooter", "name": "1e22a5f972491792db2c5231837c61df", "is_disabled": 0, "rental_uris": {"ios": "https://dc.lft.to/lastmile_qr_scan", "android": "https://dc.lft.to/lastmile_qr_scan"}, "is_reserved": 0}, {"lon": -76.9893985, "bike_id": "e83bfc7f3a16f1dd0d47c41b91c755ae", "lat": 38.918364, "fusion_lon": 0.0, "fusion_lat": 0.0, "type": "electric_scooter", "name": "e83bfc7f3a16f1dd0d47c41b91c755ae", "is_disabled": 0, "rental_uris": {"ios": "https://dc.lft.to/lastmile_qr_scan", "android": "https://dc.lft.to/lastmile_qr_scan"}, "is_reserved": 0}, {"lon": -77.02408066666666, "bike_id": "4c4ae430eacf7949bf6fc42f23dc2463", "lat": 38.9208345, "fusion_lon": 0.0, "fusion_lat": 0.0, "type": "electric_scooter", "name": "4c4ae430eacf7949bf6fc42f23dc2463", "is_disabled": 0, "rental_uris": {"ios": "https://dc.lft.to/lastmile_qr_scan", "android": "https://dc.lft.to/lastmile_qr_scan"}, "is_reserved": 0}, {"lon": -77.02578266666667, "bike_id": "68605512ddd317d1821be2511fc53a96", "lat": 38.9005775, "fusion_lon": 0.0, "fusion_lat": 0.0, "type": "electric_scooter", "name": "68605512ddd317d1821be2511fc53a96", "is_disabled": 0, "rental_uris": {"ios": "https://dc.lft.to/lastmile_qr_scan", "android": "https://dc.lft.to/lastmile_qr_scan"}, "is_reserved": 0}, {"lon": -77.04345433333333, "bike_id": "feb6fb43ee8c9fd4db1cabebe4a31dd9", "lat": 38.907860666666664, "fusion_lon": 0.0, "fusion_lat": 0.0, "type": "electric_scooter", "name": "feb6fb43ee8c9fd4db1cabebe4a31dd9", "is_disabled": 0, "rental_uris": {"ios": "https://dc.lft.to/lastmile_qr_scan", "android": "https://dc.lft.to/lastmile_qr_scan"}, "is_reserved": 0}, {"lon": -77.051352, "bike_id": "122ce280d2f1a738c3cda8cf124775c6", "lat": 38.8986345, "fusion_lon": 0.0, "fusion_lat": 0.0, "type": "electric_scooter", "name": "122ce280d2f1a738c3cda8cf124775c6", "is_disabled": 0, "rental_uris": {"ios": "https://dc.lft.to/lastmile_qr_scan", "android": "https://dc.lft.to/lastmile_qr_scan"}, "is_reserved": 0}, {"lon": -77.04352416666667, "bike_id": "508e32f92d77774506b6cad615b8ba03", "lat": 38.91047533333333, "fusion_lon": 0.0, "fusion_lat": 0.0, "type": "electric_scooter", "name": "508e32f92d77774506b6cad615b8ba03", "is_disabled": 0, "rental_uris": {"ios": "https://dc.lft.to/lastmile_qr_scan", "android": "https://dc.lft.to/lastmile_qr_scan"}, "is_reserved": 0}, {"lon": -77.003293, "bike_id": "8d0aec05cf846e74f2fc55f1ab8de1f3", "lat": 38.897328, "fusion_lon": 0.0, "fusion_lat": 0.0, "type": "electric_scooter", "name": "8d0aec05cf846e74f2fc55f1ab8de1f3", "is_disabled": 0, "rental_uris": {"ios": "https://dc.lft.to/lastmile_qr_scan", "android": "https://dc.lft.to/lastmile_qr_scan"}, "is_reserved": 0}, {"lon": -76.98083433333333, "bike_id": "f25cef994ea5e16e47bcdc0ff02a6886", "lat": 38.907089666666664, "fusion_lon": 0.0, "fusion_lat": 0.0, "type": "electric_scooter", "name": "f25cef994ea5e16e47bcdc0ff02a6886", "is_disabled": 0, "rental_uris": {"ios": "https://dc.lft.to/lastmile_qr_scan", "android": "https://dc.lft.to/lastmile_qr_scan"}, "is_reserved": 0}, {"lon": -77.04338483333333, "bike_id": "9a15b77d8af82853c3a72dbf50ed323c", "lat": 38.910535833333334, "fusion_lon": 0.0, "fusion_lat": 0.0, "type": "electric_scooter", "name": "9a15b77d8af82853c3a72dbf50ed323c", "is_disabled": 0, "rental_uris": {"ios": "https://dc.lft.to/lastmile_qr_scan", "android": "https://dc.lft.to/lastmile_qr_scan"}, "is_reserved": 0}, {"lon": -77.06720716666666, "bike_id": "e0ce9c0a277ab88a1fccb736c9525a8d", "lat": 38.91501066666667, "fusion_lon": 0.0, "fusion_lat": 0.0, "type": "electric_scooter", "name": "e0ce9c0a277ab88a1fccb736c9525a8d", "is_disabled": 0, "rental_uris": {"ios": "https://dc.lft.to/lastmile_qr_scan", "android": "https://dc.lft.to/lastmile_qr_scan"}, "is_reserved": 0}, {"lon": -77.033193, "bike_id": "349ddfea783bbd120c66b447d8952ac8", "lat": 38.915667666666664, "fusion_lon": 0.0, "fusion_lat": 0.0, "type": "electric_scooter", "name": "349ddfea783bbd120c66b447d8952ac8", "is_disabled": 0, "rental_uris": {"ios": "https://dc.lft.to/lastmile_qr_scan", "android": "https://dc.lft.to/lastmile_qr_scan"}, "is_reserved": 0}, {"lon": -76.98754933333333, "bike_id": "3649619386d34c323e74badd1ef6a5d8", "lat": 38.857650666666665, "fusion_lon": 0.0, "fusion_lat": 0.0, "type": "electric_bike", "name": "3649619386d34c323e74badd1ef6a5d8", "is_disabled": 0, "rental_uris": {"ios": "https://dc.lft.to/lastmile_qr_scan", "android": "https://dc.lft.to/lastmile_qr_scan"}, "is_reserved": 0}, {"lon": -77.0328595, "bike_id": "4221eae419af0a46796a10466152e735", "lat": 38.941809, "fusion_lon": 0.0, "fusion_lat": 0.0, "type": "electric_scooter", "name": "4221eae419af0a46796a10466152e735", "is_disabled": 0, "rental_uris": {"ios": "https://dc.lft.to/lastmile_qr_scan", "android": "https://dc.lft.to/lastmile_qr_scan"}, "is_reserved": 0}, {"lon": -77.04911933333334, "bike_id": "af045cdae47fac6aa3b77a22089af92b", "lat": 38.90543016666667, "fusion_lon": 0.0, "fusion_lat": 0.0, "type": "electric_scooter", "name": "af045cdae47fac6aa3b77a22089af92b", "is_disabled": 0, "rental_uris": {"ios": "https://dc.lft.to/lastmile_qr_scan", "android": "https://dc.lft.to/lastmile_qr_scan"}, "is_reserved": 0}, {"lon": -77.0275545, "bike_id": "8c4035c1ab8d5bf58c109e5cc2938668", "lat": 38.954358666666664, "fusion_lon": 0.0, "fusion_lat": 0.0, "type": "electric_scooter", "name": "8c4035c1ab8d5bf58c109e5cc2938668", "is_disabled": 0, "rental_uris": {"ios": "https://dc.lft.to/lastmile_qr_scan", "android": "https://dc.lft.to/lastmile_qr_scan"}, "is_reserved": 0}, {"lon": -77.032551, "bike_id": "5937ac035e4bc912a1edeb0ef41ae297", "lat": 38.937306166666666, "fusion_lon": 0.0, "fusion_lat": 0.0, "type": "electric_scooter", "name": "5937ac035e4bc912a1edeb0ef41ae297", "is_disabled": 0, "rental_uris": {"ios": "https://dc.lft.to/lastmile_qr_scan", "android": "https://dc.lft.to/lastmile_qr_scan"}, "is_reserved": 0}, {"lon": -77.0683215, "bike_id": "cd3de9af9069ad99c545f403642f8a85", "lat": 38.805667666666665, "fusion_lon": 0.0, "fusion_lat": 0.0, "type": "electric_bike", "name": "cd3de9af9069ad99c545f403642f8a85", "is_disabled": 0, "rental_uris": {"ios": "https://dc.lft.to/lastmile_qr_scan", "android": "https://dc.lft.to/lastmile_qr_scan"}, "is_reserved": 0}, {"lon": -77.03413683333333, "bike_id": "a258322654f65c9f8feee53a6cbb556c", "lat": 38.922564, "fusion_lon": 0.0, "fusion_lat": 0.0, "type": "electric_scooter", "name": "a258322654f65c9f8feee53a6cbb556c", "is_disabled": 0, "rental_uris": {"ios": "https://dc.lft.to/lastmile_qr_scan", "android": "https://dc.lft.to/lastmile_qr_scan"}, "is_reserved": 0}, {"lon": -77.038924, "bike_id": "0f2d6e046b8c20ea5067cd2b7fbd3234", "lat": 38.923569666666666, "fusion_lon": 0.0, "fusion_lat": 0.0, "type": "electric_scooter", "name": "0f2d6e046b8c20ea5067cd2b7fbd3234", "is_disabled": 0, "rental_uris": {"ios": "https://dc.lft.to/lastmile_qr_scan", "android": "https://dc.lft.to/lastmile_qr_scan"}, "is_reserved": 0}, {"lon": -77.18742316666666, "bike_id": "7ef8230b938231d177d85a25e6a275b4", "lat": 38.89352983333333, "fusion_lon": 0.0, "fusion_lat": 0.0, "type": "electric_bike", "name": "7ef8230b938231d177d85a25e6a275b4", "is_disabled": 0, "rental_uris": {"ios": "https://dc.lft.to/lastmile_qr_scan", "android": "https://dc.lft.to/lastmile_qr_scan"}, "is_reserved": 0}, {"lon": -77.039371, "bike_id": "e89b3b7fc1c294dad390bbff0772206f", "lat": 38.91550566666667, "fusion_lon": 0.0, "fusion_lat": 0.0, "type": "electric_scooter", "name": "e89b3b7fc1c294dad390bbff0772206f", "is_disabled": 0, "rental_uris": {"ios": "https://dc.lft.to/lastmile_qr_scan", "android": "https://dc.lft.to/lastmile_qr_scan"}, "is_reserved": 0}, {"lon": -77.03121033333333, "bike_id": "149926daf084289be3710c0e8c45b544", "lat": 38.9204395, "fusion_lon": 0.0, "fusion_lat": 0.0, "type": "electric_scooter", "name": "149926daf084289be3710c0e8c45b544", "is_disabled": 0, "rental_uris": {"ios": "https://dc.lft.to/lastmile_qr_scan", "android": "https://dc.lft.to/lastmile_qr_scan"}, "is_reserved": 0}, {"lon": -77.0715395, "bike_id": "d5db5c6911df2196d481b42bb5c7a3ea", "lat": 38.908736833333336, "fusion_lon": 0.0, "fusion_lat": 0.0, "type": "electric_scooter", "name": "d5db5c6911df2196d481b42bb5c7a3ea", "is_disabled": 0, "rental_uris": {"ios": "https://dc.lft.to/lastmile_qr_scan", "android": "https://dc.lft.to/lastmile_qr_scan"}, "is_reserved": 0}, {"lon": -77.0133445, "bike_id": "2d8ab8e667e708fe8d363d2c473aa49b", "lat": 38.87928183333333, "fusion_lon": 0.0, "fusion_lat": 0.0, "type": "electric_scooter", "name": "2d8ab8e667e708fe8d363d2c473aa49b", "is_disabled": 0, "rental_uris": {"ios": "https://dc.lft.to/lastmile_qr_scan", "android": "https://dc.lft.to/lastmile_qr_scan"}, "is_reserved": 0}, {"lon": -76.99864833333334, "bike_id": "864d42ade9de29097d8867e4eafb3b59", "lat": 38.9001435, "fusion_lon": 0.0, "fusion_lat": 0.0, "type": "electric_scooter", "name": "864d42ade9de29097d8867e4eafb3b59", "is_disabled": 0, "rental_uris": {"ios": "https://dc.lft.to/lastmile_qr_scan", "android": "https://dc.lft.to/lastmile_qr_scan"}, "is_reserved": 0}, {"lon": -77.055277, "bike_id": "d0ad56d0c53c894ef12323d5319bc7fd", "lat": 38.9343505, "fusion_lon": 0.0, "fusion_lat": 0.0, "type": "electric_scooter", "name": "d0ad56d0c53c894ef12323d5319bc7fd", "is_disabled": 0, "rental_uris": {"ios": "https://dc.lft.to/lastmile_qr_scan", "android": "https://dc.lft.to/lastmile_qr_scan"}, "is_reserved": 0}, {"lon": -77.035055, "bike_id": "ce341197daa1657d29401e8aba93705b", "lat": 38.9375145, "fusion_lon": 0.0, "fusion_lat": 0.0, "type": "electric_scooter", "name": "ce341197daa1657d29401e8aba93705b", "is_disabled": 0, "rental_uris": {"ios": "https://dc.lft.to/lastmile_qr_scan", "android": "https://dc.lft.to/lastmile_qr_scan"}, "is_reserved": 0}, {"lon": -77.003595, "bike_id": "220d31f6565d0a57cc878112e9c3d22a", "lat": 38.920499666666664, "fusion_lon": 0.0, "fusion_lat": 0.0, "type": "electric_scooter", "name": "220d31f6565d0a57cc878112e9c3d22a", "is_disabled": 0, "rental_uris": {"ios": "https://dc.lft.to/lastmile_qr_scan", "android": "https://dc.lft.to/lastmile_qr_scan"}, "is_reserved": 0}, {"lon": -77.02411483333333, "bike_id": "60c1d0bf7159251f6d83a31313eca9ea", "lat": 38.9097025, "fusion_lon": 0.0, "fusion_lat": 0.0, "type": "electric_scooter", "name": "60c1d0bf7159251f6d83a31313eca9ea", "is_disabled": 0, "rental_uris": {"ios": "https://dc.lft.to/lastmile_qr_scan", "android": "https://dc.lft.to/lastmile_qr_scan"}, "is_reserved": 0}, {"lon": -76.98843316666667, "bike_id": "c41e063d9debd59ee2225975860a2d30", "lat": 38.90072933333333, "fusion_lon": 0.0, "fusion_lat": 0.0, "type": "electric_scooter", "name": "c41e063d9debd59ee2225975860a2d30", "is_disabled": 0, "rental_uris": {"ios": "https://dc.lft.to/lastmile_qr_scan", "android": "https://dc.lft.to/lastmile_qr_scan"}, "is_reserved": 0}, {"lon": -77.0321905, "bike_id": "3886b43cf5ccab63bbc077399dd2700f", "lat": 38.91712183333333, "fusion_lon": 0.0, "fusion_lat": 0.0, "type": "electric_scooter", "name": "3886b43cf5ccab63bbc077399dd2700f", "is_disabled": 0, "rental_uris": {"ios": "https://dc.lft.to/lastmile_qr_scan", "android": "https://dc.lft.to/lastmile_qr_scan"}, "is_reserved": 0}, {"lon": -77.01604766666667, "bike_id": "865df8b1d7768849dd0c279662147eb5", "lat": 38.899793333333335, "fusion_lon": 0.0, "fusion_lat": 0.0, "type": "electric_scooter", "name": "865df8b1d7768849dd0c279662147eb5", "is_disabled": 0, "rental_uris": {"ios": "https://dc.lft.to/lastmile_qr_scan", "android": "https://dc.lft.to/lastmile_qr_scan"}, "is_reserved": 0}, {"lon": -77.08456, "bike_id": "343a024d6caad6d3e5bb8497237ab8ae", "lat": 38.84826966666667, "fusion_lon": 0.0, "fusion_lat": 0.0, "type": "electric_bike", "name": "343a024d6caad6d3e5bb8497237ab8ae", "is_disabled": 0, "rental_uris": {"ios": "https://dc.lft.to/lastmile_qr_scan", "android": "https://dc.lft.to/lastmile_qr_scan"}, "is_reserved": 0}, {"lon": -77.032246, "bike_id": "ec824d90bd036cfde6b0d1e9adeacfdf", "lat": 38.91819916666667, "fusion_lon": 0.0, "fusion_lat": 0.0, "type": "electric_scooter", "name": "ec824d90bd036cfde6b0d1e9adeacfdf", "is_disabled": 0, "rental_uris": {"ios": "https://dc.lft.to/lastmile_qr_scan", "android": "https://dc.lft.to/lastmile_qr_scan"}, "is_reserved": 0}, {"lon": -77.0342945, "bike_id": "77f2f12a4ecbf68c00e82da78311e42c", "lat": 38.965493333333335, "fusion_lon": 0.0, "fusion_lat": 0.0, "type": "electric_bike", "name": "77f2f12a4ecbf68c00e82da78311e42c", "is_disabled": 0, "rental_uris": {"ios": "https://dc.lft.to/lastmile_qr_scan", "android": "https://dc.lft.to/lastmile_qr_scan"}, "is_reserved": 0}, {"lon": -77.05580216666667, "bike_id": "f7749a2da8ca3dd7af1c54d70d1e732e", "lat": 38.89749183333333, "fusion_lon": 0.0, "fusion_lat": 0.0, "type": "electric_scooter", "name": "f7749a2da8ca3dd7af1c54d70d1e732e", "is_disabled": 0, "rental_uris": {"ios": "https://dc.lft.to/lastmile_qr_scan", "android": "https://dc.lft.to/lastmile_qr_scan"}, "is_reserved": 0}, {"lon": -77.13932316666667, "bike_id": "b82b5768b5f6bb33ac8cb5e61a0d7829", "lat": 38.873133333333335, "fusion_lon": 0.0, "fusion_lat": 0.0, "type": "electric_bike", "name": "b82b5768b5f6bb33ac8cb5e61a0d7829", "is_disabled": 0, "rental_uris": {"ios": "https://dc.lft.to/lastmile_qr_scan", "android": "https://dc.lft.to/lastmile_qr_scan"}, "is_reserved": 0}, {"lon": -76.9903475, "bike_id": "040bb419d69db55c54d5bb080898f84c", "lat": 38.896019, "fusion_lon": 0.0, "fusion_lat": 0.0, "type": "electric_scooter", "name": "040bb419d69db55c54d5bb080898f84c", "is_disabled": 0, "rental_uris": {"ios": "https://dc.lft.to/lastmile_qr_scan", "android": "https://dc.lft.to/lastmile_qr_scan"}, "is_reserved": 0}, {"lon": -77.01775916666666, "bike_id": "6f6dc53f97866f8622949d4f8412e3fc", "lat": 38.9005425, "fusion_lon": 0.0, "fusion_lat": 0.0, "type": "electric_scooter", "name": "6f6dc53f97866f8622949d4f8412e3fc", "is_disabled": 0, "rental_uris": {"ios": "https://dc.lft.to/lastmile_qr_scan", "android": "https://dc.lft.to/lastmile_qr_scan"}, "is_reserved": 0}, {"lon": -77.042436, "bike_id": "dd1c8a31b84e6dd7578f756526d7a1e5", "lat": 38.9225845, "fusion_lon": 0.0, "fusion_lat": 0.0, "type": "electric_scooter", "name": "dd1c8a31b84e6dd7578f756526d7a1e5", "is_disabled": 0, "rental_uris": {"ios": "https://dc.lft.to/lastmile_qr_scan", "android": "https://dc.lft.to/lastmile_qr_scan"}, "is_reserved": 0}, {"lon": -77.02683616666667, "bike_id": "1f15807c8739059e5a6cf566886f47d9", "lat": 38.897537666666665, "fusion_lon": 0.0, "fusion_lat": 0.0, "type": "electric_scooter", "name": "1f15807c8739059e5a6cf566886f47d9", "is_disabled": 0, "rental_uris": {"ios": "https://dc.lft.to/lastmile_qr_scan", "android": "https://dc.lft.to/lastmile_qr_scan"}, "is_reserved": 0}, {"lon": -77.0490155, "bike_id": "368b2ae3cb7a50fbcb2becf003fc4c6a", "lat": 38.9160585, "fusion_lon": 0.0, "fusion_lat": 0.0, "type": "electric_scooter", "name": "368b2ae3cb7a50fbcb2becf003fc4c6a", "is_disabled": 0, "rental_uris": {"ios": "https://dc.lft.to/lastmile_qr_scan", "android": "https://dc.lft.to/lastmile_qr_scan"}, "is_reserved": 0}, {"lon": -76.93964383333334, "bike_id": "0ee8f5e3817767d29bc8b8ec322b665f", "lat": 38.8984465, "fusion_lon": 0.0, "fusion_lat": 0.0, "type": "electric_scooter", "name": "0ee8f5e3817767d29bc8b8ec322b665f", "is_disabled": 0, "rental_uris": {"ios": "https://dc.lft.to/lastmile_qr_scan", "android": "https://dc.lft.to/lastmile_qr_scan"}, "is_reserved": 0}, {"lon": -76.98217133333333, "bike_id": "63611668dcd3f8bc5157c4f938035d54", "lat": 38.86481216666667, "fusion_lon": 0.0, "fusion_lat": 0.0, "type": "electric_scooter", "name": "63611668dcd3f8bc5157c4f938035d54", "is_disabled": 0, "rental_uris": {"ios": "https://dc.lft.to/lastmile_qr_scan", "android": "https://dc.lft.to/lastmile_qr_scan"}, "is_reserved": 0}, {"lon": -76.99533133333334, "bike_id": "07cafadfa8ef6a5fcdf7554adefc7097", "lat": 38.862076, "fusion_lon": 0.0, "fusion_lat": 0.0, "type": "electric_scooter", "name": "07cafadfa8ef6a5fcdf7554adefc7097", "is_disabled": 0, "rental_uris": {"ios": "https://dc.lft.to/lastmile_qr_scan", "android": "https://dc.lft.to/lastmile_qr_scan"}, "is_reserved": 0}, {"lon": -77.06107283333333, "bike_id": "ea80ae5a93865036ca2f14b127d02217", "lat": 38.90557783333333, "fusion_lon": 0.0, "fusion_lat": 0.0, "type": "electric_scooter", "name": "ea80ae5a93865036ca2f14b127d02217", "is_disabled": 0, "rental_uris": {"ios": "https://dc.lft.to/lastmile_qr_scan", "android": "https://dc.lft.to/lastmile_qr_scan"}, "is_reserved": 0}, {"lon": -77.04719, "bike_id": "46a7bb0714387449828178658de5bb32", "lat": 38.9222865, "fusion_lon": 0.0, "fusion_lat": 0.0, "type": "electric_scooter", "name": "46a7bb0714387449828178658de5bb32", "is_disabled": 0, "rental_uris": {"ios": "https://dc.lft.to/lastmile_qr_scan", "android": "https://dc.lft.to/lastmile_qr_scan"}, "is_reserved": 0}, {"lon": -77.06727616666667, "bike_id": "dce2f5c7aa5c28e9175a57c116d2efc7", "lat": 38.903533, "fusion_lon": 0.0, "fusion_lat": 0.0, "type": "electric_scooter", "name": "dce2f5c7aa5c28e9175a57c116d2efc7", "is_disabled": 0, "rental_uris": {"ios": "https://dc.lft.to/lastmile_qr_scan", "android": "https://dc.lft.to/lastmile_qr_scan"}, "is_reserved": 0}, {"lon": -77.04393616666667, "bike_id": "a5fb889b69773d5f0d9bca60480c3cc1", "lat": 38.921147833333336, "fusion_lon": 0.0, "fusion_lat": 0.0, "type": "electric_scooter", "name": "a5fb889b69773d5f0d9bca60480c3cc1", "is_disabled": 0, "rental_uris": {"ios": "https://dc.lft.to/lastmile_qr_scan", "android": "https://dc.lft.to/lastmile_qr_scan"}, "is_reserved": 0}, {"lon": -77.021682, "bike_id": "63d9e7208dd6575f28ed238953f419ec", "lat": 38.91487566666667, "fusion_lon": 0.0, "fusion_lat": 0.0, "type": "electric_scooter", "name": "63d9e7208dd6575f28ed238953f419ec", "is_disabled": 0, "rental_uris": {"ios": "https://dc.lft.to/lastmile_qr_scan", "android": "https://dc.lft.to/lastmile_qr_scan"}, "is_reserved": 0}, {"lon": -77.029773, "bike_id": "fcb612f796804ce1766c41d7d4c345bd", "lat": 38.916805833333335, "fusion_lon": 0.0, "fusion_lat": 0.0, "type": "electric_scooter", "name": "fcb612f796804ce1766c41d7d4c345bd", "is_disabled": 0, "rental_uris": {"ios": "https://dc.lft.to/lastmile_qr_scan", "android": "https://dc.lft.to/lastmile_qr_scan"}, "is_reserved": 0}, {"lon": -77.007527, "bike_id": "a97dfbaaabf4ea5809336a4a5253c6ca", "lat": 38.8975445, "fusion_lon": 0.0, "fusion_lat": 0.0, "type": "electric_bike", "name": "a97dfbaaabf4ea5809336a4a5253c6ca", "is_disabled": 0, "rental_uris": {"ios": "https://dc.lft.to/lastmile_qr_scan", "android": "https://dc.lft.to/lastmile_qr_scan"}, "is_reserved": 0}, {"lon": -77.03663166666666, "bike_id": "60a74030127a419622a875ed99977f92", "lat": 38.9083215, "fusion_lon": 0.0, "fusion_lat": 0.0, "type": "electric_scooter", "name": "60a74030127a419622a875ed99977f92", "is_disabled": 0, "rental_uris": {"ios": "https://dc.lft.to/lastmile_qr_scan", "android": "https://dc.lft.to/lastmile_qr_scan"}, "is_reserved": 0}, {"lon": -77.03406416666667, "bike_id": "3ef08965ad4a73d0d9342c137c0c785b", "lat": 38.92739783333333, "fusion_lon": 0.0, "fusion_lat": 0.0, "type": "electric_scooter", "name": "3ef08965ad4a73d0d9342c137c0c785b", "is_disabled": 0, "rental_uris": {"ios": "https://dc.lft.to/lastmile_qr_scan", "android": "https://dc.lft.to/lastmile_qr_scan"}, "is_reserved": 0}, {"lon": -77.03633916666666, "bike_id": "fa265c439d505c7d41bdeed7bace443a", "lat": 38.92335283333333, "fusion_lon": 0.0, "fusion_lat": 0.0, "type": "electric_scooter", "name": "fa265c439d505c7d41bdeed7bace443a", "is_disabled": 0, "rental_uris": {"ios": "https://dc.lft.to/lastmile_qr_scan", "android": "https://dc.lft.to/lastmile_qr_scan"}, "is_reserved": 0}, {"lon": -77.03066, "bike_id": "ca6c7d832a75d4a6e20cbd54ab9009bd", "lat": 38.90581866666667, "fusion_lon": 0.0, "fusion_lat": 0.0, "type": "electric_scooter", "name": "ca6c7d832a75d4a6e20cbd54ab9009bd", "is_disabled": 0, "rental_uris": {"ios": "https://dc.lft.to/lastmile_qr_scan", "android": "https://dc.lft.to/lastmile_qr_scan"}, "is_reserved": 0}, {"lon": -77.033539, "bike_id": "e85f172744c506edfee7e5d35becc686", "lat": 38.9624765, "fusion_lon": 0.0, "fusion_lat": 0.0, "type": "electric_scooter", "name": "e85f172744c506edfee7e5d35becc686", "is_disabled": 0, "rental_uris": {"ios": "https://dc.lft.to/lastmile_qr_scan", "android": "https://dc.lft.to/lastmile_qr_scan"}, "is_reserved": 0}, {"lon": -77.06330483333333, "bike_id": "1cf71d90cbe29256f1e26265a6540bb8", "lat": 38.9051335, "fusion_lon": 0.0, "fusion_lat": 0.0, "type": "electric_scooter", "name": "1cf71d90cbe29256f1e26265a6540bb8", "is_disabled": 0, "rental_uris": {"ios": "https://dc.lft.to/lastmile_qr_scan", "android": "https://dc.lft.to/lastmile_qr_scan"}, "is_reserved": 0}, {"lon": -77.02276016666667, "bike_id": "ec8bd5404560bd40d2fa07e3b5afe9c4", "lat": 38.887521, "fusion_lon": 0.0, "fusion_lat": 0.0, "type": "electric_scooter", "name": "ec8bd5404560bd40d2fa07e3b5afe9c4", "is_disabled": 0, "rental_uris": {"ios": "https://dc.lft.to/lastmile_qr_scan", "android": "https://dc.lft.to/lastmile_qr_scan"}, "is_reserved": 0}, {"lon": -77.043478, "bike_id": "bc4aa09a6771d25ffb0e8c9acd4416ad", "lat": 38.907267, "fusion_lon": 0.0, "fusion_lat": 0.0, "type": "electric_scooter", "name": "bc4aa09a6771d25ffb0e8c9acd4416ad", "is_disabled": 0, "rental_uris": {"ios": "https://dc.lft.to/lastmile_qr_scan", "android": "https://dc.lft.to/lastmile_qr_scan"}, "is_reserved": 0}, {"lon": -77.02627333333334, "bike_id": "6a1fd8cd37516e2f36e6f6cb0b85eac5", "lat": 38.96231066666667, "fusion_lon": 0.0, "fusion_lat": 0.0, "type": "electric_bike", "name": "6a1fd8cd37516e2f36e6f6cb0b85eac5", "is_disabled": 0, "rental_uris": {"ios": "https://dc.lft.to/lastmile_qr_scan", "android": "https://dc.lft.to/lastmile_qr_scan"}, "is_reserved": 0}, {"lon": -77.01911116666666, "bike_id": "d6894e949d9e7bd607758d889135b47a", "lat": 38.8863735, "fusion_lon": 0.0, "fusion_lat": 0.0, "type": "electric_scooter", "name": "d6894e949d9e7bd607758d889135b47a", "is_disabled": 0, "rental_uris": {"ios": "https://dc.lft.to/lastmile_qr_scan", "android": "https://dc.lft.to/lastmile_qr_scan"}, "is_reserved": 0}, {"lon": -77.072734, "bike_id": "68237e8f0a5dc409615455b3e7e5c3a5", "lat": 38.91157166666667, "fusion_lon": 0.0, "fusion_lat": 0.0, "type": "electric_scooter", "name": "68237e8f0a5dc409615455b3e7e5c3a5", "is_disabled": 0, "rental_uris": {"ios": "https://dc.lft.to/lastmile_qr_scan", "android": "https://dc.lft.to/lastmile_qr_scan"}, "is_reserved": 0}, {"lon": -77.03643133333334, "bike_id": "5a93b78593c4f9dd7cc5b50308df0cad", "lat": 38.9242325, "fusion_lon": 0.0, "fusion_lat": 0.0, "type": "electric_scooter", "name": "5a93b78593c4f9dd7cc5b50308df0cad", "is_disabled": 0, "rental_uris": {"ios": "https://dc.lft.to/lastmile_qr_scan", "android": "https://dc.lft.to/lastmile_qr_scan"}, "is_reserved": 0}, {"lon": -77.01082616666666, "bike_id": "6f1a6af065227bf285ada5f40530427e", "lat": 38.895035666666665, "fusion_lon": 0.0, "fusion_lat": 0.0, "type": "electric_scooter", "name": "6f1a6af065227bf285ada5f40530427e", "is_disabled": 0, "rental_uris": {"ios": "https://dc.lft.to/lastmile_qr_scan", "android": "https://dc.lft.to/lastmile_qr_scan"}, "is_reserved": 0}, {"lon": -76.994851, "bike_id": "8704d185b94a692cfb707a9b74a36a07", "lat": 38.915718, "fusion_lon": 0.0, "fusion_lat": 0.0, "type": "electric_scooter", "name": "8704d185b94a692cfb707a9b74a36a07", "is_disabled": 0, "rental_uris": {"ios": "https://dc.lft.to/lastmile_qr_scan", "android": "https://dc.lft.to/lastmile_qr_scan"}, "is_reserved": 0}, {"lon": -76.98591816666666, "bike_id": "acd0eeda0dbe94968487344f1991ef83", "lat": 38.90813933333333, "fusion_lon": 0.0, "fusion_lat": 0.0, "type": "electric_scooter", "name": "acd0eeda0dbe94968487344f1991ef83", "is_disabled": 0, "rental_uris": {"ios": "https://dc.lft.to/lastmile_qr_scan", "android": "https://dc.lft.to/lastmile_qr_scan"}, "is_reserved": 0},