{"data": {"bikes": [{"lon": -76.9855875, "bike_id": "3618c6b12371f36efa4b9ca0a7675afc", "lat": 38.910277666666666, "fusion_lon": 0.0, "fusion_lat": 0.0, "type": "electric_scooter", "name": "3618c6b12371f36efa4b9ca0a7675afc", "is_disabled": 0, "rental_uris": {"ios": "https://dc.lft.to/lastmile_qr_scan", "android": "https://dc.lft.to/lastmile_qr_scan"}, "is_reserved": 0}, {"lon": -76.99820566666666, "bike_id": "4c538acdaabdf2b8bbba2c95fe073c2b", "lat": 38.907180833333335, "fusion_lon": 0.0, "fusion_lat": 0.0, "type": "electric_scooter", "name": "4c538acdaabdf2b8bbba2c95fe073c2b", "is_disabled": 0, "rental_uris": {"ios": "https://dc.lft.to/lastmile_qr_scan", "android": "https://dc.lft.to/lastmile_qr_scan"}, "is_reserved": 0}, {"lon": -77.0240665, "bike_id": "40125d27cca7ab58b7bd603fcc01fc6f", "lat": 38.903090166666665, "fusion_lon": 0.0, "fusion_lat": 0.0, "type": "electric_scooter", "name": "40125d27cca7ab58b7bd603fcc01fc6f", "is_disabled": 0, "rental_uris": {"ios": "https://dc.lft.to/lastmile_qr_scan", "android": "https://dc.lft.to/lastmile_qr_scan"}, "is_reserved": 0}, {"lon": -77.05433833333333, "bike_id": "b1b2b6cc39d6d7017d2570c92eadbcd6", "lat": 38.92843216666667, "fusion_lon": 0.0, "fusion_lat": 0.0, "type": "electric_scooter", "name": "b1b2b6cc39d6d7017d2570c92eadbcd6", "is_disabled": 0, "rental_uris": {"ios": "https://dc.lft.to/lastmile_qr_scan", "android": "https://dc.lft.to/lastmile_qr_scan"}, "is_reserved": 0}, {"lon": -77.04337583333333, "bike_id": "1cb8297e27498dbc106d8d7c27d91d8e", "lat": 38.92215983333333, "fusion_lon": 0.0, "fusion_lat": 0.0, "type": "electric_scooter", "name": "1cb8297e27498dbc106d8d7c27d91d8e", "is_disabled": 0, "rental_uris": {"ios": "https://dc.lft.to/lastmile_qr_scan", "android": "https://dc.lft.to/lastmile_qr_scan"}, "is_reserved": 0}, {"lon": -77.0520085, "bike_id": "e3d8b51a088a4673bda504bdefb46f88", "lat": 38.92438933333333, "fusion_lon": 0.0, "fusion_lat": 0.0, "type": "electric_scooter", "name": "e3d8b51a088a4673bda504bdefb46f88", "is_disabled": 0, "rental_uris": {"ios": "https://dc.lft.to/lastmile_qr_scan", "android": "https://dc.lft.to/lastmile_qr_scan"}, "is_reserved": 0}, {"lon": -77.0412025, "bike_id": "75d510d2e7d28bcb8560156ddc0d722a", "lat": 38.94408283333333, "fusion_lon": 0.0, "fusion_lat": 0.0, "type": "electric_bike", "name": "75d510d2e7d28bcb8560156ddc0d722a", "is_disabled": 0, "rental_uris": {"ios": "https://dc.lft.to/lastmile_qr_scan", "android": "https://dc.lft.to/lastmile_qr_scan"}, "is_reserved": 0}, {"lon": -76.98825366666667, "bike_id": "f15705e9214ded40abc9ee3e8f503331", "lat": 38.89078133333334, "fusion_lon": 0.0, "fusion_lat": 0.0, "type": "electric_scooter", "name": "f15705e9214ded40abc9ee3e8f503331", "is_disabled": 0, "rental_uris": {"ios": "https://dc.lft.to/lastmile_qr_scan", "android": "https://dc.lft.to/lastmile_qr_scan"}, "is_reserved": 0}, {"lon": -76.99021216666667, "bike_id": "2c3ef4d92ef7d1d4c96e83ba4de340c4", "lat": 38.88155283333333, "fusion_lon": 0.0, "fusion_lat": 0.0, "type": "electric_scooter", "name": "2c3ef4d92ef7d1d4c96e83ba4de340c4", "is_disabled": 0, "rental_uris": {"ios": "https://dc.lft.to/lastmile_qr_scan", "android": "https://dc.lft.to/lastmile_qr_scan"}, "is_reserved": 0}, {"lon": -77.00315683333334, "bike_id": "54be1d40eb7a8939dfd9b0fafbb17d47", "lat": 38.91115516666667, "fusion_lon": 0.0, "fusion_lat": 0.0, "type": "electric_scooter", "name": "54be1d40eb7a8939dfd9b0fafbb17d47", "is_disabled": 0, "rental_uris": {"ios": "https://dc.lft.to/lastmile_qr_scan", "android": "https://dc.lft.to/lastmile_qr_scan"}, "is_reserved": 0}, {"lon": -77.0136595, "bike_id": "d93dd88f8b0c5d62320bf99851eb2ea7", "lat": 38.887013833333334, "fusion_lon": 0.0, "fusion_lat": 0.0, "type": "electric_scooter", "name": "d93dd88f8b0c5d62320bf99851eb2ea7", "is_disabled": 0, "rental_uris": {"ios": "https://dc.lft.to/lastmile_qr_scan", "android": "https://dc.lft.to/lastmile_qr_scan"}, "is_reserved": 0}, {"lon": -77.0460235, "bike_id": "40a52da237dc4717fefd9ab703571e39", "lat": 38.916081166666665, "fusion_lon": 0.0, "fusion_lat": 0.0, "type": "electric_scooter", "name": "40a52da237dc4717fefd9ab703571e39", "is_disabled": 0, "rental_uris": {"ios": "https://dc.lft.to/lastmile_qr_scan", "android": "https://dc.lft.to/lastmile_qr_scan"}, "is_reserved": 0}, {"lon": -77.05444633333333, "bike_id": "bbb0015c31e09dcad36862d31a25a0c2", "lat": 38.9435625, "fusion_lon": 0.0, "fusion_lat": 0.0, "type": "electric_bike", "name": "bbb0015c31e09dcad36862d31a25a0c2", "is_disabled": 0, "rental_uris": {"ios": "https://dc.lft.to/lastmile_qr_scan", "android": "https://dc.lft.to/lastmile_qr_scan"}, "is_reserved": 0}, {"lon": -77.0294335, "bike_id": "f36869610f67dac61d121193f5834d57", "lat": 38.8980905, "fusion_lon": 0.0, "fusion_lat": 0.0, "type": "electric_scooter", "name": "f36869610f67dac61d121193f5834d57", "is_disabled": 0, "rental_uris": {"ios": "https://dc.lft.to/lastmile_qr_scan", "android": "https://dc.lft.to/lastmile_qr_scan"}, "is_reserved": 0}, {"lon": -77.02696966666667, "bike_id": "88ed857128ad1bea4070cab048864fcc", "lat": 38.908322, "fusion_lon": 0.0, "fusion_lat": 0.0, "type": "electric_scooter", "name": "88ed857128ad1bea4070cab048864fcc", "is_disabled": 0, "rental_uris": {"ios": "https://dc.lft.to/lastmile_qr_scan", "android": "https://dc.lft.to/lastmile_qr_scan"}, "is_reserved": 0}, {"lon": -77.03195516666666, "bike_id": "e03c9dd239a28f0b0a13f91de716b595", "lat": 38.930571666666665, "fusion_lon": 0.0, "fusion_lat": 0.0, "type": "electric_scooter", "name": "e03c9dd239a28f0b0a13f91de716b595", "is_disabled": 0, "rental_uris": {"ios": "https://dc.lft.to/lastmile_qr_scan", "android": "https://dc.lft.to/lastmile_qr_scan"}, "is_reserved": 0}, {"lon": -77.0536865, "bike_id": "69389f9f13c8f8b9930ea7e896c869d7", "lat": 38.927343666666665, "fusion_lon": 0.0, "fusion_lat": 0.0, "type": "electric_scooter", "name": "69389f9f13c8f8b9930ea7e896c869d7", "is_disabled": 0, "rental_uris": {"ios": "https://dc.lft.to/lastmile_qr_scan", "android": "https://dc.lft.to/lastmile_qr_scan"}, "is_reserved": 0}, {"lon": -76.988267, "bike_id": "ad5a1fb5452fd686ea37475920443a9a", "lat": 38.90044416666667, "fusion_lon": 0.0, "fusion_lat": 0.0, "type": "electric_scooter", "name": "ad5a1fb5452fd686ea37475920443a9a", "is_disabled": 0, "rental_uris": {"ios": "https://dc.lft.to/lastmile_qr_scan", "android": "https://dc.lft.to/lastmile_qr_scan"}, "is_reserved": 0}, {"lon": -77.03624633333334, "bike_id": "c902906d1ef90a86b4f987c95d5e2190", "lat": 38.92336266666667, "fusion_lon": 0.0, "fusion_lat": 0.0, "type": "electric_scooter", "name": "c902906d1ef90a86b4f987c95d5e2190", "is_disabled": 0, "rental_uris": {"ios": "https://dc.lft.to/lastmile_qr_scan", "android": "https://dc.lft.to/lastmile_qr_scan"}, "is_reserved": 0}, {"lon": -77.00371433333333, "bike_id": "fc998292991e5f1cb93bf5602eb7a366", "lat": 38.887154, "fusion_lon": 0.0, "fusion_lat": 0.0, "type": "electric_scooter", "name": "fc998292991e5f1cb93bf5602eb7a366", "is_disabled": 0, "rental_uris": {"ios": "https://dc.lft.to/lastmile_qr_scan", "android": "https://dc.lft.to/lastmile_qr_scan"}, "is_reserved": 0}, {"lon": -77.0770115, "bike_id": "0edd86df5d77691a40e19172f75bbcd1", "lat": 38.888584, "fusion_lon": 0.0, "fusion_lat": 0.0, "type": "electric_bike", "name": "0edd86df5d77691a40e19172f75bbcd1", "is_disabled": 0, "rental_uris": {"ios": "https://dc.lft.to/lastmile_qr_scan", "android": "https://dc.lft.to/lastmile_qr_scan"}, "is_reserved": 0}, {"lon": -77.03544333333333, "bike_id": "ed051a43c45f52645834ac1961762956", "lat": 38.924208, "fusion_lon": 0.0, "fusion_lat": 0.0, "type": "electric_scooter", "name": "ed051a43c45f52645834ac1961762956", "is_disabled": 0, "rental_uris": {"ios": "https://dc.lft.to/lastmile_qr_scan", "android": "https://dc.lft.to/lastmile_qr_scan"}, "is_reserved": 0}, {"lon": -77.13103183333334, "bike_id": "82dfbc1bf686e065f6bb2cc49475caca", "lat": 39.024338, "fusion_lon": 0.0, "fusion_lat": 0.0, "type": "electric_bike", "name": "82dfbc1bf686e065f6bb2cc49475caca", "is_disabled": 0, "rental_uris": {"ios": "https://dc.lft.to/lastmile_qr_scan", "android": "https://dc.lft.to/lastmile_qr_scan"}, "is_reserved": 0}, {"lon": -77.01116916666666, "bike_id": "071c10e9eebeecd4344ad93d7d6255ea", "lat": 38.885447666666664, "fusion_lon": 0.0, "fusion_lat": 0.0, "type": "electric_scooter", "name": "071c10e9eebeecd4344ad93d7d6255ea", "is_disabled": 0, "rental_uris": {"ios": "https://dc.lft.to/lastmile_qr_scan", "android": "https://dc.lft.to/lastmile_qr_scan"}, "is_reserved": 0}, {"lon": -77.0434105, "bike_id": "689522e93ba53fced3f2c0270a2c5f03", "lat": 38.90625633333333, "fusion_lon": 0.0, "fusion_lat": 0.0, "type": "electric_scooter", "name": "689522e93ba53fced3f2c0270a2c5f03", "is_disabled": 0, "rental_uris": {"ios": "https://dc.lft.to/lastmile_qr_scan", "android": "https://dc.lft.to/lastmile_qr_scan"}, "is_reserved": 0}, {"lon": -77.0562845, "bike_id": "8a3bef7ae323d41e373b529252062857", "lat": 38.960733833333336, "fusion_lon": 0.0, "fusion_lat": 0.0, "type": "electric_scooter", "name": "8a3bef7ae323d41e373b529252062857", "is_disabled": 0, "rental_uris": {"ios": "https://dc.lft.to/lastmile_qr_scan", "android": "https://dc.lft.to/lastmile_qr_scan"}, "is_reserved": 0}, {"lon": -77.0296465, "bike_id": "32d324ec455417793d905ea6b7f1333a", "lat": 38.916772333333334, "fusion_lon": 0.0, "fusion_lat": 0.0, "type": "electric_scooter", "name": "32d324ec455417793d905ea6b7f1333a", "is_disabled": 0, "rental_uris": {"ios": "https://dc.lft.to/lastmile_qr_scan", "android": "https://dc.lft.to/lastmile_qr_scan"}, "is_reserved": 0}, {"lon": -77.00682483333334, "bike_id": "7cc5eaa7ea35a6bd855c53ec46001b74", "lat": 38.834859333333334, "fusion_lon": 0.0, "fusion_lat": 0.0, "type": "electric_scooter", "name": "7cc5eaa7ea35a6bd855c53ec46001b74", "is_disabled": 0, "rental_uris": {"ios": "https://dc.lft.to/lastmile_qr_scan", "android": "https://dc.lft.to/lastmile_qr_scan"}, "is_reserved": 0}, {"lon": -77.0348565, "bike_id": "9b0d115a055e986ce6de7efa06636ef0", "lat": 38.88486483333333, "fusion_lon": 0.0, "fusion_lat": 0.0, "type": "electric_scooter", "name": "9b0d115a055e986ce6de7efa06636ef0", "is_disabled": 0, "rental_uris": {"ios": "https://dc.lft.to/lastmile_qr_scan", "android": "https://dc.lft.to/lastmile_qr_scan"}, "is_reserved": 0}, {"lon": -77.05297083333333, "bike_id": "1827320ff051458b1668ef9d1374af7a", "lat": 38.90334566666667, "fusion_lon": 0.0, "fusion_lat": 0.0, "type": "electric_scooter", "name": "1827320ff051458b1668ef9d1374af7a", "is_disabled": 0, "rental_uris": {"ios": "https://dc.lft.to/lastmile_qr_scan", "android": "https://dc.lft.to/lastmile_qr_scan"}, "is_reserved": 0}, {"lon": -77.003432, "bike_id": "4a2e2136986ee0a733c038ea90c9e3d7", "lat": 38.9036335, "fusion_lon": 0.0, "fusion_lat": 0.0, "type": "electric_scooter", "name": "4a2e2136986ee0a733c038ea90c9e3d7", "is_disabled": 0, "rental_uris": {"ios": "https://dc.lft.to/lastmile_qr_scan", "android": "https://dc.lft.to/lastmile_qr_scan"}, "is_reserved": 0}, {"lon": -76.941239, "bike_id": "3fa945043f2feb31cfa77f67d19313b8", "lat": 38.9082085, "fusion_lon": 0.0, "fusion_lat": 0.0, "type": "electric_scooter", "name": "3fa945043f2feb31cfa77f67d19313b8", "is_disabled": 0, "rental_uris": {"ios": "https://dc.lft.to/lastmile_qr_scan", "android": "https://dc.lft.to/lastmile_qr_scan"}, "is_reserved": 0}, {"lon": -77.03083966666667, "bike_id": "e83a9f587c26f44564823a5910cd10cf", "lat": 38.9075915, "fusion_lon": 0.0, "fusion_lat": 0.0, "type": "electric_scooter", "name": "e83a9f587c26f44564823a5910cd10cf", "is_disabled": 0, "rental_uris": {"ios": "https://dc.lft.to/lastmile_qr_scan", "android": "https://dc.lft.to/lastmile_qr_scan"}, "is_reserved": 0}, {"lon": -77.00714033333334, "bike_id": "7d1785262cf46301126f8b8fb011a25f", "lat": 38.88492333333333, "fusion_lon": 0.0, "fusion_lat": 0.0, "type": "electric_scooter", "name": "7d1785262cf46301126f8b8fb011a25f", "is_disabled": 0, "rental_uris": {"ios": "https://dc.lft.to/lastmile_qr_scan", "android": "https://dc.lft.to/lastmile_qr_scan"}, "is_reserved": 0}, {"lon": -77.03856683333333, "bike_id": "3e163612b71d30f8d7c096cdae098772", "lat": 38.9157755, "fusion_lon": 0.0, "fusion_lat": 0.0, "type": "electric_scooter", "name": "3e163612b71d30f8d7c096cdae098772", "is_disabled": 0, "rental_uris": {"ios": "https://dc.lft.to/lastmile_qr_scan", "android": "https://dc.lft.to/lastmile_qr_scan"}, "is_reserved": 0}, {"lon": -76.94798433333334, "bike_id": "9f4c0fe80f064ef5ffdfebff73ee1ed6", "lat": 38.861772333333334, "fusion_lon": 0.0, "fusion_lat": 0.0, "type": "electric_bike", "name": "9f4c0fe80f064ef5ffdfebff73ee1ed6", "is_disabled": 0, "rental_uris": {"ios": "https://dc.lft.to/lastmile_qr_scan", "android": "https://dc.lft.to/lastmile_qr_scan"}, "is_reserved": 0}, {"lon": -77.017118, "bike_id": "6fda45c35925536d091001589d9cc3d6", "lat": 38.91742583333333, "fusion_lon": 0.0, "fusion_lat": 0.0, "type": "electric_scooter", "name": "6fda45c35925536d091001589d9cc3d6", "is_disabled": 0, "rental_uris": {"ios": "https://dc.lft.to/lastmile_qr_scan", "android": "https://dc.lft.to/lastmile_qr_scan"}, "is_reserved": 0}, {"lon": -77.03385783333333, "bike_id": "478fe936945ed6122f7acaaf37c74dd1", "lat": 38.93858633333333, "fusion_lon": 0.0, "fusion_lat": 0.0, "type": "electric_scooter", "name": "478fe936945ed6122f7acaaf37c74dd1", "is_disabled": 0, "rental_uris": {"ios": "https://dc.lft.to/lastmile_qr_scan", "android": "https://dc.lft.to/lastmile_qr_scan"}, "is_reserved": 0}, {"lon": -77.00750966666666, "bike_id": "af7236cefc9759368298344b8f0f5e0e", "lat": 38.90351166666667, "fusion_lon": 0.0, "fusion_lat": 0.0, "type": "electric_bike", "name": "af7236cefc9759368298344b8f0f5e0e", "is_disabled": 0, "rental_uris": {"ios": "https://dc.lft.to/lastmile_qr_scan", "android": "https://dc.lft.to/lastmile_qr_scan"}, "is_reserved": 0}, {"lon": -77.02510583333333, "bike_id": "34bc6380004a7aa63482b83981475e41", "lat": 38.93982316666666, "fusion_lon": 0.0, "fusion_lat": 0.0, "type": "electric_scooter", "name": "34bc6380004a7aa63482b83981475e41", "is_disabled": 0, "rental_uris": {"ios": "https://dc.lft.to/lastmile_qr_scan", "android": "https://dc.lft.to/lastmile_qr_scan"}, "is_reserved": 0}, {"lon": -77.0192615, "bike_id": "53bd2c830f76250fbec75eca233b9032", "lat": 38.8924005, "fusion_lon": 0.0, "fusion_lat": 0.0, "type": "electric_scooter", "name": "53bd2c830f76250fbec75eca233b9032", "is_disabled": 0, "rental_uris": {"ios": "https://dc.lft.to/lastmile_qr_scan", "android": "https://dc.lft.to/lastmile_qr_scan"}, "is_reserved": 0}, {"lon": -77.00749, "bike_id": "b16fee371f2513cefc9941886fc0b896", "lat": 38.89911266666667, "fusion_lon": 0.0, "fusion_lat": 0.0, "type": "electric_scooter", "name": "b16fee371f2513cefc9941886fc0b896", "is_disabled": 0, "rental_uris": {"ios": "https://dc.lft.to/lastmile_qr_scan", "android": "https://dc.lft.to/lastmile_qr_scan"}, "is_reserved": 0}, {"lon": -76.9802205, "bike_id": "48013d1d19cd1f1d1704a77164cc24f0", "lat": 38.85308916666666, "fusion_lon": 0.0, "fusion_lat": 0.0, "type": "electric_bike", "name": "48013d1d19cd1f1d1704a77164cc24f0", "is_disabled": 0, "rental_uris": {"ios": "https://dc.lft.to/lastmile_qr_scan", "android": "https://dc.lft.to/lastmile_qr_scan"}, "is_reserved": 0}, {"lon": -77.0201065, "bike_id": "f612fdf9bc22bd1e8e222cad79bef9f7", "lat": 38.92400166666667, "fusion_lon": 0.0, "fusion_lat": 0.0, "type": "electric_scooter", "name": "f612fdf9bc22bd1e8e222cad79bef9f7", "is_disabled": 0, "rental_uris": {"ios": "https://dc.lft.to/lastmile_qr_scan", "android": "https://dc.lft.to/lastmile_qr_scan"}, "is_reserved": 0}, {"lon": -76.93456116666667, "bike_id": "1bd7c94a4e491b31e19a720ced0e6333", "lat": 38.96987133333333, "fusion_lon": 0.0, "fusion_lat": 0.0, "type": "electric_bike", "name": "1bd7c94a4e491b31e19a720ced0e6333", "is_disabled": 0, "rental_uris": {"ios": "https://dc.lft.to/lastmile_qr_scan", "android": "https://dc.lft.to/lastmile_qr_scan"}, "is_reserved": 0}, {"lon": -77.02424983333333, "bike_id": "dfd6696ad618ab33ccd8eb151fda21ae", "lat": 38.920468, "fusion_lon": 0.0, "fusion_lat": 0.0, "type": "electric_scooter", "name": "dfd6696ad618ab33ccd8eb151fda21ae", "is_disabled": 0, "rental_uris": {"ios": "https://dc.lft.to/lastmile_qr_scan", "android": "https://dc.lft.to/lastmile_qr_scan"}, "is_reserved": 0}, {"lon": -77.02354216666667, "bike_id": "d7313cabd651f52e253582e3be12f8ad", "lat": 38.8962815, "fusion_lon": 0.0, "fusion_lat": 0.0, "type": "electric_scooter", "name": "d7313cabd651f52e253582e3be12f8ad", "is_disabled": 0, "rental_uris": {"ios": "https://dc.lft.to/lastmile_qr_scan", "android": "https://dc.lft.to/lastmile_qr_scan"}, "is_reserved": 0}, {"lon": -77.05880833333333, "bike_id": "41e45a7cb58bde9569a3093926dccd20", "lat": 38.86283516666667, "fusion_lon": 0.0, "fusion_lat": 0.0, "type": "electric_bike", "name": "41e45a7cb58bde9569a3093926dccd20", "is_disabled": 0, "rental_uris": {"ios": "https://dc.lft.to/lastmile_qr_scan", "android": "https://dc.lft.to/lastmile_qr_scan"}, "is_reserved": 0}, {"lon": -77.01733383333334, "bike_id": "6937b927370e549073e890863feb3652", "lat": 38.916850333333336, "fusion_lon": 0.0, "fusion_lat": 0.0, "type": "electric_scooter", "name": "6937b927370e549073e890863feb3652", "is_disabled": 0, "rental_uris": {"ios": "https://dc.lft.to/lastmile_qr_scan", "android": "https://dc.lft.to/lastmile_qr_scan"}, "is_reserved": 0}, {"lon": -76.9899095, "bike_id": "4172d5b08fde51225f7a95d6c0dbea33", "lat": 38.933639166666666, "fusion_lon": 0.0, "fusion_lat": 0.0, "type": "electric_scooter", "name": "4172d5b08fde51225f7a95d6c0dbea33", "is_disabled": 0, "rental_uris": {"ios": "https://dc.lft.to/lastmile_qr_scan", "android": "https://dc.lft.to/lastmile_qr_scan"}, "is_reserved": 0}, {"lon": -77.02164, "bike_id": "da03ae36cc06ea8332a99556aaee0735", "lat": 38.95068333333333, "fusion_lon": 0.0, "fusion_lat": 0.0, "type": "electric_scooter", "name": "da03ae36cc06ea8332a99556aaee0735", "is_disabled": 0, "rental_uris": {"ios": "https://dc.lft.to/lastmile_qr_scan", "android": "https://dc.lft.to/lastmile_qr_scan"}, "is_reserved": 0}, {"lon": -77.02273533333333, "bike_id": "1498ee90dacb63995200169669a1b491", "lat": 38.878324, "fusion_lon": 0.0, "fusion_lat": 0.0, "type": "electric_scooter", "name": "1498ee90dacb63995200169669a1b491", "is_disabled": 0, "rental_uris": {"ios": "https://dc.lft.to/lastmile_qr_scan", "android": "https://dc.lft.to/lastmile_qr_scan"}, "is_reserved": 0}, {"lon": -77.0268335, "bike_id": "0603b0209b3a5abe541fb78215f60542", "lat": 38.90063633333333, "fusion_lon": 0.0, "fusion_lat": 0.0, "type": "electric_scooter", "name": "0603b0209b3a5abe541fb78215f60542", "is_disabled": 0, "rental_uris": {"ios": "https://dc.lft.to/lastmile_qr_scan", "android": "https://dc.lft.to/lastmile_qr_scan"}, "is_reserved": 0}, {"lon": -77.02954416666667, "bike_id": "847511f453acf6299a1d5a321c7080fd", "lat": 38.907238666666665, "fusion_lon": 0.0, "fusion_lat": 0.0, "type": "electric_scooter", "name": "847511f453acf6299a1d5a321c7080fd", "is_disabled": 0, "rental_uris": {"ios": "https://dc.lft.to/lastmile_qr_scan", "android": "https://dc.lft.to/lastmile_qr_scan"}, "is_reserved": 0}, {"lon": -77.02622, "bike_id": "bf60f045be2117d972e6f9658d94b695", "lat": 38.905254166666666, "fusion_lon": 0.0, "fusion_lat": 0.0, "type": "electric_scooter", "name": "bf60f045be2117d972e6f9658d94b695", "is_disabled": 0, "rental_uris": {"ios": "https://dc.lft.to/lastmile_qr_scan", "android": "https://dc.lft.to/lastmile_qr_scan"}, "is_reserved": 0}, {"lon": -76.98220733333333, "bike_id": "8abea9df63be7b82f4626f1e1b91c8a5", "lat": 38.86614683333333, "fusion_lon": 0.0, "fusion_lat": 0.0, "type": "electric_scooter", "name": "8abea9df63be7b82f4626f1e1b91c8a5", "is_disabled": 0, "rental_uris": {"ios": "https://dc.lft.to/lastmile_qr_scan", "android": "https://dc.lft.to/lastmile_qr_scan"}, "is_reserved": 0}, {"lon": -77.05043516666667, "bike_id": "3cd56ef267228bb2d211146fed65c899", "lat": 38.923568, "fusion_lon": 0.0, "fusion_lat": 0.0, "type": "electric_scooter", "name": "3cd56ef267228bb2d211146fed65c899", "is_disabled": 0, "rental_uris": {"ios": "https://dc.lft.to/lastmile_qr_scan", "android": "https://dc.lft.to/lastmile_qr_scan"}, "is_reserved": 0}, {"lon": -77.0211445, "bike_id": "0eac967d768e91859089194aeec08bcc", "lat": 38.8996125, "fusion_lon": 0.0, "fusion_lat": 0.0, "type": "electric_scooter", "name": "0eac967d768e91859089194aeec08bcc", "is_disabled": 0, "rental_uris": {"ios": "https://dc.lft.to/lastmile_qr_scan", "android": "https://dc.lft.to/lastmile_qr_scan"}, "is_reserved": 0}, {"lon": -77.05859916666667, "bike_id": "12ae13ac33216204c7a89cd5dd10a6c0", "lat": 38.936007833333335, "fusion_lon": 0.0, "fusion_lat": 0.0, "type": "electric_scooter", "name": "12ae13ac33216204c7a89cd5dd10a6c0", "is_disabled": 0, "rental_uris": {"ios": "https://dc.lft.to/lastmile_qr_scan", "android": "https://dc.lft.to/lastmile_qr_scan"}, "is_reserved": 0}, {"lon": -77.07344433333333, "bike_id": "61a25d346da26bb714efea625ecd3efe", "lat": 38.910903166666664, "fusion_lon": 0.0, "fusion_lat": 0.0, "type": "electric_scooter", "name": "61a25d346da26bb714efea625ecd3efe", "is_disabled": 0, "rental_uris": {"ios": "https://dc.lft.to/lastmile_qr_scan", "android": "https://dc.lft.to/lastmile_qr_scan"}, "is_reserved": 0}, {"lon": -77.01858333333334, "bike_id": "7398127c0d11b1b3bfd1ec78feac241c", "lat": 38.91490616666667, "fusion_lon": 0.0, "fusion_lat": 0.0, "type": "electric_scooter", "name": "7398127c0d11b1b3bfd1ec78feac241c", "is_disabled": 0, "rental_uris": {"ios": "https://dc.lft.to/lastmile_qr_scan", "android": "https://dc.lft.to/lastmile_qr_scan"}, "is_reserved": 0}, {"lon": -76.9904835, "bike_id": "b421c990a992f4966ae03457090a8af3", "lat": 38.8841515, "fusion_lon": 0.0, "fusion_lat": 0.0, "type": "electric_scooter", "name": "b421c990a992f4966ae03457090a8af3", "is_disabled": 0, "rental_uris": {"ios": "https://dc.lft.to/lastmile_qr_scan", "android": "https://dc.lft.to/lastmile_qr_scan"}, "is_reserved": 0}, {"lon": -77.00516666666667, "bike_id": "e4237faa06146de039631a48e0033fcb", "lat": 38.87467433333333, "fusion_lon": 0.0, "fusion_lat": 0.0, "type": "electric_scooter", "name": "e4237faa06146de039631a48e0033fcb", "is_disabled": 0, "rental_uris": {"ios": "https://dc.lft.to/lastmile_qr_scan", "android": "https://dc.lft.to/lastmile_qr_scan"}, "is_reserved": 0}, {"lon": -76.98350716666667, "bike_id": "bf65081799357724f18a238dc0960410", "lat": 38.90292933333333, "fusion_lon": 0.0, "fusion_lat": 0.0, "type": "electric_scooter", "name": "bf65081799357724f18a238dc0960410", "is_disabled": 0, "rental_uris": {"ios": "https://dc.lft.to/lastmile_qr_scan", "android": "https://dc.lft.to/lastmile_qr_scan"}, "is_reserved": 0}, {"lon": -77.05839483333334, "bike_id": "8591012c8e9a30e9bbbe060465e05831", "lat": 38.905367, "fusion_lon": 0.0, "fusion_lat": 0.0, "type": "electric_scooter", "name": "8591012c8e9a30e9bbbe060465e05831", "is_disabled": 0, "rental_uris": {"ios": "https://dc.lft.to/lastmile_qr_scan", "android": "https://dc.lft.to/lastmile_qr_scan"}, "is_reserved": 0}, {"lon": -77.0003405, "bike_id": "df62ee9a765a4ce04b08baa25204dc64", "lat": 38.873918833333335, "fusion_lon": 0.0, "fusion_lat": 0.0, "type": "electric_scooter", "name": "df62ee9a765a4ce04b08baa25204dc64", "is_disabled": 0, "rental_uris": {"ios": "https://dc.lft.to/lastmile_qr_scan", "android": "https://dc.lft.to/lastmile_qr_scan"}, "is_reserved": 0}, {"lon": -76.99766, "bike_id": "7ac1382623be7182a5d646c4ceed1f59", "lat": 38.924481, "fusion_lon": 0.0, "fusion_lat": 0.0, "type": "electric_scooter", "name": "7ac1382623be7182a5d646c4ceed1f59", "is_disabled": 0, "rental_uris": {"ios": "https://dc.lft.to/lastmile_qr_scan", "android": "https://dc.lft.to/lastmile_qr_scan"}, "is_reserved": 0}, {"lon": -76.97845783333334, "bike_id": "4709ef87d466b4e5e3c1d8a6263f375b", "lat": 38.8657675, "fusion_lon": 0.0, "fusion_lat": 0.0, "type": "electric_bike", "name": "4709ef87d466b4e5e3c1d8a6263f375b", "is_disabled": 0, "rental_uris": {"ios": "https://dc.lft.to/lastmile_qr_scan", "android": "https://dc.lft.to/lastmile_qr_scan"}, "is_reserved": 0}, {"lon": -77.0299155, "bike_id": "063ff4418b78e7c45b6c55841603d519", "lat": 38.974411333333336, "fusion_lon": 0.0, "fusion_lat": 0.0, "type": "electric_bike", "name": "063ff4418b78e7c45b6c55841603d519", "is_disabled": 0, "rental_uris": {"ios": "https://dc.lft.to/lastmile_qr_scan", "android": "https://dc.lft.to/lastmile_qr_scan"}, "is_reserved": 0}, {"lon": -77.058589, "bike_id": "efad423e854a76d473d8f85c6afcc79a", "lat": 38.93599066666667, "fusion_lon": 0.0, "fusion_lat": 0.0, "type": "electric_scooter", "name": "efad423e854a76d473d8f85c6afcc79a", "is_disabled": 0, "rental_uris": {"ios": "https://dc.lft.to/lastmile_qr_scan", "android": "https://dc.lft.to/lastmile_qr_scan"}, "is_reserved": 0}, {"lon": -77.05030283333333, "bike_id": "6289ad90e040a89f9557e036559e72d3", "lat": 38.89778866666666, "fusion_lon": 0.0, "fusion_lat": 0.0, "type": "electric_scooter", "name": "6289ad90e040a89f9557e036559e72d3", "is_disabled": 0, "rental_uris": {"ios": "https://dc.lft.to/lastmile_qr_scan", "android": "https://dc.lft.to/lastmile_qr_scan"}, "is_reserved": 0}, {"lon": -77.023052, "bike_id": "5998c4eeeee13bd4b9e94337b5451308", "lat": 38.909475, "fusion_lon": 0.0, "fusion_lat": 0.0, "type": "electric_scooter", "name": "5998c4eeeee13bd4b9e94337b5451308", "is_disabled": 0, "rental_uris": {"ios": "https://dc.lft.to/lastmile_qr_scan", "android": "https://dc.lft.to/lastmile_qr_scan"}, "is_reserved": 0}, {"lon": -77.05132583333334, "bike_id": "e041483c93e3d9f4d7dbe8e43be8945d", "lat": 38.9236275, "fusion_lon": 0.0, "fusion_lat": 0.0, "type": "electric_scooter", "name": "e041483c93e3d9f4d7dbe8e43be8945d", "is_disabled": 0, "rental_uris": {"ios": "https://dc.lft.to/lastmile_qr_scan", "android": "https://dc.lft.to/lastmile_qr_scan"}, "is_reserved": 0}, {"lon": -77.04539966666667, "bike_id": "17a9948003f18231e807d615859aa792", "lat": 38.913228833333335, "fusion_lon": 0.0, "fusion_lat": 0.0, "type": "electric_scooter", "name": "17a9948003f18231e807d615859aa792", "is_disabled": 0, "rental_uris": {"ios": "https://dc.lft.to/lastmile_qr_scan", "android": "https://dc.lft.to/lastmile_qr_scan"}, "is_reserved": 0}, {"lon": -77.0307335, "bike_id": "3f8c3291b56733005c96ca46d68a7708", "lat": 38.885715166666664, "fusion_lon": 0.0, "fusion_lat": 0.0, "type": "electric_scooter", "name": "3f8c3291b56733005c96ca46d68a7708", "is_disabled": 0, "rental_uris": {"ios": "https://dc.lft.to/lastmile_qr_scan", "android": "https://dc.lft.to/lastmile_qr_scan"}, "is_reserved": 0}, {"lon": -77.02345433333333, "bike_id": "f43e518d2641002b6f447cf6494f0702", "lat": 38.90387066666667, "fusion_lon": 0.0, "fusion_lat": 0.0, "type": "electric_scooter", "name": "f43e518d2641002b6f447cf6494f0702", "is_disabled": 0, "rental_uris": {"ios": "https://dc.lft.to/lastmile_qr_scan", "android": "https://dc.lft.to/lastmile_qr_scan"}, "is_reserved": 0}, {"lon": -76.98838366666666, "bike_id": "1c8ecf9801802ae20db04b35ad7a44ab", "lat": 38.9006385, "fusion_lon": 0.0, "fusion_lat": 0.0, "type": "electric_scooter", "name": "1c8ecf9801802ae20db04b35ad7a44ab", "is_disabled": 0, "rental_uris": {"ios": "https://dc.lft.to/lastmile_qr_scan", "android": "https://dc.lft.to/lastmile_qr_scan"}, "is_reserved": 0}, {"lon": -77.038686, "bike_id": "701e9850bd64016e1eacff5f44eaf6af", "lat": 38.91712966666667, "fusion_lon": 0.0, "fusion_lat": 0.0, "type": "electric_scooter", "name": "701e9850bd64016e1eacff5f44eaf6af", "is_disabled": 0, "rental_uris": {"ios": "https://dc.lft.to/lastmile_qr_scan", "android": "https://dc.lft.to/lastmile_qr_scan"}, "is_reserved": 0}, {"lon": -77.025652, "bike_id": "a7483a0b14f381884b6c1cbb4e6ff40a", "lat": 38.94180383333333, "fusion_lon": 0.0, "fusion_lat": 0.0, "type": "electric_scooter", "name": "a7483a0b14f381884b6c1cbb4e6ff40a", "is_disabled": 0, "rental_uris": {"ios": "https://dc.lft.to/lastmile_qr_scan", "android": "https://dc.lft.to/lastmile_qr_scan"}, "is_reserved": 0}, {"lon": -77.0402845, "bike_id": "ec2462ccd52d2d6ec92211b84a7a1d80", "lat": 38.915985166666665, "fusion_lon": 0.0, "fusion_lat": 0.0, "type": "electric_scooter", "name": "ec2462ccd52d2d6ec92211b84a7a1d80", "is_disabled": 0, "rental_uris": {"ios": "https://dc.lft.to/lastmile_qr_scan", "android": "https://dc.lft.to/lastmile_qr_scan"}, "is_reserved": 0}, {"lon": -77.0246715, "bike_id": "00126fb4332c253698600a892943a1cd", "lat": 38.916911, "fusion_lon": 0.0, "fusion_lat": 0.0, "type": "electric_scooter", "name": "00126fb4332c253698600a892943a1cd", "is_disabled": 0, "rental_uris": {"ios": "https://dc.lft.to/lastmile_qr_scan", "android": "https://dc.lft.to/lastmile_qr_scan"}, "is_reserved": 0}, {"lon": -76.98370800000001, "bike_id": "ea2acd100ef026f88285a17a92a6a21f", "lat": 38.8914125, "fusion_lon": 0.0, "fusion_lat": 0.0, "type": "electric_scooter", "name": "ea2acd100ef026f88285a17a92a6a21f", "is_disabled": 0, "rental_uris": {"ios": "https://dc.lft.to/lastmile_qr_scan", "android": "https://dc.lft.to/lastmile_qr_scan"}, "is_reserved": 0}, {"lon": -77.06129516666667, "bike_id": "63afe4f24ce2e3fe040806467e4f8c36", "lat": 38.943668333333335, "fusion_lon": 0.0, "fusion_lat": 0.0, "type": "electric_scooter", "name": "63afe4f24ce2e3fe040806467e4f8c36", "is_disabled": 0, "rental_uris": {"ios": "https://dc.lft.to/lastmile_qr_scan", "android": "https://dc.lft.to/lastmile_qr_scan"}, "is_reserved": 0}, {"lon": -76.98569566666667, "bike_id": "9d04069b694b0acf7d6953241aee6aa5", "lat": 38.896143, "fusion_lon": 0.0, "fusion_lat": 0.0, "type": "electric_scooter", "name": "9d04069b694b0acf7d6953241aee6aa5", "is_disabled": 0, "rental_uris": {"ios": "https://dc.lft.to/lastmile_qr_scan", "android": "https://dc.lft.to/lastmile_qr_scan"}, "is_reserved": 0}, {"lon": -77.0319865, "bike_id": "40862e4f5f94f8bee7ed4f8945726757", "lat": 38.93597716666667, "fusion_lon": 0.0, "fusion_lat": 0.0, "type": "electric_scooter", "name": "40862e4f5f94f8bee7ed4f8945726757", "is_disabled": 0, "rental_uris": {"ios": "https://dc.lft.to/lastmile_qr_scan", "android": "https://dc.lft.to/lastmile_qr_scan"}, "is_reserved": 0}, {"lon": -77.03381916666666, "bike_id": "8add4484df2c5a01416818d8df840848", "lat": 38.899718, "fusion_lon": 0.0, "fusion_lat": 0.0, "type": "electric_scooter", "name": "8add4484df2c5a01416818d8df840848", "is_disabled": 0, "rental_uris": {"ios": "https://dc.lft.to/lastmile_qr_scan", "android": "https://dc.lft.to/lastmile_qr_scan"}, "is_reserved": 0}, {"lon": -77.04823816666666, "bike_id": "c880f529bb71e00f8268604a500393ad", "lat": 38.90726866666667, "fusion_lon": 0.0, "fusion_lat": 0.0, "type": "electric_scooter", "name": "c880f529bb71e00f8268604a500393ad", "is_disabled": 0, "rental_uris": {"ios": "https://dc.lft.to/lastmile_qr_scan", "android": "https://dc.lft.to/lastmile_qr_scan"}, "is_reserved": 0}, {"lon": -76.99814166666667, "bike_id": "262aa13956afff18cabc94c6cb6b0dde", "lat": 38.82902716666667, "fusion_lon": 0.0, "fusion_lat": 0.0, "type": "electric_bike", "name": "262aa13956afff18cabc94c6cb6b0dde", "is_disabled": 0, "rental_uris": {"ios": "https://dc.lft.to/lastmile_qr_scan", "android": "https://dc.lft.to/lastmile_qr_scan"}, "is_reserved": 0}, {"lon": -77.04333483333333, "bike_id": "37c277cf674dd2fd654bb6f31fa0c679", "lat": 38.915798833333334, "fusion_lon": 0.0, "fusion_lat": 0.0, "type": "electric_scooter", "name": "37c277cf674dd2fd654bb6f31fa0c679", "is_disabled": 0, "rental_uris": {"ios": "https://dc.lft.to/lastmile_qr_scan", "android": "https://dc.lft.to/lastmile_qr_scan"}, "is_reserved": 0}, {"lon": -77.0208635, "bike_id": "38bd940e5fabfab779ae86584efe3f0b", "lat": 38.92704583333333, "fusion_lon": 0.0, "fusion_lat": 0.0, "type": "electric_scooter", "name": "38bd940e5fabfab779ae86584efe3f0b", "is_disabled": 0, "rental_uris": {"ios": "https://dc.lft.to/lastmile_qr_scan", "android": "https://dc.lft.to/lastmile_qr_scan"}, "is_reserved": 0}, {"lon": -77.03665583333333, "bike_id": "f6b8c984db769ce49cf309a7d0a577c3", "lat": 38.92096816666667, "fusion_lon": 0.0, "fusion_lat": 0.0, "type": "electric_scooter", "name": "f6b8c984db769ce49cf309a7d0a577c3", "is_disabled": 0, "rental_uris": {"ios": "https://dc.lft.to/lastmile_qr_scan", "android": "https://dc.lft.to/lastmile_qr_scan"}, "is_reserved": 0}, {"lon": -77.01347616666666, "bike_id": "ba1577c6b29618614078a80b2f152632", "lat": 38.878136166666664, "fusion_lon": 0.0, "fusion_lat": 0.0, "type": "electric_scooter", "name": "ba1577c6b29618614078a80b2f152632", "is_disabled": 0, "rental_uris": {"ios": "https://dc.lft.to/lastmile_qr_scan", "android": "https://dc.lft.to/lastmile_qr_scan"}, "is_reserved": 0}, {"lon": -77.11710683333334, "bike_id": "772da1805aeb2e3d3868c98cec7c63d7", "lat": 38.867390666666665, "fusion_lon": 0.0, "fusion_lat": 0.0, "type": "electric_bike", "name": "772da1805aeb2e3d3868c98cec7c63d7", "is_disabled": 0, "rental_uris": {"ios": "https://dc.lft.to/lastmile_qr_scan", "android": "https://dc.lft.to/lastmile_qr_scan"}, "is_reserved": 0}, {"lon": -76.98533683333333, "bike_id": "8dbefb1c328a59e8fe3bc1db6f2af7f3", "lat": 38.90454616666667, "fusion_lon": 0.0, "fusion_lat": 0.0, "type": "electric_scooter", "name": "8dbefb1c328a59e8fe3bc1db6f2af7f3", "is_disabled": 0, "rental_uris": {"ios": "https://dc.lft.to/lastmile_qr_scan", "android": "https://dc.lft.to/lastmile_qr_scan"}, "is_reserved": 0}, {"lon": -77.03448466666667, "bike_id": "6e307322a8abff9aa98d96793a9ab31b", "lat": 38.927301666666665, "fusion_lon": 0.0, "fusion_lat": 0.0, "type": "electric_scooter", "name": "6e307322a8abff9aa98d96793a9ab31b", "is_disabled": 0, "rental_uris": {"ios": "https://dc.lft.to/lastmile_qr_scan", "android": "https://dc.lft.to/lastmile_qr_scan"}, "is_reserved": 0}, {"lon": -77.00100716666667, "bike_id": "0d1746a72b6e7ac157afaeae72982ee8", "lat": 38.916351166666665, "fusion_lon": 0.0, "fusion_lat": 0.0, "type": "electric_scooter", "name": "0d1746a72b6e7ac157afaeae72982ee8", "is_disabled": 0, "rental_uris": {"ios": "https://dc.lft.to/lastmile_qr_scan", "android": "https://dc.lft.to/lastmile_qr_scan"}, "is_reserved": 0}, {"lon": -77.0244405, "bike_id": "4e05b22bb727766f087022bd800b5b11", "lat": 38.90710033333333, "fusion_lon": 0.0, "fusion_lat": 0.0, "type": "electric_scooter", "name": "4e05b22bb727766f087022bd800b5b11", "is_disabled": 0, "rental_uris": {"ios": "https://dc.lft.to/lastmile_qr_scan", "android": "https://dc.lft.to/lastmile_qr_scan"}, "is_reserved": 0}, {"lon": -77.02418116666666, "bike_id": "0739d069b0ed0a04241a3ad24efdc968", "lat": 38.90971733333333, "fusion_lon": 0.0, "fusion_lat": 0.0, "type": "electric_scooter", "name": "0739d069b0ed0a04241a3ad24efdc968", "is_disabled": 0, "rental_uris": {"ios": "https://dc.lft.to/lastmile_qr_scan", "android": "https://dc.lft.to/lastmile_qr_scan"}, "is_reserved": 0}, {"lon": -76.98840966666667, "bike_id": "76c9593738323b72b41ec61db1d45aa8", "lat": 38.900646, "fusion_lon": 0.0, "fusion_lat": 0.0, "type": "electric_scooter", "name": "76c9593738323b72b41ec61db1d45aa8", "is_disabled": 0, "rental_uris": {"ios": "https://dc.lft.to/lastmile_qr_scan", "android": "https://dc.lft.to/lastmile_qr_scan"}, "is_reserved": 0}, {"lon": -77.0349975, "bike_id": "0fc1efe52a5df4360988186ca58a27d4", "lat": 38.93751016666667, "fusion_lon": 0.0, "fusion_lat": 0.0, "type": "electric_scooter", "name": "0fc1efe52a5df4360988186ca58a27d4", "is_disabled": 0, "rental_uris": {"ios": "https://dc.lft.to/lastmile_qr_scan", "android": "https://dc.lft.to/lastmile_qr_scan"}, "is_reserved": 0}, {"lon": -77.01604533333334, "bike_id": "72831ab9bc8afbaf6c2f062ee6d0e50d", "lat": 38.8996455, "fusion_lon": 0.0, "fusion_lat": 0.0, "type": "electric_scooter", "name": "72831ab9bc8afbaf6c2f062ee6d0e50d", "is_disabled": 0, "rental_uris": {"ios": "https://dc.lft.to/lastmile_qr_scan", "android": "https://dc.lft.to/lastmile_qr_scan"}, "is_reserved": 0}, {"lon": -77.08459183333333, "bike_id": "226ed9ba655d98b912e1c31f8abc68f8", "lat": 38.84812083333333, "fusion_lon": 0.0, "fusion_lat": 0.0, "type": "electric_bike", "name": "226ed9ba655d98b912e1c31f8abc68f8", "is_disabled": 0, "rental_uris": {"ios": "https://dc.lft.to/lastmile_qr_scan", "android": "https://dc.lft.to/lastmile_qr_scan"}, "is_reserved": 0}, {"lon": -77.07156166666667, "bike_id": "8743c3b0c3656b5fdde01ec86e2ad7f5", "lat": 38.9087135, "fusion_lon": 0.0, "fusion_lat": 0.0, "type": "electric_scooter", "name": "8743c3b0c3656b5fdde01ec86e2ad7f5", "is_disabled": 0, "rental_uris": {"ios": "https://dc.lft.to/lastmile_qr_scan", "android": "https://dc.lft.to/lastmile_qr_scan"}, "is_reserved": 0}, {"lon": -77.04087683333333, "bike_id": "259d794eb46cfd1c428be6309f031d08", "lat": 38.907128166666666, "fusion_lon": 0.0, "fusion_lat": 0.0, "type": "electric_scooter", "name": "259d794eb46cfd1c428be6309f031d08", "is_disabled": 0, "rental_uris": {"ios": "https://dc.lft.to/lastmile_qr_scan", "android": "https://dc.lft.to/lastmile_qr_scan"}, "is_reserved": 0}, {"lon": -77.0327805, "bike_id": "5bb61383faf66ff1f086e33da8f64d0b", "lat": 38.91811416666667, "fusion_lon": 0.0, "fusion_lat": 0.0, "type": "electric_scooter", "name": "5bb61383faf66ff1f086e33da8f64d0b", "is_disabled": 0, "rental_uris": {"ios": "https://dc.lft.to/lastmile_qr_scan", "android": "https://dc.lft.to/lastmile_qr_scan"}, "is_reserved": 0}, {"lon": -77.02424316666666, "bike_id": "0b09f47b1ee9f0340f9d3b61f93253d0", "lat": 38.92654066666667, "fusion_lon": 0.0, "fusion_lat": 0.0, "type": "electric_scooter", "name": "0b09f47b1ee9f0340f9d3b61f93253d0", "is_disabled": 0, "rental_uris": {"ios": "https://dc.lft.to/lastmile_qr_scan", "android": "https://dc.lft.to/lastmile_qr_scan"}, "is_reserved": 0}, {"lon": -77.042437, "bike_id": "350169f4278ae53c74c08c6327f9c58f", "lat": 38.921719333333336, "fusion_lon": 0.0, "fusion_lat": 0.0, "type": "electric_scooter", "name": "350169f4278ae53c74c08c6327f9c58f", "is_disabled": 0, "rental_uris": {"ios": "https://dc.lft.to/lastmile_qr_scan", "android": "https://dc.lft.to/lastmile_qr_scan"}, "is_reserved": 0}, {"lon": -77.00356766666667, "bike_id": "cba0ca35d138194035fcbb8c965afaab", "lat": 38.92050866666666, "fusion_lon": 0.0, "fusion_lat": 0.0, "type": "electric_scooter", "name": "cba0ca35d138194035fcbb8c965afaab", "is_disabled": 0, "rental_uris": {"ios": "https://dc.lft.to/lastmile_qr_scan", "android": "https://dc.lft.to/lastmile_qr_scan"}, "is_reserved": 0}, {"lon": -77.034078, "bike_id": "5d2c0e56bbc51ea0fcfab34f63a17f78", "lat": 38.922487833333335, "fusion_lon": 0.0, "fusion_lat": 0.0, "type": "electric_scooter", "name": "5d2c0e56bbc51ea0fcfab34f63a17f78", "is_disabled": 0, "rental_uris": {"ios": "https://dc.lft.to/lastmile_qr_scan", "android": "https://dc.lft.to/lastmile_qr_scan"}, "is_reserved": 0}, {"lon": -77.041595, "bike_id": "983d3799afc908d257e7740f7794e86d", "lat": 38.9035935, "fusion_lon": 0.0, "fusion_lat": 0.0, "type": "electric_scooter", "name": "983d3799afc908d257e7740f7794e86d", "is_disabled": 0, "rental_uris": {"ios": "https://dc.lft.to/lastmile_qr_scan", "android": "https://dc.lft.to/lastmile_qr_scan"}, "is_reserved": 0}, {"lon": -77.0311645, "bike_id": "fe5e7126650d0c50106ea1dbb7b56491", "lat": 38.920135, "fusion_lon": 0.0, "fusion_lat": 0.0, "type": "electric_scooter", "name": "fe5e7126650d0c50106ea1dbb7b56491", "is_disabled": 0, "rental_uris": {"ios": "https://dc.lft.to/lastmile_qr_scan", "android": "https://dc.lft.to/lastmile_qr_scan"}, "is_reserved": 0}, {"lon": -77.1874235, "bike_id": "0f0acdf4157d4f4d592a0ce031096efa", "lat": 38.89352433333333, "fusion_lon": 0.0, "fusion_lat": 0.0, "type": "electric_bike", "name": "0f0acdf4157d4f4d592a0ce031096efa", "is_disabled": 0, "rental_uris": {"ios": "https://dc.lft.to/lastmile_qr_scan", "android": "https://dc.lft.to/lastmile_qr_scan"}, "is_reserved": 0}, {"lon": -77.013323, "bike_id": "81dff9621f3f68decc67ac2b5ed68684", "lat": 38.879178833333334, "fusion_lon": 0.0, "fusion_lat": 0.0, "type": "electric_scooter", "name": "81dff9621f3f68decc67ac2b5ed68684", "is_disabled": 0, "rental_uris": {"ios": "https://dc.lft.to/lastmile_qr_scan", "android": "https://dc.lft.to/lastmile_qr_scan"}, "is_reserved": 0}, {"lon": -77.055364, "bike_id": "97ddd19794a0095c06b5d3deeb993e3a", "lat": 38.934266666666666, "fusion_lon": 0.0, "fusion_lat": 0.0, "type": "electric_scooter", "name": "97ddd19794a0095c06b5d3deeb993e3a", "is_disabled": 0, "rental_uris": {"ios": "https://dc.lft.to/lastmile_qr_scan", "android": "https://dc.lft.to/lastmile_qr_scan"}, "is_reserved": 0}, {"lon": -77.03926, "bike_id": "22b7b345f8911c8d27ba53165ccddc6f", "lat": 38.9235425, "fusion_lon": 0.0, "fusion_lat": 0.0, "type": "electric_scooter", "name": "22b7b345f8911c8d27ba53165ccddc6f", "is_disabled": 0, "rental_uris": {"ios": "https://dc.lft.to/lastmile_qr_scan", "android": "https://dc.lft.to/lastmile_qr_scan"}, "is_reserved": 0}, {"lon": -76.96495883333333, "bike_id": "062ff91d4bbfc176b09ce1d97a5cfbd5", "lat": 38.87643466666667, "fusion_lon": 0.0, "fusion_lat": 0.0, "type": "electric_scooter", "name": "062ff91d4bbfc176b09ce1d97a5cfbd5", "is_disabled": 0, "rental_uris": {"ios": "https://dc.lft.to/lastmile_qr_scan", "android": "https://dc.lft.to/lastmile_qr_scan"}, "is_reserved": 0}, {"lon": -77.10810083333334, "bike_id": "2f7112718a7aa775e28585cd3c13e44a", "lat": 38.81202966666667, "fusion_lon": 0.0, "fusion_lat": 0.0, "type": "electric_bike", "name": "2f7112718a7aa775e28585cd3c13e44a", "is_disabled": 0, "rental_uris": {"ios": "https://dc.lft.to/lastmile_qr_scan", "android": "https://dc.lft.to/lastmile_qr_scan"}, "is_reserved": 0}, {"lon": -77.045977, "bike_id": "3479aa0fbbe4c22d49fcbe399d46c253", "lat": 38.913601, "fusion_lon": 0.0, "fusion_lat": 0.0, "type": "electric_scooter", "name": "3479aa0fbbe4c22d49fcbe399d46c253", "is_disabled": 0, "rental_uris": {"ios": "https://dc.lft.to/lastmile_qr_scan", "android": "https://dc.lft.to/lastmile_qr_scan"}, "is_reserved": 0}, {"lon": -77.010752, "bike_id": "1f39a4f1da0d1c67bc476677fc48ddbb", "lat": 38.89439383333333, "fusion_lon": 0.0, "fusion_lat": 0.0, "type": "electric_scooter", "name": "1f39a4f1da0d1c67bc476677fc48ddbb", "is_disabled": 0, "rental_uris": {"ios": "https://dc.lft.to/lastmile_qr_scan", "android": "https://dc.lft.to/lastmile_qr_scan"}, "is_reserved": 0}, {"lon": -77.062994, "bike_id": "6d7dc51398c8286686c4ad12374da3a9", "lat": 38.90684516666666, "fusion_lon": 0.0, "fusion_lat": 0.0, "type": "electric_scooter", "name": "6d7dc51398c8286686c4ad12374da3a9", "is_disabled": 0, "rental_uris": {"ios": "https://dc.lft.to/lastmile_qr_scan", "android": "https://dc.lft.to/lastmile_qr_scan"}, "is_reserved": 0}, {"lon": -76.99869483333333, "bike_id": "5fb24d7ff686a17b03c433262a4d0a44", "lat": 38.90018216666667, "fusion_lon": 0.0, "fusion_lat": 0.0, "type": "electric_scooter", "name": "5fb24d7ff686a17b03c433262a4d0a44", "is_disabled": 0, "rental_uris": {"ios": "https://dc.lft.to/lastmile_qr_scan", "android": "https://dc.lft.to/lastmile_qr_scan"}, "is_reserved": 0}, {"lon": -76.98553416666667, "bike_id": "fad20ebd1eceaa08cc2270d75089b595", "lat": 38.92501766666667, "fusion_lon": 0.0, "fusion_lat": 0.0, "type": "electric_bike", "name": "fad20ebd1eceaa08cc2270d75089b595", "is_disabled": 0, "rental_uris": {"ios": "https://dc.lft.to/lastmile_qr_scan", "android": "https://dc.lft.to/lastmile_qr_scan"}, "is_reserved": 0}, {"lon": -77.01325283333334, "bike_id": "3fbda58a63a8d1b0f32089cf07448570", "lat": 38.88038233333333, "fusion_lon": 0.0, "fusion_lat": 0.0, "type": "electric_bike", "name": "3fbda58a63a8d1b0f32089cf07448570", "is_disabled": 0, "rental_uris": {"ios": "https://dc.lft.to/lastmile_qr_scan", "android": "https://dc.lft.to/lastmile_qr_scan"}, "is_reserved": 0}, {"lon": -77.036412, "bike_id": "e2c7554bc0a893455b963427a9d23ac3", "lat": 38.93666433333333, "fusion_lon": 0.0, "fusion_lat": 0.0, "type": "electric_scooter", "name": "e2c7554bc0a893455b963427a9d23ac3", "is_disabled": 0, "rental_uris": {"ios": "https://dc.lft.to/lastmile_qr_scan", "android": "https://dc.lft.to/lastmile_qr_scan"}, "is_reserved": 0}, {"lon": -77.0151915, "bike_id": "349ce6be4e293f987aed5ab3b233874d", "lat": 38.88493583333333, "fusion_lon": 0.0, "fusion_lat": 0.0, "type": "electric_scooter", "name": "349ce6be4e293f987aed5ab3b233874d", "is_disabled": 0, "rental_uris": {"ios": "https://dc.lft.to/lastmile_qr_scan", "android": "https://dc.lft.to/lastmile_qr_scan"}, "is_reserved": 0}, {"lon": -77.033486, "bike_id": "86811dd06be3e869fa6f4d4a3aba1e51", "lat": 38.89224433333333, "fusion_lon": 0.0, "fusion_lat": 0.0, "type": "electric_scooter", "name": "86811dd06be3e869fa6f4d4a3aba1e51", "is_disabled": 0, "rental_uris": {"ios": "https://dc.lft.to/lastmile_qr_scan", "android": "https://dc.lft.to/lastmile_qr_scan"}, "is_reserved": 0}, {"lon": -77.02697583333334, "bike_id": "ff8d24a14a912a06ccb20f0fa48be769", "lat": 38.897639833333336, "fusion_lon": 0.0, "fusion_lat": 0.0, "type": "electric_scooter", "name": "ff8d24a14a912a06ccb20f0fa48be769", "is_disabled": 0, "rental_uris": {"ios": "https://dc.lft.to/lastmile_qr_scan", "android": "https://dc.lft.to/lastmile_qr_scan"}, "is_reserved": 0}, {"lon": -77.000068, "bike_id": "e8a095f36abae5db28e931b1a25e0f36", "lat": 38.897422, "fusion_lon": 0.0, "fusion_lat": 0.0, "type": "electric_scooter", "name": "e8a095f36abae5db28e931b1a25e0f36", "is_disabled": 0, "rental_uris": {"ios": "https://dc.lft.to/lastmile_qr_scan", "android": "https://dc.lft.to/lastmile_qr_scan"}, "is_reserved": 0}, {"lon": -77.06488433333334, "bike_id": "4a50bcc279063ccb979c0ed6ef3cf1ea", "lat": 38.9096785, "fusion_lon": 0.0, "fusion_lat": 0.0, "type": "electric_scooter", "name": "4a50bcc279063ccb979c0ed6ef3cf1ea", "is_disabled": 0, "rental_uris": {"ios": "https://dc.lft.to/lastmile_qr_scan", "android": "https://dc.lft.to/lastmile_qr_scan"}, "is_reserved": 0}, {"lon": -77.00678583333334, "bike_id": "1133de17a481882d62d9b44f7200058c", "lat": 38.9000435, "fusion_lon": 0.0, "fusion_lat": 0.0, "type": "electric_scooter", "name": "1133de17a481882d62d9b44f7200058c", "is_disabled": 0, "rental_uris": {"ios": "https://dc.lft.to/lastmile_qr_scan", "android": "https://dc.lft.to/lastmile_qr_scan"}, "is_reserved": 0}, {"lon": -77.01896683333334, "bike_id": "416f01601fc10ddb4954d41cff730450", "lat": 38.87469866666667, "fusion_lon": 0.0, "fusion_lat": 0.0, "type": "electric_scooter", "name": "416f01601fc10ddb4954d41cff730450", "is_disabled": 0, "rental_uris": {"ios": "https://dc.lft.to/lastmile_qr_scan", "android": "https://dc.lft.to/lastmile_qr_scan"}, "is_reserved": 0}, {"lon": -77.04492883333333, "bike_id": "0a1c2a5910e47655b6c541b861769f03", "lat": 38.89823483333333, "fusion_lon": 0.0, "fusion_lat": 0.0, "type": "electric_scooter", "name": "0a1c2a5910e47655b6c541b861769f03", "is_disabled": 0, "rental_uris": {"ios": "https://dc.lft.to/lastmile_qr_scan", "android": "https://dc.lft.to/lastmile_qr_scan"}, "is_reserved": 0}, {"lon": -77.02033583333333, "bike_id": "217e3abce6a070b2383dcbf76460a841", "lat": 38.916549, "fusion_lon": 0.0, "fusion_lat": 0.0, "type": "electric_scooter", "name": "217e3abce6a070b2383dcbf76460a841", "is_disabled": 0, "rental_uris": {"ios": "https://dc.lft.to/lastmile_qr_scan", "android": "https://dc.lft.to/lastmile_qr_scan"}, "is_reserved": 0}, {"lon": -77.04343633333333, "bike_id": "8f0f20bced1337ce0c08488ab4a0a18c", "lat": 38.9082915, "fusion_lon": 0.0, "fusion_lat": 0.0, "type": "electric_scooter", "name": "8f0f20bced1337ce0c08488ab4a0a18c", "is_disabled": 0, "rental_uris": {"ios": "https://dc.lft.to/lastmile_qr_scan", "android": "https://dc.lft.to/lastmile_qr_scan"}, "is_reserved": 0}, {"lon": -77.11916166666667, "bike_id": "6c9dd48ea83a6e3610733d9127734c6b", "lat": 38.87633, "fusion_lon": 0.0, "fusion_lat": 0.0, "type": "electric_bike", "name": "6c9dd48ea83a6e3610733d9127734c6b", "is_disabled": 0, "rental_uris": {"ios": "https://dc.lft.to/lastmile_qr_scan", "android": "https://dc.lft.to/lastmile_qr_scan"}, "is_reserved": 0}, {"lon": -77.02618683333333, "bike_id": "36d30ea9d90fb462235a0eb95d20e8f5", "lat": 38.900719333333335, "fusion_lon": 0.0, "fusion_lat": 0.0, "type": "electric_scooter", "name": "36d30ea9d90fb462235a0eb95d20e8f5", "is_disabled": 0, "rental_uris": {"ios": "https://dc.lft.to/lastmile_qr_scan", "android": "https://dc.lft.to/lastmile_qr_scan"}, "is_reserved": 0}, {"lon": -77.02350483333333, "bike_id": "932e427670d2938dcca8105323156c34", "lat": 38.91162716666667, "fusion_lon": 0.0, "fusion_lat": 0.0, "type": "electric_scooter", "name": "932e427670d2938dcca8105323156c34", "is_disabled": 0, "rental_uris": {"ios": "https://dc.lft.to/lastmile_qr_scan", "android": "https://dc.lft.to/lastmile_qr_scan"}, "is_reserved": 0}, {"lon": -77.01053316666666, "bike_id": "3835abb261ec47f000804a618e05184c", "lat": 38.963539, "fusion_lon": 0.0, "fusion_lat": 0.0, "type": "electric_scooter", "name": "3835abb261ec47f000804a618e05184c", "is_disabled": 0, "rental_uris": {"ios": "https://dc.lft.to/lastmile_qr_scan", "android": "https://dc.lft.to/lastmile_qr_scan"}, "is_reserved": 0}, {"lon": -77.02570216666666, "bike_id": "c856f9787b44ed00a060f77ca51df6e4", "lat": 38.925769333333335, "fusion_lon": 0.0, "fusion_lat": 0.0, "type": "electric_scooter", "name": "c856f9787b44ed00a060f77ca51df6e4", "is_disabled": 0, "rental_uris": {"ios": "https://dc.lft.to/lastmile_qr_scan", "android": "https://dc.lft.to/lastmile_qr_scan"}, "is_reserved": 0}, {"lon": -77.0416225, "bike_id": "de2a7a8a99bb3cdfe838b4bad07f0e51", "lat": 38.90374466666667, "fusion_lon": 0.0, "fusion_lat": 0.0, "type": "electric_scooter", "name": "de2a7a8a99bb3cdfe838b4bad07f0e51", "is_disabled": 0, "rental_uris": {"ios": "https://dc.lft.to/lastmile_qr_scan", "android": "https://dc.lft.to/lastmile_qr_scan"}, "is_reserved": 0}, {"lon": -76.988964, "bike_id": "6412b0719704ff52a744aa286b0d9f7f", "lat": 38.91342816666667, "fusion_lon": 0.0, "fusion_lat": 0.0, "type": "electric_scooter", "name": "6412b0719704ff52a744aa286b0d9f7f", "is_disabled": 0, "rental_uris": {"ios": "https://dc.lft.to/lastmile_qr_scan", "android": "https://dc.lft.to/lastmile_qr_scan"}, "is_reserved": 0}, {"lon": -77.059742, "bike_id": "f8bce569e3d6cb926c9c48b12d5f38a0", "lat": 38.862373166666664, "fusion_lon": 0.0, "fusion_lat": 0.0, "type": "electric_scooter", "name": "f8bce569e3d6cb926c9c48b12d5f38a0", "is_disabled": 0, "rental_uris": {"ios": "https://dc.lft.to/lastmile_qr_scan", "android": "https://dc.lft.to/lastmile_qr_scan"}, "is_reserved": 0}, {"lon": -77.04261133333333, "bike_id": "3df34c4405c213df110d5e6f5421f478", "lat": 38.92254, "fusion_lon": 0.0, "fusion_lat": 0.0, "type": "electric_scooter", "name": "3df34c4405c213df110d5e6f5421f478", "is_disabled": 0, "rental_uris": {"ios": "https://dc.lft.to/lastmile_qr_scan", "android": "https://dc.lft.to/lastmile_qr_scan"}, "is_reserved": 0}, {"lon": -77.00206233333333, "bike_id": "eb8e6c61e454842b48db6b5d00eb564d", "lat": 38.9023035, "fusion_lon": 0.0, "fusion_lat": 0.0, "type": "electric_scooter", "name": "eb8e6c61e454842b48db6b5d00eb564d", "is_disabled": 0, "rental_uris": {"ios": "https://dc.lft.to/lastmile_qr_scan", "android": "https://dc.lft.to/lastmile_qr_scan"}, "is_reserved": 0}, {"lon": -77.02935433333333, "bike_id": "3904ff4cfaa15f0327b342307fe65b4f", "lat": 38.92081183333333, "fusion_lon": 0.0, "fusion_lat": 0.0, "type": "electric_scooter", "name": "3904ff4cfaa15f0327b342307fe65b4f", "is_disabled": 0, "rental_uris": {"ios": "https://dc.lft.to/lastmile_qr_scan", "android": "https://dc.lft.to/lastmile_qr_scan"}, "is_reserved": 0}, {"lon": -77.0298485, "bike_id": "401bbbe7e89c88b554c0ec21bf52449b", "lat": 38.902892666666666, "fusion_lon": 0.0, "fusion_lat": 0.0, "type": "electric_scooter", "name": "401bbbe7e89c88b554c0ec21bf52449b", "is_disabled": 0, "rental_uris": {"ios": "https://dc.lft.to/lastmile_qr_scan", "android": "https://dc.lft.to/lastmile_qr_scan"}, "is_reserved": 0}, {"lon": -77.05233766666667, "bike_id": "54450ca6e9587808629a22eba93db608", "lat": 38.924563166666665, "fusion_lon": 0.0, "fusion_lat": 0.0, "type": "electric_scooter", "name": "54450ca6e9587808629a22eba93db608", "is_disabled": 0, "rental_uris": {"ios": "https://dc.lft.to/lastmile_qr_scan", "android": "https://dc.lft.to/lastmile_qr_scan"}, "is_reserved": 0}, {"lon": -77.00844433333333, "bike_id": "0d0b64b2066fd9ed4e19de1c9a54c494", "lat": 38.91620566666667, "fusion_lon": 0.0, "fusion_lat": 0.0, "type": "electric_scooter", "name": "0d0b64b2066fd9ed4e19de1c9a54c494", "is_disabled": 0, "rental_uris": {"ios": "https://dc.lft.to/lastmile_qr_scan", "android": "https://dc.lft.to/lastmile_qr_scan"}, "is_reserved": 0}, {"lon": -77.02049933333333, "bike_id": "2f4f9438f83b0fc2c908614023b0535f", "lat": 38.91552033333333, "fusion_lon": 0.0, "fusion_lat": 0.0, "type": "electric_scooter", "name": "2f4f9438f83b0fc2c908614023b0535f", "is_disabled": 0, "rental_uris": {"ios": "https://dc.lft.to/lastmile_qr_scan", "android": "https://dc.lft.to/lastmile_qr_scan"}, "is_reserved": 0}, {"lon": -77.0340855, "bike_id": "db89250543713de662be254d1748e2ad", "lat": 38.901597833333334, "fusion_lon": 0.0, "fusion_lat": 0.0, "type": "electric_scooter", "name": "db89250543713de662be254d1748e2ad", "is_disabled": 0, "rental_uris": {"ios": "https://dc.lft.to/lastmile_qr_scan", "android": "https://dc.lft.to/lastmile_qr_scan"}, "is_reserved": 0}, {"lon": -77.03445383333333, "bike_id": "69dffc432adf346d69db08205dbc42ec", "lat": 38.934334, "fusion_lon": 0.0, "fusion_lat": 0.0, "type": "electric_scooter", "name": "69dffc432adf346d69db08205dbc42ec", "is_disabled": 0, "rental_uris": {"ios": "https://dc.lft.to/lastmile_qr_scan", "android": "https://dc.lft.to/lastmile_qr_scan"}, "is_reserved": 0}, {"lon": -77.0462905, "bike_id": "87e468709c9b471093127e6184e0d258", "lat": 38.9076395, "fusion_lon": 0.0, "fusion_lat": 0.0, "type": "electric_scooter", "name": "87e468709c9b471093127e6184e0d258", "is_disabled": 0, "rental_uris": {"ios": "https://dc.lft.to/lastmile_qr_scan", "android": "https://dc.lft.to/lastmile_qr_scan"}, "is_reserved": 0}, {"lon": -77.041616, "bike_id": "6dd536da812a7f5d6292658f77be497b", "lat": 38.915499833333335, "fusion_lon": 0.0, "fusion_lat": 0.0, "type": "electric_scooter", "name": "6dd536da812a7f5d6292658f77be497b", "is_disabled": 0, "rental_uris": {"ios": "https://dc.lft.to/lastmile_qr_scan", "android": "https://dc.lft.to/lastmile_qr_scan"}, "is_reserved": 0}, {"lon": -76.99946716666666, "bike_id": "c3fbc7ab09826e1797215633a104aa83", "lat": 38.908649833333335, "fusion_lon": 0.0, "fusion_lat": 0.0, "type": "electric_scooter", "name": "c3fbc7ab09826e1797215633a104aa83", "is_disabled": 0, "rental_uris": {"ios": "https://dc.lft.to/lastmile_qr_scan", "android": "https://dc.lft.to/lastmile_qr_scan"}, "is_reserved": 0}, {"lon": -77.005681, "bike_id": "d866c10b7e40d747211ffad1285d5978", "lat": 38.874637166666666, "fusion_lon": 0.0, "fusion_lat": 0.0, "type": "electric_scooter", "name": "d866c10b7e40d747211ffad1285d5978", "is_disabled": 0, "rental_uris": {"ios": "https://dc.lft.to/lastmile_qr_scan", "android": "https://dc.lft.to/lastmile_qr_scan"}, "is_reserved": 0}, {"lon": -76.98667616666667, "bike_id": "3dfc05d1308770e2ecef0e854e948a86", "lat": 38.8673745, "fusion_lon": 0.0, "fusion_lat": 0.0, "type": "electric_scooter", "name": "3dfc05d1308770e2ecef0e854e948a86", "is_disabled": 0, "rental_uris": {"ios": "https://dc.lft.to/lastmile_qr_scan", "android": "https://dc.lft.to/lastmile_qr_scan"}, "is_reserved": 0}, {"lon": -77.0308175, "bike_id": "4e530f5d96903a71045a0fc2c024b9d8", "lat": 38.9154945, "fusion_lon": 0.0, "fusion_lat": 0.0, "type": "electric_scooter", "name": "4e530f5d96903a71045a0fc2c024b9d8", "is_disabled": 0, "rental_uris": {"ios": "https://dc.lft.to/lastmile_qr_scan", "android": "https://dc.lft.to/lastmile_qr_scan"}, "is_reserved": 0}, {"lon": -77.025031, "bike_id": "e98e6b770c7ab8cdb5a743046baedfec", "lat": 38.925927333333334, "fusion_lon": 0.0, "fusion_lat": 0.0, "type": "electric_scooter", "name": "e98e6b770c7ab8cdb5a743046baedfec", "is_disabled": 0, "rental_uris": {"ios": "https://dc.lft.to/lastmile_qr_scan", "android": "https://dc.lft.to/lastmile_qr_scan"}, "is_reserved": 0}, {"lon": -76.95475833333333, "bike_id": "730251f0f76a3c41c97dd5d67c2d3d3d", "lat": 38.886600333333334, "fusion_lon": 0.0, "fusion_lat": 0.0, "type": "electric_scooter", "name": "730251f0f76a3c41c97dd5d67c2d3d3d", "is_disabled": 0, "rental_uris": {"ios": "https://dc.lft.to/lastmile_qr_scan", "android": "https://dc.lft.to/lastmile_qr_scan"}, "is_reserved": 0}, {"lon": -77.032845, "bike_id": "25c26ae4cb20c26aeb3d38050570ddcb", "lat": 38.93449716666667, "fusion_lon": 0.0, "fusion_lat": 0.0, "type": "electric_scooter", "name": "25c26ae4cb20c26aeb3d38050570ddcb", "is_disabled": 0, "rental_uris": {"ios": "https://dc.lft.to/lastmile_qr_scan", "android": "https://dc.lft.to/lastmile_qr_scan"}, "is_reserved": 0}, {"lon": -77.02961983333333, "bike_id": "7de1026e1c2896f491989100f785e4ba", "lat": 38.93086666666667, "fusion_lon": 0.0, "fusion_lat": 0.0, "type": "electric_scooter", "name": "7de1026e1c2896f491989100f785e4ba", "is_disabled": 0, "rental_uris": {"ios": "https://dc.lft.to/lastmile_qr_scan", "android": "https://dc.lft.to/lastmile_qr_scan"}, "is_reserved": 0}, {"lon": -77.02711083333334, "bike_id": "079240666109f186df1a156b464fc051", "lat": 38.9288065, "fusion_lon": 0.0, "fusion_lat": 0.0, "type": "electric_scooter", "name": "079240666109f186df1a156b464fc051", "is_disabled": 0, "rental_uris": {"ios": "https://dc.lft.to/lastmile_qr_scan", "android": "https://dc.lft.to/lastmile_qr_scan"}, "is_reserved": 0}, {"lon": -76.99887933333333, "bike_id": "33c84a3730138640089f00a8ba30ff81", "lat": 38.92054316666667, "fusion_lon": 0.0, "fusion_lat": 0.0, "type": "electric_scooter", "name": "33c84a3730138640089f00a8ba30ff81", "is_disabled": 0, "rental_uris": {"ios": "https://dc.lft.to/lastmile_qr_scan", "android": "https://dc.lft.to/lastmile_qr_scan"}, "is_reserved": 0}, {"lon": -77.015107, "bike_id": "ef760c1ba06152b6bcea06aef8a52020", "lat": 38.899528, "fusion_lon": 0.0, "fusion_lat": 0.0, "type": "electric_scooter", "name": "ef760c1ba06152b6bcea06aef8a52020", "is_disabled": 0, "rental_uris": {"ios": "https://dc.lft.to/lastmile_qr_scan", "android": "https://dc.lft.to/lastmile_qr_scan"}, "is_reserved": 0}, {"lon": -77.02554866666667, "bike_id": "f497a8d03115669c2936ce13eea2a274", "lat": 38.941306, "fusion_lon": 0.0, "fusion_lat": 0.0, "type": "electric_scooter", "name": "f497a8d03115669c2936ce13eea2a274", "is_disabled": 0, "rental_uris": {"ios": "https://dc.lft.to/lastmile_qr_scan", "android": "https://dc.lft.to/lastmile_qr_scan"}, "is_reserved": 0}, {"lon": -77.03499583333333, "bike_id": "ae6a8c0fc08cb4824f19dadf64306207", "lat": 38.93259916666667, "fusion_lon": 0.0, "fusion_lat": 0.0, "type": "electric_scooter", "name": "ae6a8c0fc08cb4824f19dadf64306207", "is_disabled": 0, "rental_uris": {"ios": "https://dc.lft.to/lastmile_qr_scan", "android": "https://dc.lft.to/lastmile_qr_scan"}, "is_reserved": 0}, {"lon": -76.98227133333333, "bike_id": "3e43d5c3ef58f7536083a72666c433c2", "lat": 38.91638866666667, "fusion_lon": 0.0, "fusion_lat": 0.0, "type": "electric_scooter", "name": "3e43d5c3ef58f7536083a72666c433c2", "is_disabled": 0, "rental_uris": {"ios": "https://dc.lft.to/lastmile_qr_scan", "android": "https://dc.lft.to/lastmile_qr_scan"}, "is_reserved": 0}, {"lon": -77.03101216666667, "bike_id": "424b9a9d9c0643cad1c2777fa3574dfd", "lat": 38.907365, "fusion_lon": 0.0, "fusion_lat": 0.0, "type": "electric_scooter", "name": "424b9a9d9c0643cad1c2777fa3574dfd", "is_disabled": 0, "rental_uris": {"ios": "https://dc.lft.to/lastmile_qr_scan", "android": "https://dc.lft.to/lastmile_qr_scan"}, "is_reserved": 0}, {"lon": -76.94188516666667, "bike_id": "f8ce75314417e82b76a2edcc1445144c", "lat": 38.893073, "fusion_lon": 0.0, "fusion_lat": 0.0, "type": "electric_bike", "name": "f8ce75314417e82b76a2edcc1445144c", "is_disabled": 0, "rental_uris": {"ios": "https://dc.lft.to/lastmile_qr_scan", "android": "https://dc.lft.to/lastmile_qr_scan"}, "is_reserved": 0}, {"lon": -76.9867465, "bike_id": "d5eaa721883a7b8b22da48d85d3736e3", "lat": 38.89964716666667, "fusion_lon": 0.0, "fusion_lat": 0.0, "type": "electric_bike", "name": "d5eaa721883a7b8b22da48d85d3736e3", "is_disabled": 0, "rental_uris": {"ios": "https://dc.lft.to/lastmile_qr_scan", "android": "https://dc.lft.to/lastmile_qr_scan"}, "is_reserved": 0}, {"lon": -77.04131366666667, "bike_id": "04657c5aa810bc2e03ba1f8bac5d2267", "lat": 38.92988783333333, "fusion_lon": 0.0, "fusion_lat": 0.0, "type": "electric_scooter", "name": "04657c5aa810bc2e03ba1f8bac5d2267", "is_disabled": 0, "rental_uris": {"ios": "https://dc.lft.to/lastmile_qr_scan", "android": "https://dc.lft.to/lastmile_qr_scan"}, "is_reserved": 0}, {"lon": -77.03627933333334, "bike_id": "06cf506959a1517a28033871c9061601", "lat": 38.91864433333333, "fusion_lon": 0.0, "fusion_lat": 0.0, "type": "electric_scooter", "name": "06cf506959a1517a28033871c9061601", "is_disabled": 0, "rental_uris": {"ios": "https://dc.lft.to/lastmile_qr_scan", "android": "https://dc.lft.to/lastmile_qr_scan"}, "is_reserved": 0}, {"lon": -76.99873866666667, "bike_id": "82665f5ca30234eb64a63989ee665d70", "lat": 38.9000795, "fusion_lon": 0.0, "fusion_lat": 0.0, "type": "electric_scooter", "name": "82665f5ca30234eb64a63989ee665d70", "is_disabled": 0, "rental_uris": {"ios": "https://dc.lft.to/lastmile_qr_scan", "android": "https://dc.lft.to/lastmile_qr_scan"}, "is_reserved": 0}, {"lon": -77.07816916666667, "bike_id": "c57aed69f2c5f65497f005f4a3187fdb", "lat": 38.943182, "fusion_lon": 0.0, "fusion_lat": 0.0, "type": "electric_scooter", "name": "c57aed69f2c5f65497f005f4a3187fdb", "is_disabled": 0, "rental_uris": {"ios": "https://dc.lft.to/lastmile_qr_scan", "android": "https://dc.lft.to/lastmile_qr_scan"}, "is_reserved": 0}, {"lon": -77.037635, "bike_id": "093f32b9041e5a6d43bf8cbc3d833130", "lat": 38.91874216666667, "fusion_lon": 0.0, "fusion_lat": 0.0, "type": "electric_scooter", "name": "093f32b9041e5a6d43bf8cbc3d833130", "is_disabled": 0, "rental_uris": {"ios": "https://dc.lft.to/lastmile_qr_scan", "android": "https://dc.lft.to/lastmile_qr_scan"}, "is_reserved": 0}, {"lon": -77.032136, "bike_id": "6f39c82743903dc83aea7db8e35a27e1", "lat": 38.90979433333333, "fusion_lon": 0.0, "fusion_lat": 0.0, "type": "electric_scooter", "name": "6f39c82743903dc83aea7db8e35a27e1", "is_disabled": 0, "rental_uris": {"ios": "https://dc.lft.to/lastmile_qr_scan", "android": "https://dc.lft.to/lastmile_qr_scan"}, "is_reserved": 0}, {"lon": -77.00330816666667, "bike_id": "0ac03b7c5be910bd3797e7339c900c1a", "lat": 38.884997166666665, "fusion_lon": 0.0, "fusion_lat": 0.0, "type": "electric_scooter", "name": "0ac03b7c5be910bd3797e7339c900c1a", "is_disabled": 0, "rental_uris": {"ios": "https://dc.lft.to/lastmile_qr_scan", "android": "https://dc.lft.to/lastmile_qr_scan"}, "is_reserved": 0}, {"lon": -77.020968, "bike_id": "4be1a596ada8f66e2b77933d53019c9f", "lat": 38.92693833333333, "fusion_lon": 0.0, "fusion_lat": 0.0, "type": "electric_scooter", "name": "4be1a596ada8f66e2b77933d53019c9f", "is_disabled": 0, "rental_uris": {"ios": "https://dc.lft.to/lastmile_qr_scan", "android": "https://dc.lft.to/lastmile_qr_scan"}, "is_reserved": 0}, {"lon": -77.0201865, "bike_id": "32915740dd99bd77e925f391c6a5a11c", "lat": 38.92404716666667, "fusion_lon": 0.0, "fusion_lat": 0.0, "type": "electric_scooter", "name": "32915740dd99bd77e925f391c6a5a11c", "is_disabled": 0, "rental_uris": {"ios": "https://dc.lft.to/lastmile_qr_scan", "android": "https://dc.lft.to/lastmile_qr_scan"}, "is_reserved": 0}, {"lon": -77.0512025, "bike_id": "5019c93bd554086731ac958a2cff348e", "lat": 38.9230245, "fusion_lon": 0.0, "fusion_lat": 0.0, "type": "electric_scooter", "name": "5019c93bd554086731ac958a2cff348e", "is_disabled": 0, "rental_uris": {"ios": "https://dc.lft.to/lastmile_qr_scan", "android": "https://dc.lft.to/lastmile_qr_scan"}, "is_reserved": 0}, {"lon": -77.03209216666667, "bike_id": "d5d69eb9165a4aea8a436463144fb2c1", "lat": 38.91470783333333, "fusion_lon": 0.0, "fusion_lat": 0.0, "type": "electric_scooter", "name": "d5d69eb9165a4aea8a436463144fb2c1", "is_disabled": 0, "rental_uris": {"ios": "https://dc.lft.to/lastmile_qr_scan", "android": "https://dc.lft.to/lastmile_qr_scan"}, "is_reserved": 0}, {"lon": -77.03360366666666, "bike_id": "3f869f6828a4e294eb9418a3d222febc", "lat": 38.89667466666667, "fusion_lon": 0.0, "fusion_lat": 0.0, "type": "electric_scooter", "name": "3f869f6828a4e294eb9418a3d222febc", "is_disabled": 0, "rental_uris": {"ios": "https://dc.lft.to/lastmile_qr_scan", "android": "https://dc.lft.to/lastmile_qr_scan"}, "is_reserved": 0}, {"lon": -77.00308483333333, "bike_id": "d6827565b8f02ebdc6456a7f8a191806", "lat": 38.89499283333333, "fusion_lon": 0.0, "fusion_lat": 0.0, "type": "electric_scooter", "name": "d6827565b8f02ebdc6456a7f8a191806", "is_disabled": 0, "rental_uris": {"ios": "https://dc.lft.to/lastmile_qr_scan", "android": "https://dc.lft.to/lastmile_qr_scan"}, "is_reserved": 0}, {"lon": -77.01106816666666, "bike_id": "b55adf45ffc8221667d79a076203701f", "lat": 38.9034695, "fusion_lon": 0.0, "fusion_lat": 0.0, "type": "electric_scooter", "name": "b55adf45ffc8221667d79a076203701f", "is_disabled": 0, "rental_uris": {"ios": "https://dc.lft.to/lastmile_qr_scan", "android": "https://dc.lft.to/lastmile_qr_scan"}, "is_reserved": 0}, {"lon": -77.04707183333333, "bike_id": "1a38a0e487b4b2091df9074386980c3f", "lat": 38.9021425, "fusion_lon": 0.0, "fusion_lat": 0.0, "type": "electric_scooter", "name": "1a38a0e487b4b2091df9074386980c3f", "is_disabled": 0, "rental_uris": {"ios": "https://dc.lft.to/lastmile_qr_scan", "android": "https://dc.lft.to/lastmile_qr_scan"}, "is_reserved": 0}, {"lon": -77.05237866666667, "bike_id": "50d4e62350593445d0b0b040352db2c4", "lat": 38.92463716666666, "fusion_lon": 0.0, "fusion_lat": 0.0, "type": "electric_scooter", "name": "50d4e62350593445d0b0b040352db2c4", "is_disabled": 0, "rental_uris": {"ios": "https://dc.lft.to/lastmile_qr_scan", "android": "https://dc.lft.to/lastmile_qr_scan"}, "is_reserved": 0}, {"lon": -77.030423, "bike_id": "820254c51fa853d75bee7c55200f51d0", "lat": 38.878293666666664, "fusion_lon": 0.0, "fusion_lat": 0.0, "type": "electric_scooter", "name": "820254c51fa853d75bee7c55200f51d0", "is_disabled": 0, "rental_uris": {"ios": "https://dc.lft.to/lastmile_qr_scan", "android": "https://dc.lft.to/lastmile_qr_scan"}, "is_reserved": 0}, {"lon": -77.02812333333334, "bike_id": "26835cab491937304ee00956c17b4f4c", "lat": 38.961526, "fusion_lon": 0.0, "fusion_lat": 0.0, "type": "electric_scooter", "name": "26835cab491937304ee00956c17b4f4c", "is_disabled": 0, "rental_uris": {"ios": "https://dc.lft.to/lastmile_qr_scan", "android": "https://dc.lft.to/lastmile_qr_scan"}, "is_reserved": 0}, {"lon": -77.024941, "bike_id": "fac5d53916571127932c2067c596cc4b", "lat": 38.9199365, "fusion_lon": 0.0, "fusion_lat": 0.0, "type": "electric_scooter", "name": "fac5d53916571127932c2067c596cc4b", "is_disabled": 0, "rental_uris": {"ios": "https://dc.lft.to/lastmile_qr_scan", "android": "https://dc.lft.to/lastmile_qr_scan"}, "is_reserved": 0}, {"lon": -77.021899, "bike_id": "778d26060c1aef2314cd608d3bebebfb", "lat": 38.91128716666667, "fusion_lon": 0.0, "fusion_lat": 0.0, "type": "electric_scooter", "name": "778d26060c1aef2314cd608d3bebebfb", "is_disabled": 0, "rental_uris": {"ios": "https://dc.lft.to/lastmile_qr_scan", "android": "https://dc.lft.to/lastmile_qr_scan"}, "is_reserved": 0}, {"lon": -77.046005, "bike_id": "b2ba22db8a73a2f35b0cac11bdca280e", "lat": 38.92176283333333, "fusion_lon": 0.0, "fusion_lat": 0.0, "type": "electric_scooter", "name": "b2ba22db8a73a2f35b0cac11bdca280e", "is_disabled": 0, "rental_uris": {"ios": "https://dc.lft.to/lastmile_qr_scan", "android": "https://dc.lft.to/lastmile_qr_scan"}, "is_reserved": 0}, {"lon": -77.02853083333333, "bike_id": "3e85e9d7d6e031b93d7d1e18d823f0db", "lat": 38.916816, "fusion_lon": 0.0, "fusion_lat": 0.0, "type": "electric_scooter", "name": "3e85e9d7d6e031b93d7d1e18d823f0db", "is_disabled": 0, "rental_uris": {"ios": "https://dc.lft.to/lastmile_qr_scan", "android": "https://dc.lft.to/lastmile_qr_scan"}, "is_reserved": 0}, {"lon": -77.0237135, "bike_id": "32a595a7973831582e12750354cdc988", "lat": 38.903059666666664, "fusion_lon": 0.0, "fusion_lat": 0.0, "type": "electric_scooter", "name": "32a595a7973831582e12750354cdc988", "is_disabled": 0, "rental_uris": {"ios": "https://dc.lft.to/lastmile_qr_scan", "android": "https://dc.lft.to/lastmile_qr_scan"}, "is_reserved": 0}, {"lon": -77.05128433333333, "bike_id": "53937a7b3fb442579d03a70d9cf5df64", "lat": 38.92305866666667, "fusion_lon": 0.0, "fusion_lat": 0.0, "type": "electric_scooter", "name": "53937a7b3fb442579d03a70d9cf5df64", "is_disabled": 0, "rental_uris": {"ios": "https://dc.lft.to/lastmile_qr_scan", "android": "https://dc.lft.to/lastmile_qr_scan"}, "is_reserved": 0}, {"lon": -77.05228533333333, "bike_id": "f4807c96924fb6c0a93dc519ca1e02b7", "lat": 38.92358883333333, "fusion_lon": 0.0, "fusion_lat": 0.0, "type": "electric_scooter", "name": "f4807c96924fb6c0a93dc519ca1e02b7", "is_disabled": 0, "rental_uris": {"ios": "https://dc.lft.to/lastmile_qr_scan", "android": "https://dc.lft.to/lastmile_qr_scan"}, "is_reserved": 0}, {"lon": -77.00655883333333, "bike_id": "ff4ee02bd673472d0b93b5075abb5a03", "lat": 38.88075883333333, "fusion_lon": 0.0, "fusion_lat": 0.0, "type": "electric_scooter", "name": "ff4ee02bd673472d0b93b5075abb5a03", "is_disabled": 0, "rental_uris": {"ios": "https://dc.lft.to/lastmile_qr_scan", "android": "https://dc.lft.to/lastmile_qr_scan"}, "is_reserved": 0}, {"lon": -77.05449933333334, "bike_id": "6f80905a3f4942f44fc5418754932a57", "lat": 38.897894666666666, "fusion_lon": 0.0, "fusion_lat": 0.0, "type": "electric_scooter", "name": "6f80905a3f4942f44fc5418754932a57", "is_disabled": 0, "rental_uris": {"ios": "https://dc.lft.to/lastmile_qr_scan", "android": "https://dc.lft.to/lastmile_qr_scan"}, "is_reserved": 0}, {"lon": -77.03351416666666, "bike_id": "3a1aea8730bba191793f50a013066a2a", "lat": 38.896142833333336, "fusion_lon": 0.0, "fusion_lat": 0.0, "type": "electric_scooter", "name": "3a1aea8730bba191793f50a013066a2a", "is_disabled": 0, "rental_uris": {"ios": "https://dc.lft.to/lastmile_qr_scan", "android": "https://dc.lft.to/lastmile_qr_scan"}, "is_reserved": 0}, {"lon": -77.02618916666667, "bike_id": "f757bdaf3c854407c32b04083829f780", "lat": 38.92986766666667, "fusion_lon": 0.0, "fusion_lat": 0.0, "type": "electric_scooter", "name": "f757bdaf3c854407c32b04083829f780", "is_disabled": 0, "rental_uris": {"ios": "https://dc.lft.to/lastmile_qr_scan", "android": "https://dc.lft.to/lastmile_qr_scan"}, "is_reserved": 0}, {"lon": -77.01291383333333, "bike_id": "91f7235ca7922f47115bfcfaa2128d51", "lat": 38.9153265, "fusion_lon": 0.0, "fusion_lat": 0.0, "type": "electric_scooter", "name": "91f7235ca7922f47115bfcfaa2128d51", "is_disabled": 0, "rental_uris": {"ios": "https://dc.lft.to/lastmile_qr_scan", "android": "https://dc.lft.to/lastmile_qr_scan"}, "is_reserved": 0}, {"lon": -77.0251775, "bike_id": "74faabf9f0ed84e6c9efc2f1b77ac681", "lat": 38.916827, "fusion_lon": 0.0, "fusion_lat": 0.0, "type": "electric_scooter", "name": "74faabf9f0ed84e6c9efc2f1b77ac681", "is_disabled": 0, "rental_uris": {"ios": "https://dc.lft.to/lastmile_qr_scan", "android": "https://dc.lft.to/lastmile_qr_scan"}, "is_reserved": 0}, {"lon": -77.03217216666667, "bike_id": "d3c6f2b2c7658b40acab1e99c89fdba4", "lat": 38.8998835, "fusion_lon": 0.0, "fusion_lat": 0.0, "type": "electric_scooter", "name": "d3c6f2b2c7658b40acab1e99c89fdba4", "is_disabled": 0, "rental_uris": {"ios": "https://dc.lft.to/lastmile_qr_scan", "android": "https://dc.lft.to/lastmile_qr_scan"}, "is_reserved": 0}, {"lon": -76.9849005, "bike_id": "255dab3ab80135250b3c7bae497ea171", "lat": 38.903051, "fusion_lon": 0.0, "fusion_lat": 0.0, "type": "electric_scooter", "name": "255dab3ab80135250b3c7bae497ea171", "is_disabled": 0, "rental_uris": {"ios": "https://dc.lft.to/lastmile_qr_scan", "android": "https://dc.lft.to/lastmile_qr_scan"}, "is_reserved": 0}, {"lon": -77.02288633333333, "bike_id": "cb696775c24677cefcdff19766e6e0ba", "lat": 38.926722, "fusion_lon": 0.0, "fusion_lat": 0.0, "type": "electric_scooter", "name": "cb696775c24677cefcdff19766e6e0ba", "is_disabled": 0, "rental_uris": {"ios": "https://dc.lft.to/lastmile_qr_scan", "android": "https://dc.lft.to/lastmile_qr_scan"}, "is_reserved": 0}, {"lon": -77.04032316666667, "bike_id": "be897e29a31d4fb5990436c23b485c67", "lat": 38.923807, "fusion_lon": 0.0, "fusion_lat": 0.0, "type": "electric_scooter", "name": "be897e29a31d4fb5990436c23b485c67", "is_disabled": 0, "rental_uris": {"ios": "https://dc.lft.to/lastmile_qr_scan", "android": "https://dc.lft.to/lastmile_qr_scan"}, "is_reserved": 0}, {"lon": -77.02481333333333, "bike_id": "5312b919610b553bca59a40d392d6347", "lat": 38.9199395, "fusion_lon": 0.0, "fusion_lat": 0.0, "type": "electric_scooter", "name": "5312b919610b553bca59a40d392d6347", "is_disabled": 0, "rental_uris": {"ios": "https://dc.lft.to/lastmile_qr_scan", "android": "https://dc.lft.to/lastmile_qr_scan"}, "is_reserved": 0}, {"lon": -77.04642566666666, "bike_id": "62c5d92365452229e989f0ac6b80bc29", "lat": 38.91470316666667, "fusion_lon": 0.0, "fusion_lat": 0.0, "type": "electric_scooter", "name": "62c5d92365452229e989f0ac6b80bc29", "is_disabled": 0, "rental_uris": {"ios": "https://dc.lft.to/lastmile_qr_scan", "android": "https://dc.lft.to/lastmile_qr_scan"}, "is_reserved": 0}, {"lon": -77.05629533333334, "bike_id": "f4f89ae35c76b25e439a5351ca6e15ce", "lat": 38.923175666666666, "fusion_lon": 0.0, "fusion_lat": 0.0, "type": "electric_scooter", "name": "f4f89ae35c76b25e439a5351ca6e15ce", "is_disabled": 0, "rental_uris": {"ios": "https://dc.lft.to/lastmile_qr_scan", "android": "https://dc.lft.to/lastmile_qr_scan"}, "is_reserved": 0}, {"lon": -76.94633316666666, "bike_id": "ea66e0b4a0b5c1d1d55bb8a06bbd96da", "lat": 38.898306833333336, "fusion_lon": 0.0, "fusion_lat": 0.0, "type": "electric_scooter", "name": "ea66e0b4a0b5c1d1d55bb8a06bbd96da", "is_disabled": 0, "rental_uris": {"ios": "https://dc.lft.to/lastmile_qr_scan", "android": "https://dc.lft.to/lastmile_qr_scan"}, "is_reserved": 0}, {"lon": -76.97615, "bike_id": "b9e5f0021df4ab6766e7b3adfe5ccad4", "lat": 38.926548333333336, "fusion_lon": 0.0, "fusion_lat": 0.0, "type": "electric_scooter", "name": "b9e5f0021df4ab6766e7b3adfe5ccad4", "is_disabled": 0, "rental_uris": {"ios": "https://dc.lft.to/lastmile_qr_scan", "android": "https://dc.lft.to/lastmile_qr_scan"}, "is_reserved": 0}, {"lon": -77.02173166666667, "bike_id": "69e548c83734f82537bd967c617d1a33", "lat": 38.9428685, "fusion_lon": 0.0, "fusion_lat": 0.0, "type": "electric_scooter", "name": "69e548c83734f82537bd967c617d1a33", "is_disabled": 0, "rental_uris": {"ios": "https://dc.lft.to/lastmile_qr_scan", "android": "https://dc.lft.to/lastmile_qr_scan"}, "is_reserved": 0}, {"lon": -76.96517133333333, "bike_id": "0814fecca18e2f135987b1c0a1911630", "lat": 38.87477583333333, "fusion_lon": 0.0, "fusion_lat": 0.0, "type": "electric_scooter", "name": "0814fecca18e2f135987b1c0a1911630", "is_disabled": 0, "rental_uris": {"ios": "https://dc.lft.to/lastmile_qr_scan", "android": "https://dc.lft.to/lastmile_qr_scan"}, "is_reserved": 0}, {"lon": -77.06169916666667, "bike_id": "409fe08d11147705ee0849bee901ba73", "lat": 38.90259416666667, "fusion_lon": 0.0, "fusion_lat": 0.0, "type": "electric_scooter", "name": "409fe08d11147705ee0849bee901ba73", "is_disabled": 0, "rental_uris": {"ios": "https://dc.lft.to/lastmile_qr_scan", "android": "https://dc.lft.to/lastmile_qr_scan"}, "is_reserved": 0}, {"lon": -77.073003, "bike_id": "6987a6eb7445f6041f40bb7ace18e8f9", "lat": 38.93056833333333, "fusion_lon": 0.0, "fusion_lat": 0.0, "type": "electric_scooter", "name": "6987a6eb7445f6041f40bb7ace18e8f9", "is_disabled": 0, "rental_uris": {"ios": "https://dc.lft.to/lastmile_qr_scan", "android": "https://dc.lft.to/lastmile_qr_scan"}, "is_reserved": 0}, {"lon": -76.99204566666667, "bike_id": "33e071ed7d631281ad6f4b6a9b588aae", "lat": 38.898314, "fusion_lon": 0.0, "fusion_lat": 0.0, "type": "electric_scooter", "name": "33e071ed7d631281ad6f4b6a9b588aae", "is_disabled": 0, "rental_uris": {"ios": "https://dc.lft.to/lastmile_qr_scan", "android": "https://dc.lft.to/lastmile_qr_scan"}, "is_reserved": 0}, {"lon": -77.009338, "bike_id": "2f5ba1523663e7f485cd39f72a6011c2", "lat": 38.89642116666667, "fusion_lon": 0.0, "fusion_lat": 0.0, "type": "electric_scooter", "name": "2f5ba1523663e7f485cd39f72a6011c2", "is_disabled": 0, "rental_uris": {"ios": "https://dc.lft.to/lastmile_qr_scan", "android": "https://dc.lft.to/lastmile_qr_scan"}, "is_reserved": 0}, {"lon": -77.03070066666666, "bike_id": "f14e382cfbfd370dea5579e642656eae", "lat": 38.902944166666664, "fusion_lon": 0.0, "fusion_lat": 0.0, "type": "electric_scooter", "name": "f14e382cfbfd370dea5579e642656eae", "is_disabled": 0, "rental_uris": {"ios": "https://dc.lft.to/lastmile_qr_scan", "android": "https://dc.lft.to/lastmile_qr_scan"}, "is_reserved": 0}, {"lon": -77.106017, "bike_id": "5fb80efedc590336aae4137ebe6c32ea", "lat": 38.90381283333333, "fusion_lon": 0.0, "fusion_lat": 0.0, "type": "electric_bike", "name": "5fb80efedc590336aae4137ebe6c32ea", "is_disabled": 0, "rental_uris": {"ios": "https://dc.lft.to/lastmile_qr_scan", "android": "https://dc.lft.to/lastmile_qr_scan"}, "is_reserved": 0}, {"lon": -77.02963783333334, "bike_id": "c7f810700446dc3aa10bd719bfb95c8a", "lat": 38.9022095, "fusion_lon": 0.0, "fusion_lat": 0.0, "type": "electric_scooter", "name": "c7f810700446dc3aa10bd719bfb95c8a", "is_disabled": 0, "rental_uris": {"ios": "https://dc.lft.to/lastmile_qr_scan", "android": "https://dc.lft.to/lastmile_qr_scan"}, "is_reserved": 0}, {"lon": -77.02769433333333, "bike_id": "d66c587bb6fc268d8bb803944d8ace9b", "lat": 38.9440285, "fusion_lon": 0.0, "fusion_lat": 0.0, "type": "electric_scooter", "name": "d66c587bb6fc268d8bb803944d8ace9b", "is_disabled": 0, "rental_uris": {"ios": "https://dc.lft.to/lastmile_qr_scan", "android": "https://dc.lft.to/lastmile_qr_scan"}, "is_reserved": 0}, {"lon": -77.044615, "bike_id": "db2b2ab2cfe2ebece8f56d5b2c8427b8", "lat": 38.90539733333333, "fusion_lon": 0.0, "fusion_lat": 0.0, "type": "electric_scooter", "name": "db2b2ab2cfe2ebece8f56d5b2c8427b8", "is_disabled": 0, "rental_uris": {"ios": "https://dc.lft.to/lastmile_qr_scan", "android": "https://dc.lft.to/lastmile_qr_scan"}, "is_reserved": 0}, {"lon": -77.03325083333333, "bike_id": "bf85f7f39d14ec6b760dd65fc119a615", "lat": 38.91570466666667, "fusion_lon": 0.0, "fusion_lat": 0.0, "type": "electric_scooter", "name": "bf85f7f39d14ec6b760dd65fc119a615", "is_disabled": 0, "rental_uris": {"ios": "https://dc.lft.to/lastmile_qr_scan", "android": "https://dc.lft.to/lastmile_qr_scan"}, "is_reserved": 0}, {"lon": -77.03664116666667, "bike_id": "ff47e17748b3b4be79e620aec483a382", "lat": 38.91747733333333, "fusion_lon": 0.0, "fusion_lat": 0.0, "type": "electric_scooter", "name": "ff47e17748b3b4be79e620aec483a382", "is_disabled": 0, "rental_uris": {"ios": "https://dc.lft.to/lastmile_qr_scan", "android": "https://dc.lft.to/lastmile_qr_scan"}, "is_reserved": 0}, {"lon": -77.03578633333333, "bike_id": "eef16aa3239f16084b68a70f6d0c10eb", "lat": 38.907542, "fusion_lon": 0.0, "fusion_lat": 0.0, "type": "electric_scooter", "name": "eef16aa3239f16084b68a70f6d0c10eb", "is_disabled": 0, "rental_uris": {"ios": "https://dc.lft.to/lastmile_qr_scan", "android": "https://dc.lft.to/lastmile_qr_scan"}, "is_reserved": 0}, {"lon": -77.03727966666666, "bike_id": "ee14d9eb405ad9a3f1f1f252011d7a8b", "lat": 38.920221166666664, "fusion_lon": 0.0, "fusion_lat": 0.0, "type": "electric_scooter", "name": "ee14d9eb405ad9a3f1f1f252011d7a8b", "is_disabled": 0, "rental_uris": {"ios": "https://dc.lft.to/lastmile_qr_scan", "android": "https://dc.lft.to/lastmile_qr_scan"}, "is_reserved": 0}, {"lon": -77.01161133333333, "bike_id": "22bf79522d176ab221a5c11c2898266f", "lat": 38.9140545, "fusion_lon": 0.0, "fusion_lat": 0.0, "type": "electric_scooter", "name": "22bf79522d176ab221a5c11c2898266f", "is_disabled": 0, "rental_uris": {"ios": "https://dc.lft.to/lastmile_qr_scan", "android": "https://dc.lft.to/lastmile_qr_scan"}, "is_reserved": 0}, {"lon": -77.0412195, "bike_id": "51d161adfe850324ad67365ac2607294", "lat": 38.90617533333333, "fusion_lon": 0.0, "fusion_lat": 0.0, "type": "electric_scooter", "name": "51d161adfe850324ad67365ac2607294", "is_disabled": 0, "rental_uris": {"ios": "https://dc.lft.to/lastmile_qr_scan", "android": "https://dc.lft.to/lastmile_qr_scan"}, "is_reserved": 0}, {"lon": -77.03173716666667, "bike_id": "0600e4238db299af06bdd45e249c5791", "lat": 38.914203666666666, "fusion_lon": 0.0, "fusion_lat": 0.0, "type": "electric_scooter", "name": "0600e4238db299af06bdd45e249c5791", "is_disabled": 0, "rental_uris": {"ios": "https://dc.lft.to/lastmile_qr_scan", "android": "https://dc.lft.to/lastmile_qr_scan"}, "is_reserved": 0}, {"lon": -77.058592, "bike_id": "bdb7f8836bcc0923845448fd9d086509", "lat": 38.93604766666667, "fusion_lon": 0.0, "fusion_lat": 0.0, "type": "electric_scooter", "name": "bdb7f8836bcc0923845448fd9d086509", "is_disabled": 0, "rental_uris": {"ios": "https://dc.lft.to/lastmile_qr_scan", "android": "https://dc.lft.to/lastmile_qr_scan"}, "is_reserved": 0}, {"lon": -77.0321035, "bike_id": "335f061178a060491f0f0538bf346c5e", "lat": 38.917183666666666, "fusion_lon": 0.0, "fusion_lat": 0.0, "type": "electric_scooter", "name": "335f061178a060491f0f0538bf346c5e", "is_disabled": 0, "rental_uris": {"ios": "https://dc.lft.to/lastmile_qr_scan", "android": "https://dc.lft.to/lastmile_qr_scan"}, "is_reserved": 0}, {"lon": -77.0549795, "bike_id": "abf402d298d1c449e38e22b98c6e6401", "lat": 38.899939333333336, "fusion_lon": 0.0, "fusion_lat": 0.0, "type": "electric_scooter", "name": "abf402d298d1c449e38e22b98c6e6401", "is_disabled": 0, "rental_uris": {"ios": "https://dc.lft.to/lastmile_qr_scan", "android": "https://dc.lft.to/lastmile_qr_scan"}, "is_reserved": 0}, {"lon": -76.97330866666667, "bike_id": "ab29f45afc695a475d5354f86351af23", "lat": 38.90409233333333, "fusion_lon": 0.0, "fusion_lat": 0.0, "type": "electric_scooter", "name": "ab29f45afc695a475d5354f86351af23", "is_disabled": 0, "rental_uris": {"ios": "https://dc.lft.to/lastmile_qr_scan", "android": "https://dc.lft.to/lastmile_qr_scan"}, "is_reserved": 0}, {"lon": -77.03059933333333, "bike_id": "c5ebd32ea5f61f587b7b8a36a9884ef1", "lat": 38.92478066666666, "fusion_lon": 0.0, "fusion_lat": 0.0, "type": "electric_scooter", "name": "c5ebd32ea5f61f587b7b8a36a9884ef1", "is_disabled": 0, "rental_uris": {"ios": "https://dc.lft.to/lastmile_qr_scan", "android": "https://dc.lft.to/lastmile_qr_scan"}, "is_reserved": 0}, {"lon": -77.06129566666667, "bike_id": "a4b7a42f98fc4da714d2c9e2f6232b5b", "lat": 38.905348833333335, "fusion_lon": 0.0, "fusion_lat": 0.0, "type": "electric_scooter", "name": "a4b7a42f98fc4da714d2c9e2f6232b5b", "is_disabled": 0, "rental_uris": {"ios": "https://dc.lft.to/lastmile_qr_scan", "android": "https://dc.lft.to/lastmile_qr_scan"}, "is_reserved": 0}, {"lon": -76.99524166666667, "bike_id": "9cf2a931e27b87b0a0dc05a498efb8e8", "lat": 38.900095666666665, "fusion_lon": 0.0, "fusion_lat": 0.0, "type": "electric_scooter", "name": "9cf2a931e27b87b0a0dc05a498efb8e8", "is_disabled": 0, "rental_uris": {"ios": "https://dc.lft.to/lastmile_qr_scan", "android": "https://dc.lft.to/lastmile_qr_scan"}, "is_reserved": 0}, {"lon": -77.033999, "bike_id": "e7dc77a68163cd0e7e51e86631efcd32", "lat": 38.96030016666667, "fusion_lon": 0.0, "fusion_lat": 0.0, "type": "electric_bike", "name": "e7dc77a68163cd0e7e51e86631efcd32", "is_disabled": 0, "rental_uris": {"ios": "https://dc.lft.to/lastmile_qr_scan", "android": "https://dc.lft.to/lastmile_qr_scan"}, "is_reserved": 0}, {"lon": -76.99781416666667, "bike_id": "89cd7af57e3778d4994c2fd3cc4e2896", "lat": 38.8442575, "fusion_lon": 0.0, "fusion_lat": 0.0, "type": "electric_scooter", "name": "89cd7af57e3778d4994c2fd3cc4e2896", "is_disabled": 0, "rental_uris": {"ios": "https://dc.lft.to/lastmile_qr_scan", "android": "https://dc.lft.to/lastmile_qr_scan"}, "is_reserved": 0}, {"lon": -77.04327166666667, "bike_id": "0515fb9802c218c4bda885668021f097", "lat": 38.91870216666667, "fusion_lon": 0.0, "fusion_lat": 0.0, "type": "electric_scooter", "name": "0515fb9802c218c4bda885668021f097", "is_disabled": 0, "rental_uris": {"ios": "https://dc.lft.to/lastmile_qr_scan", "android": "https://dc.lft.to/lastmile_qr_scan"}, "is_reserved": 0}, {"lon": -77.022399, "bike_id": "67a344329ea3b55a5d62d047a728f6c2", "lat": 38.902075833333335, "fusion_lon": 0.0, "fusion_lat": 0.0, "type": "electric_scooter", "name": "67a344329ea3b55a5d62d047a728f6c2", "is_disabled": 0, "rental_uris": {"ios": "https://dc.lft.to/lastmile_qr_scan", "android": "https://dc.lft.to/lastmile_qr_scan"}, "is_reserved": 0}, {"lon": -77.0243175, "bike_id": "bba9d86ec2eca71b26183846357dc83c", "lat": 38.927546666666665, "fusion_lon": 0.0, "fusion_lat": 0.0, "type": "electric_scooter", "name": "bba9d86ec2eca71b26183846357dc83c", "is_disabled": 0, "rental_uris": {"ios": "https://dc.lft.to/lastmile_qr_scan", "android": "https://dc.lft.to/lastmile_qr_scan"}, "is_reserved": 0}, {"lon": -77.0319245, "bike_id": "b26e26c95687cbff00650f97778321b1", "lat": 38.90905383333333, "fusion_lon": 0.0, "fusion_lat": 0.0, "type": "electric_scooter", "name": "b26e26c95687cbff00650f97778321b1", "is_disabled": 0, "rental_uris": {"ios": "https://dc.lft.to/lastmile_qr_scan", "android": "https://dc.lft.to/lastmile_qr_scan"}, "is_reserved": 0}, {"lon": -77.02622033333333, "bike_id": "661a3b7ea937b23a5426137664cce099", "lat": 38.9153045, "fusion_lon": 0.0, "fusion_lat": 0.0, "type": "electric_scooter", "name": "661a3b7ea937b23a5426137664cce099", "is_disabled": 0, "rental_uris": {"ios": "https://dc.lft.to/lastmile_qr_scan", "android": "https://dc.lft.to/lastmile_qr_scan"}, "is_reserved": 0}, {"lon": -76.96583083333333, "bike_id": "9fcff3db6cc9bcd6472601925af9a788", "lat": 38.87129, "fusion_lon": 0.0, "fusion_lat": 0.0, "type": "electric_scooter", "name": "9fcff3db6cc9bcd6472601925af9a788", "is_disabled": 0, "rental_uris": {"ios": "https://dc.lft.to/lastmile_qr_scan", "android": "https://dc.lft.to/lastmile_qr_scan"}, "is_reserved": 0}, {"lon": -77.00290483333333, "bike_id": "7e6f51613b002076788b9fe55833475f", "lat": 38.956913166666666, "fusion_lon": 0.0, "fusion_lat": 0.0, "type": "electric_bike", "name": "7e6f51613b002076788b9fe55833475f", "is_disabled": 0, "rental_uris": {"ios": "https://dc.lft.to/lastmile_qr_scan", "android": "https://dc.lft.to/lastmile_qr_scan"}, "is_reserved": 0}, {"lon": -77.12486483333333, "bike_id": "b409c8473b4a605eddba605c437a0cff", "lat": 38.827812, "fusion_lon": 0.0, "fusion_lat": 0.0, "type": "electric_bike", "name": "b409c8473b4a605eddba605c437a0cff", "is_disabled": 0, "rental_uris": {"ios": "https://dc.lft.to/lastmile_qr_scan", "android": "https://dc.lft.to/lastmile_qr_scan"}, "is_reserved": 0}, {"lon": -77.0642645, "bike_id": "f7216def05f487787a0588df8f4da90a", "lat": 38.908852833333334, "fusion_lon": 0.0, "fusion_lat": 0.0, "type": "electric_scooter", "name": "f7216def05f487787a0588df8f4da90a", "is_disabled": 0, "rental_uris": {"ios": "https://dc.lft.to/lastmile_qr_scan", "android": "https://dc.lft.to/lastmile_qr_scan"}, "is_reserved": 0}, {"lon": -77.03271733333334, "bike_id": "0563ff1d8028eb149eb8be2cc186be60", "lat": 38.92055716666667, "fusion_lon": 0.0, "fusion_lat": 0.0, "type": "electric_scooter", "name": "0563ff1d8028eb149eb8be2cc186be60", "is_disabled": 0, "rental_uris": {"ios": "https://dc.lft.to/lastmile_qr_scan", "android": "https://dc.lft.to/lastmile_qr_scan"}, "is_reserved": 0}, {"lon": -77.02960316666666, "bike_id": "b482bd342accc01575444b1082211040", "lat": 38.901917833333336, "fusion_lon": 0.0, "fusion_lat": 0.0, "type": "electric_scooter", "name": "b482bd342accc01575444b1082211040", "is_disabled": 0, "rental_uris": {"ios": "https://dc.lft.to/lastmile_qr_scan", "android": "https://dc.lft.to/lastmile_qr_scan"}, "is_reserved": 0}, {"lon": -76.94633316666666, "bike_id": "cd8621389322cbd5b9d2f6515100086c", "lat": 38.898344333333334, "fusion_lon": 0.0, "fusion_lat": 0.0, "type": "electric_scooter", "name": "cd8621389322cbd5b9d2f6515100086c", "is_disabled": 0, "rental_uris": {"ios": "https://dc.lft.to/lastmile_qr_scan", "android": "https://dc.lft.to/lastmile_qr_scan"}, "is_reserved": 0}, {"lon": -77.030986, "bike_id": "14821298393c678e5f6aefd5873988c2", "lat": 38.93448466666667, "fusion_lon": 0.0, "fusion_lat": 0.0, "type": "electric_scooter", "name": "14821298393c678e5f6aefd5873988c2", "is_disabled": 0, "rental_uris": {"ios": "https://dc.lft.to/lastmile_qr_scan", "android": "https://dc.lft.to/lastmile_qr_scan"}, "is_reserved": 0}, {"lon": -77.03180333333333, "bike_id": "d66ac0fb3a388be85ed3ca5e53cbd437", "lat": 38.91690633333333, "fusion_lon": 0.0, "fusion_lat": 0.0, "type": "electric_scooter", "name": "d66ac0fb3a388be85ed3ca5e53cbd437", "is_disabled": 0, "rental_uris": {"ios": "https://dc.lft.to/lastmile_qr_scan", "android": "https://dc.lft.to/lastmile_qr_scan"}, "is_reserved": 0}, {"lon": -77.04943816666666, "bike_id": "be9a2f9990486d5dd0dec99f32b1bf9d", "lat": 38.90841433333333, "fusion_lon": 0.0, "fusion_lat": 0.0, "type": "electric_scooter", "name": "be9a2f9990486d5dd0dec99f32b1bf9d", "is_disabled": 0, "rental_uris": {"ios": "https://dc.lft.to/lastmile_qr_scan", "android": "https://dc.lft.to/lastmile_qr_scan"}, "is_reserved": 0}, {"lon": -77.05027166666666, "bike_id": "fa54ad6e053015a50ae2392205c4d2df", "lat": 38.8981645, "fusion_lon": 0.0, "fusion_lat": 0.0, "type": "electric_scooter", "name": "fa54ad6e053015a50ae2392205c4d2df", "is_disabled": 0, "rental_uris": {"ios": "https://dc.lft.to/lastmile_qr_scan", "android": "https://dc.lft.to/lastmile_qr_scan"}, "is_reserved": 0}, {"lon": -77.022059, "bike_id": "da2656459a9f5dd1443efdcdd3598d72", "lat": 38.92016683333333, "fusion_lon": 0.0, "fusion_lat": 0.0, "type": "electric_scooter", "name": "da2656459a9f5dd1443efdcdd3598d72", "is_disabled": 0, "rental_uris": {"ios": "https://dc.lft.to/lastmile_qr_scan", "android": "https://dc.lft.to/lastmile_qr_scan"}, "is_reserved": 0}, {"lon": -77.0397855, "bike_id": "a3eb1cf82b91ecf92df1ace6a2a64ba9", "lat": 38.90269633333333, "fusion_lon": 0.0, "fusion_lat": 0.0, "type": "electric_scooter", "name": "a3eb1cf82b91ecf92df1ace6a2a64ba9", "is_disabled": 0, "rental_uris": {"ios": "https://dc.lft.to/lastmile_qr_scan", "android": "https://dc.lft.to/lastmile_qr_scan"}, "is_reserved": 0}, {"lon": -77.0325515, "bike_id": "3d1a30837cbcc641482dc70805c66936", "lat": 38.93242633333333, "fusion_lon": 0.0, "fusion_lat": 0.0, "type": "electric_scooter", "name": "3d1a30837cbcc641482dc70805c66936", "is_disabled": 0, "rental_uris": {"ios": "https://dc.lft.to/lastmile_qr_scan", "android": "https://dc.lft.to/lastmile_qr_scan"}, "is_reserved": 0}, {"lon": -77.0672115, "bike_id": "a8567d13c9bdd836a555467d5776e021", "lat": 38.9038565, "fusion_lon": 0.0, "fusion_lat": 0.0, "type": "electric_scooter", "name": "a8567d13c9bdd836a555467d5776e021", "is_disabled": 0, "rental_uris": {"ios": "https://dc.lft.to/lastmile_qr_scan", "android": "https://dc.lft.to/lastmile_qr_scan"}, "is_reserved": 0}, {"lon": -76.94137816666667, "bike_id": "6449bdaa87b9271f9cf5032ecf3be828", "lat": 38.8861425, "fusion_lon": 0.0, "fusion_lat": 0.0, "type": "electric_scooter", "name": "6449bdaa87b9271f9cf5032ecf3be828", "is_disabled": 0, "rental_uris": {"ios": "https://dc.lft.to/lastmile_qr_scan", "android": "https://dc.lft.to/lastmile_qr_scan"}, "is_reserved": 0}, {"lon": -77.05218466666666, "bike_id": "27e308d9b119ac912e48e25693a2d7d8", "lat": 38.91555833333334, "fusion_lon": 0.0, "fusion_lat": 0.0, "type": "electric_scooter", "name": "27e308d9b119ac912e48e25693a2d7d8", "is_disabled": 0, "rental_uris": {"ios": "https://dc.lft.to/lastmile_qr_scan", "android": "https://dc.lft.to/lastmile_qr_scan"}, "is_reserved": 0}, {"lon": -77.02716566666666, "bike_id": "24ee2d8d3c3b7ab7a20f300da89c56b6", "lat": 38.91676916666667, "fusion_lon": 0.0, "fusion_lat": 0.0, "type": "electric_scooter", "name": "24ee2d8d3c3b7ab7a20f300da89c56b6", "is_disabled": 0, "rental_uris": {"ios": "https://dc.lft.to/lastmile_qr_scan", "android": "https://dc.lft.to/lastmile_qr_scan"}, "is_reserved": 0}, {"lon": -76.984933, "bike_id": "6f6e75c8740c440c41470be2fafb7ec8", "lat": 38.878271166666664, "fusion_lon": 0.0, "fusion_lat": 0.0, "type": "electric_scooter", "name": "6f6e75c8740c440c41470be2fafb7ec8", "is_disabled": 0, "rental_uris": {"ios": "https://dc.lft.to/lastmile_qr_scan", "android": "https://dc.lft.to/lastmile_qr_scan"}, "is_reserved": 0}, {"lon": -77.03553183333334, "bike_id": "a85ac3ded3039f53ee4890b3db24f3b2", "lat": 38.907847833333335, "fusion_lon": 0.0, "fusion_lat": 0.0, "type": "electric_scooter", "name": "a85ac3ded3039f53ee4890b3db24f3b2", "is_disabled": 0, "rental_uris": {"ios": "https://dc.lft.to/lastmile_qr_scan", "android": "https://dc.lft.to/lastmile_qr_scan"}, "is_reserved": 0}, {"lon": -77.043408, "bike_id": "7bf0e5826ca07edd7ed487a55001a924", "lat": 38.917794, "fusion_lon": 0.0, "fusion_lat": 0.0, "type": "electric_scooter", "name": "7bf0e5826ca07edd7ed487a55001a924", "is_disabled": 0, "rental_uris": {"ios": "https://dc.lft.to/lastmile_qr_scan", "android": "https://dc.lft.to/lastmile_qr_scan"}, "is_reserved": 0}, {"lon": -76.99687733333333, "bike_id": "05d4ab704af476e0383f8d38ed693025", "lat": 38.860163666666665, "fusion_lon": 0.0, "fusion_lat": 0.0, "type": "electric_scooter", "name": "05d4ab704af476e0383f8d38ed693025", "is_disabled": 0, "rental_uris": {"ios": "https://dc.lft.to/lastmile_qr_scan", "android": "https://dc.lft.to/lastmile_qr_scan"}, "is_reserved": 0}, {"lon": -77.02378266666666, "bike_id": "c8f36a494719bec66dcc2a7c39ba9e5b", "lat": 38.9095285, "fusion_lon": 0.0, "fusion_lat": 0.0, "type": "electric_scooter", "name": "c8f36a494719bec66dcc2a7c39ba9e5b", "is_disabled": 0, "rental_uris": {"ios": "https://dc.lft.to/lastmile_qr_scan", "android": "https://dc.lft.to/lastmile_qr_scan"}, "is_reserved": 0}, {"lon": -77.02364816666666, "bike_id": "c7370fb7dadf19dad37f38e3701bbbf0", "lat": 38.892193, "fusion_lon": 0.0, "fusion_lat": 0.0, "type": "electric_scooter", "name": "c7370fb7dadf19dad37f38e3701bbbf0", "is_disabled": 0, "rental_uris": {"ios": "https://dc.lft.to/lastmile_qr_scan", "android": "https://dc.lft.to/lastmile_qr_scan"}, "is_reserved": 0}, {"lon": -77.03661016666666, "bike_id": "c9e9d3d17c2b347b6311ff0d0ef845be", "lat": 38.912975, "fusion_lon": 0.0, "fusion_lat": 0.0, "type": "electric_scooter", "name": "c9e9d3d17c2b347b6311ff0d0ef845be", "is_disabled": 0, "rental_uris": {"ios": "https://dc.lft.to/lastmile_qr_scan", "android": "https://dc.lft.to/lastmile_qr_scan"}, "is_reserved": 0}, {"lon": -77.03027783333333, "bike_id": "c7e9da5c62ccb7d6cdbbe4c2f6705cee", "lat": 38.93102783333333, "fusion_lon": 0.0, "fusion_lat": 0.0, "type": "electric_scooter", "name": "c7e9da5c62ccb7d6cdbbe4c2f6705cee", "is_disabled": 0, "rental_uris": {"ios": "https://dc.lft.to/lastmile_qr_scan", "android": "https://dc.lft.to/lastmile_qr_scan"}, "is_reserved": 0}, {"lon": -77.0504935, "bike_id": "9de2117092df282731ea204ceb82175c", "lat": 38.90707533333333, "fusion_lon": 0.0, "fusion_lat": 0.0, "type": "electric_scooter", "name": "9de2117092df282731ea204ceb82175c", "is_disabled": 0, "rental_uris": {"ios": "https://dc.lft.to/lastmile_qr_scan", "android": "https://dc.lft.to/lastmile_qr_scan"}, "is_reserved": 0}, {"lon": -77.04367283333333, "bike_id": "ee32330b830733d91eba752d1d40a534", "lat": 38.902526, "fusion_lon": 0.0, "fusion_lat": 0.0, "type": "electric_scooter", "name": "ee32330b830733d91eba752d1d40a534", "is_disabled": 0, "rental_uris": {"ios": "https://dc.lft.to/lastmile_qr_scan", "android": "https://dc.lft.to/lastmile_qr_scan"}, "is_reserved": 0}, {"lon": -77.04756316666666, "bike_id": "5d293300fe8a3646b4a373940b361025", "lat": 38.909593, "fusion_lon": 0.0, "fusion_lat": 0.0, "type": "electric_scooter", "name": "5d293300fe8a3646b4a373940b361025", "is_disabled": 0, "rental_uris": {"ios": "https://dc.lft.to/lastmile_qr_scan", "android": "https://dc.lft.to/lastmile_qr_scan"}, "is_reserved": 0}, {"lon": -77.02875366666666, "bike_id": "de5299f9b9ad7b578caa1aeaf48004f2", "lat": 38.92818116666667, "fusion_lon": 0.0, "fusion_lat": 0.0, "type": "electric_scooter", "name": "de5299f9b9ad7b578caa1aeaf48004f2", "is_disabled": 0, "rental_uris": {"ios": "https://dc.lft.to/lastmile_qr_scan", "android": "https://dc.lft.to/lastmile_qr_scan"}, "is_reserved": 0}, {"lon": -77.02110566666667, "bike_id": "6eacbf53fa63649e66a5d7c75dd526fb", "lat": 38.897514666666666, "fusion_lon": 0.0, "fusion_lat": 0.0, "type": "electric_scooter", "name": "6eacbf53fa63649e66a5d7c75dd526fb", "is_disabled": 0, "rental_uris": {"ios": "https://dc.lft.to/lastmile_qr_scan", "android": "https://dc.lft.to/lastmile_qr_scan"}, "is_reserved": 0}, {"lon": -77.067687, "bike_id": "0a4981f2216fe20bce1c2bf5e4fb9e09", "lat": 38.90490166666667, "fusion_lon": 0.0, "fusion_lat": 0.0, "type": "electric_scooter", "name": "0a4981f2216fe20bce1c2bf5e4fb9e09", "is_disabled": 0, "rental_uris": {"ios": "https://dc.lft.to/lastmile_qr_scan", "android": "https://dc.lft.to/lastmile_qr_scan"}, "is_reserved": 0}, {"lon": -77.03654883333333, "bike_id": "5c6a672bb40f5a31f93347033f4d08fa", "lat": 38.9408805, "fusion_lon": 0.0, "fusion_lat": 0.0, "type": "electric_scooter", "name": "5c6a672bb40f5a31f93347033f4d08fa", "is_disabled": 0, "rental_uris": {"ios": "https://dc.lft.to/lastmile_qr_scan", "android": "https://dc.lft.to/lastmile_qr_scan"}, "is_reserved": 0}, {"lon": -76.99387383333334, "bike_id": "2f397a3f2325d3c5872167267556a64f", "lat": 38.9004595, "fusion_lon": 0.0, "fusion_lat": 0.0, "type": "electric_scooter", "name": "2f397a3f2325d3c5872167267556a64f", "is_disabled": 0, "rental_uris": {"ios": "https://dc.lft.to/lastmile_qr_scan", "android": "https://dc.lft.to/lastmile_qr_scan"}, "is_reserved": 0}, {"lon": -77.035477, "bike_id": "9fbf824d36984238cd2c428f13f2880e", "lat": 38.90365766666667, "fusion_lon": 0.0, "fusion_lat": 0.0, "type": "electric_scooter", "name": "9fbf824d36984238cd2c428f13f2880e", "is_disabled": 0, "rental_uris": {"ios": "https://dc.lft.to/lastmile_qr_scan", "android": "https://dc.lft.to/lastmile_qr_scan"}, "is_reserved": 0}, {"lon": -77.00311433333333, "bike_id": "47eae9487eff44ae078c18b1e3c50c5f", "lat": 38.918959, "fusion_lon": 0.0, "fusion_lat": 0.0, "type": "electric_scooter", "name": "47eae9487eff44ae078c18b1e3c50c5f", "is_disabled": 0, "rental_uris": {"ios": "https://dc.lft.to/lastmile_qr_scan", "android": "https://dc.lft.to/lastmile_qr_scan"}, "is_reserved": 0}, {"lon": -77.03361616666666, "bike_id": "e2f914bbd77d3db5dedbbeff11e661a4", "lat": 38.898643666666665, "fusion_lon": 0.0, "fusion_lat": 0.0, "type": "electric_scooter", "name": "e2f914bbd77d3db5dedbbeff11e661a4", "is_disabled": 0, "rental_uris": {"ios": "https://dc.lft.to/lastmile_qr_scan", "android": "https://dc.lft.to/lastmile_qr_scan"}, "is_reserved": 0}, {"lon": -77.03623466666667, "bike_id": "8aa48cf2e41ac98a1cc2a7300ac1e5f1", "lat": 38.931609, "fusion_lon": 0.0, "fusion_lat": 0.0, "type": "electric_scooter", "name": "8aa48cf2e41ac98a1cc2a7300ac1e5f1", "is_disabled": 0, "rental_uris": {"ios": "https://dc.lft.to/lastmile_qr_scan", "android": "https://dc.lft.to/lastmile_qr_scan"}, "is_reserved": 0}, {"lon": -77.026157, "bike_id": "f39af80c5346d342eea8c6f66656068d", "lat": 38.883657666666664, "fusion_lon": 0.0, "fusion_lat": 0.0, "type": "electric_scooter", "name": "f39af80c5346d342eea8c6f66656068d", "is_disabled": 0, "rental_uris": {"ios": "https://dc.lft.to/lastmile_qr_scan", "android": "https://dc.lft.to/lastmile_qr_scan"}, "is_reserved": 0}, {"lon": -77.02279433333334, "bike_id": "fac50174177408dd477bb502def1bfba", "lat": 38.878288166666664, "fusion_lon": 0.0, "fusion_lat": 0.0, "type": "electric_scooter", "name": "fac50174177408dd477bb502def1bfba", "is_disabled": 0, "rental_uris": {"ios": "https://dc.lft.to/lastmile_qr_scan", "android": "https://dc.lft.to/lastmile_qr_scan"}, "is_reserved": 0},