{"data": {"bikes": [{"lon": -76.990017, "bike_id": "8b679d5315de1b2247e161f04ea50305", "lat": 38.86503183333333, "fusion_lon": 0.0, "fusion_lat": 0.0, "type": "electric_scooter", "name": "8b679d5315de1b2247e161f04ea50305", "is_disabled": 0, "rental_uris": {"ios": "https://dc.lft.to/lastmile_qr_scan", "android": "https://dc.lft.to/lastmile_qr_scan"}, "is_reserved": 0}, {"lon": -77.068339, "bike_id": "5051cb36d3d6eaaad0466b1e611dde96", "lat": 38.805655, "fusion_lon": 0.0, "fusion_lat": 0.0, "type": "electric_bike", "name": "5051cb36d3d6eaaad0466b1e611dde96", "is_disabled": 0, "rental_uris": {"ios": "https://dc.lft.to/lastmile_qr_scan", "android": "https://dc.lft.to/lastmile_qr_scan"}, "is_reserved": 0}, {"lon": -77.03265616666667, "bike_id": "c191143ed02fb4f27f7bb10b1348439c", "lat": 38.937017, "fusion_lon": 0.0, "fusion_lat": 0.0, "type": "electric_scooter", "name": "c191143ed02fb4f27f7bb10b1348439c", "is_disabled": 0, "rental_uris": {"ios": "https://dc.lft.to/lastmile_qr_scan", "android": "https://dc.lft.to/lastmile_qr_scan"}, "is_reserved": 0}, {"lon": -77.003284, "bike_id": "417edac59e8c218847a2f5bfb3941028", "lat": 38.89726133333333, "fusion_lon": 0.0, "fusion_lat": 0.0, "type": "electric_scooter", "name": "417edac59e8c218847a2f5bfb3941028", "is_disabled": 0, "rental_uris": {"ios": "https://dc.lft.to/lastmile_qr_scan", "android": "https://dc.lft.to/lastmile_qr_scan"}, "is_reserved": 0}, {"lon": -77.00521283333333, "bike_id": "fec8c770bd8bf79e3fa060d9a83d9bb3", "lat": 38.87544333333334, "fusion_lon": 0.0, "fusion_lat": 0.0, "type": "electric_scooter", "name": "fec8c770bd8bf79e3fa060d9a83d9bb3", "is_disabled": 0, "rental_uris": {"ios": "https://dc.lft.to/lastmile_qr_scan", "android": "https://dc.lft.to/lastmile_qr_scan"}, "is_reserved": 0}, {"lon": -77.0281285, "bike_id": "05739bdaeb364367aad6759b5227b767", "lat": 38.9308155, "fusion_lon": 0.0, "fusion_lat": 0.0, "type": "electric_scooter", "name": "05739bdaeb364367aad6759b5227b767", "is_disabled": 0, "rental_uris": {"ios": "https://dc.lft.to/lastmile_qr_scan", "android": "https://dc.lft.to/lastmile_qr_scan"}, "is_reserved": 0}, {"lon": -77.027601, "bike_id": "74251c207bd66ef8b17e2a8b00d51067", "lat": 38.95426283333333, "fusion_lon": 0.0, "fusion_lat": 0.0, "type": "electric_scooter", "name": "74251c207bd66ef8b17e2a8b00d51067", "is_disabled": 0, "rental_uris": {"ios": "https://dc.lft.to/lastmile_qr_scan", "android": "https://dc.lft.to/lastmile_qr_scan"}, "is_reserved": 0}, {"lon": -76.98084733333333, "bike_id": "a0c8dff97347b057d15b0a6c9508d141", "lat": 38.90707866666666, "fusion_lon": 0.0, "fusion_lat": 0.0, "type": "electric_scooter", "name": "a0c8dff97347b057d15b0a6c9508d141", "is_disabled": 0, "rental_uris": {"ios": "https://dc.lft.to/lastmile_qr_scan", "android": "https://dc.lft.to/lastmile_qr_scan"}, "is_reserved": 0}, {"lon": -77.05236816666667, "bike_id": "5a844ac4c91cdba39498539547a2463f", "lat": 38.92342, "fusion_lon": 0.0, "fusion_lat": 0.0, "type": "electric_scooter", "name": "5a844ac4c91cdba39498539547a2463f", "is_disabled": 0, "rental_uris": {"ios": "https://dc.lft.to/lastmile_qr_scan", "android": "https://dc.lft.to/lastmile_qr_scan"}, "is_reserved": 0}, {"lon": -77.032169, "bike_id": "31e43c7ef8d50614a46aa98706dc2132", "lat": 38.9170825, "fusion_lon": 0.0, "fusion_lat": 0.0, "type": "electric_scooter", "name": "31e43c7ef8d50614a46aa98706dc2132", "is_disabled": 0, "rental_uris": {"ios": "https://dc.lft.to/lastmile_qr_scan", "android": "https://dc.lft.to/lastmile_qr_scan"}, "is_reserved": 0}, {"lon": -77.046905, "bike_id": "cf65fd8044619ecb545f33053bdd59a3", "lat": 38.918951166666666, "fusion_lon": 0.0, "fusion_lat": 0.0, "type": "electric_scooter", "name": "cf65fd8044619ecb545f33053bdd59a3", "is_disabled": 0, "rental_uris": {"ios": "https://dc.lft.to/lastmile_qr_scan", "android": "https://dc.lft.to/lastmile_qr_scan"}, "is_reserved": 0}, {"lon": -77.0366405, "bike_id": "ed4b54539b736720087407772ea6e9e6", "lat": 38.93340933333333, "fusion_lon": 0.0, "fusion_lat": 0.0, "type": "electric_scooter", "name": "ed4b54539b736720087407772ea6e9e6", "is_disabled": 0, "rental_uris": {"ios": "https://dc.lft.to/lastmile_qr_scan", "android": "https://dc.lft.to/lastmile_qr_scan"}, "is_reserved": 0}, {"lon": -77.04707466666666, "bike_id": "d52ea9354c15e6b33606c3f4ed4a939a", "lat": 38.92063433333333, "fusion_lon": 0.0, "fusion_lat": 0.0, "type": "electric_scooter", "name": "d52ea9354c15e6b33606c3f4ed4a939a", "is_disabled": 0, "rental_uris": {"ios": "https://dc.lft.to/lastmile_qr_scan", "android": "https://dc.lft.to/lastmile_qr_scan"}, "is_reserved": 0}, {"lon": -76.9493255, "bike_id": "5ed999493b9641ba79ce1b3243ddd0f8", "lat": 38.90376116666667, "fusion_lon": 0.0, "fusion_lat": 0.0, "type": "electric_scooter", "name": "5ed999493b9641ba79ce1b3243ddd0f8", "is_disabled": 0, "rental_uris": {"ios": "https://dc.lft.to/lastmile_qr_scan", "android": "https://dc.lft.to/lastmile_qr_scan"}, "is_reserved": 0}, {"lon": -77.0326965, "bike_id": "c4bd785165b06cebc8ccb27a329c655b", "lat": 38.932293666666666, "fusion_lon": 0.0, "fusion_lat": 0.0, "type": "electric_scooter", "name": "c4bd785165b06cebc8ccb27a329c655b", "is_disabled": 0, "rental_uris": {"ios": "https://dc.lft.to/lastmile_qr_scan", "android": "https://dc.lft.to/lastmile_qr_scan"}, "is_reserved": 0}, {"lon": -76.99867816666666, "bike_id": "5b33d6c0096003ee5ce22d3e883e9242", "lat": 38.90026, "fusion_lon": 0.0, "fusion_lat": 0.0, "type": "electric_scooter", "name": "5b33d6c0096003ee5ce22d3e883e9242", "is_disabled": 0, "rental_uris": {"ios": "https://dc.lft.to/lastmile_qr_scan", "android": "https://dc.lft.to/lastmile_qr_scan"}, "is_reserved": 0}, {"lon": -77.02690483333333, "bike_id": "1b328e24e395f41df38c1e70e53e007c", "lat": 38.9039265, "fusion_lon": 0.0, "fusion_lat": 0.0, "type": "electric_scooter", "name": "1b328e24e395f41df38c1e70e53e007c", "is_disabled": 0, "rental_uris": {"ios": "https://dc.lft.to/lastmile_qr_scan", "android": "https://dc.lft.to/lastmile_qr_scan"}, "is_reserved": 0}, {"lon": -77.00187766666667, "bike_id": "e6e52169c45db0678e12e6e7c1b24f4d", "lat": 38.894744, "fusion_lon": 0.0, "fusion_lat": 0.0, "type": "electric_scooter", "name": "e6e52169c45db0678e12e6e7c1b24f4d", "is_disabled": 0, "rental_uris": {"ios": "https://dc.lft.to/lastmile_qr_scan", "android": "https://dc.lft.to/lastmile_qr_scan"}, "is_reserved": 0}, {"lon": -77.01474833333333, "bike_id": "8480524e1f79cb76d3324fe11249f0f0", "lat": 38.91928083333333, "fusion_lon": 0.0, "fusion_lat": 0.0, "type": "electric_scooter", "name": "8480524e1f79cb76d3324fe11249f0f0", "is_disabled": 0, "rental_uris": {"ios": "https://dc.lft.to/lastmile_qr_scan", "android": "https://dc.lft.to/lastmile_qr_scan"}, "is_reserved": 0}, {"lon": -76.99789833333334, "bike_id": "69b9e4c7e60c81817753593109b66cdd", "lat": 38.89088566666667, "fusion_lon": 0.0, "fusion_lat": 0.0, "type": "electric_scooter", "name": "69b9e4c7e60c81817753593109b66cdd", "is_disabled": 0, "rental_uris": {"ios": "https://dc.lft.to/lastmile_qr_scan", "android": "https://dc.lft.to/lastmile_qr_scan"}, "is_reserved": 0}, {"lon": -76.98105083333333, "bike_id": "46f2f32ab7187080124bd45351f1f55a", "lat": 38.87729483333333, "fusion_lon": 0.0, "fusion_lat": 0.0, "type": "electric_bike", "name": "46f2f32ab7187080124bd45351f1f55a", "is_disabled": 0, "rental_uris": {"ios": "https://dc.lft.to/lastmile_qr_scan", "android": "https://dc.lft.to/lastmile_qr_scan"}, "is_reserved": 0}, {"lon": -77.03204583333333, "bike_id": "a013be948ddf26d182eab590fdd9cb7f", "lat": 38.909778833333334, "fusion_lon": 0.0, "fusion_lat": 0.0, "type": "electric_scooter", "name": "a013be948ddf26d182eab590fdd9cb7f", "is_disabled": 0, "rental_uris": {"ios": "https://dc.lft.to/lastmile_qr_scan", "android": "https://dc.lft.to/lastmile_qr_scan"}, "is_reserved": 0}, {"lon": -77.0095645, "bike_id": "9544587bd144a115f0c7d124a3f74588", "lat": 38.92137733333333, "fusion_lon": 0.0, "fusion_lat": 0.0, "type": "electric_scooter", "name": "9544587bd144a115f0c7d124a3f74588", "is_disabled": 0, "rental_uris": {"ios": "https://dc.lft.to/lastmile_qr_scan", "android": "https://dc.lft.to/lastmile_qr_scan"}, "is_reserved": 0}, {"lon": -76.99923716666666, "bike_id": "4a40c491203b846621ec90e48a0219ad", "lat": 38.88972366666667, "fusion_lon": 0.0, "fusion_lat": 0.0, "type": "electric_scooter", "name": "4a40c491203b846621ec90e48a0219ad", "is_disabled": 0, "rental_uris": {"ios": "https://dc.lft.to/lastmile_qr_scan", "android": "https://dc.lft.to/lastmile_qr_scan"}, "is_reserved": 0}, {"lon": -77.026914, "bike_id": "de56a42de2ab98f8736e60c3e87035af", "lat": 38.8976985, "fusion_lon": 0.0, "fusion_lat": 0.0, "type": "electric_scooter", "name": "de56a42de2ab98f8736e60c3e87035af", "is_disabled": 0, "rental_uris": {"ios": "https://dc.lft.to/lastmile_qr_scan", "android": "https://dc.lft.to/lastmile_qr_scan"}, "is_reserved": 0}, {"lon": -77.0365815, "bike_id": "6f3c7213f596b19311ff6118da1d8254", "lat": 38.933309333333334, "fusion_lon": 0.0, "fusion_lat": 0.0, "type": "electric_scooter", "name": "6f3c7213f596b19311ff6118da1d8254", "is_disabled": 0, "rental_uris": {"ios": "https://dc.lft.to/lastmile_qr_scan", "android": "https://dc.lft.to/lastmile_qr_scan"}, "is_reserved": 0}, {"lon": -77.03339016666666, "bike_id": "102708231c0817a3079bad26285318bb", "lat": 38.9351905, "fusion_lon": 0.0, "fusion_lat": 0.0, "type": "electric_scooter", "name": "102708231c0817a3079bad26285318bb", "is_disabled": 0, "rental_uris": {"ios": "https://dc.lft.to/lastmile_qr_scan", "android": "https://dc.lft.to/lastmile_qr_scan"}, "is_reserved": 0}, {"lon": -76.98248133333334, "bike_id": "72bb7ace97c194deabc799ebfed95f9f", "lat": 38.86456483333333, "fusion_lon": 0.0, "fusion_lat": 0.0, "type": "electric_scooter", "name": "72bb7ace97c194deabc799ebfed95f9f", "is_disabled": 0, "rental_uris": {"ios": "https://dc.lft.to/lastmile_qr_scan", "android": "https://dc.lft.to/lastmile_qr_scan"}, "is_reserved": 0}, {"lon": -77.0512945, "bike_id": "199fe7eaaae7f4939b210d44ab705a9b", "lat": 38.92364333333333, "fusion_lon": 0.0, "fusion_lat": 0.0, "type": "electric_scooter", "name": "199fe7eaaae7f4939b210d44ab705a9b", "is_disabled": 0, "rental_uris": {"ios": "https://dc.lft.to/lastmile_qr_scan", "android": "https://dc.lft.to/lastmile_qr_scan"}, "is_reserved": 0}, {"lon": -77.0557895, "bike_id": "390949be77488f3bed8c116e11da9238", "lat": 38.915992833333334, "fusion_lon": 0.0, "fusion_lat": 0.0, "type": "electric_scooter", "name": "390949be77488f3bed8c116e11da9238", "is_disabled": 0, "rental_uris": {"ios": "https://dc.lft.to/lastmile_qr_scan", "android": "https://dc.lft.to/lastmile_qr_scan"}, "is_reserved": 0}, {"lon": -76.97328816666666, "bike_id": "8c7b90e2af10a6a695c4e520cb4065ef", "lat": 38.90482866666667, "fusion_lon": 0.0, "fusion_lat": 0.0, "type": "electric_bike", "name": "8c7b90e2af10a6a695c4e520cb4065ef", "is_disabled": 0, "rental_uris": {"ios": "https://dc.lft.to/lastmile_qr_scan", "android": "https://dc.lft.to/lastmile_qr_scan"}, "is_reserved": 0}, {"lon": -77.02167116666666, "bike_id": "6aafa08e001365145deebf5069d5d097", "lat": 38.89749616666667, "fusion_lon": 0.0, "fusion_lat": 0.0, "type": "electric_scooter", "name": "6aafa08e001365145deebf5069d5d097", "is_disabled": 0, "rental_uris": {"ios": "https://dc.lft.to/lastmile_qr_scan", "android": "https://dc.lft.to/lastmile_qr_scan"}, "is_reserved": 0}, {"lon": -77.02688083333334, "bike_id": "8d971aa3235c9008b3c29ecf97ca7ffb", "lat": 38.9006505, "fusion_lon": 0.0, "fusion_lat": 0.0, "type": "electric_scooter", "name": "8d971aa3235c9008b3c29ecf97ca7ffb", "is_disabled": 0, "rental_uris": {"ios": "https://dc.lft.to/lastmile_qr_scan", "android": "https://dc.lft.to/lastmile_qr_scan"}, "is_reserved": 0}, {"lon": -77.05865783333333, "bike_id": "ab275f1b6b2c9ca971018fdaaa0ad793", "lat": 38.93609166666667, "fusion_lon": 0.0, "fusion_lat": 0.0, "type": "electric_scooter", "name": "ab275f1b6b2c9ca971018fdaaa0ad793", "is_disabled": 0, "rental_uris": {"ios": "https://dc.lft.to/lastmile_qr_scan", "android": "https://dc.lft.to/lastmile_qr_scan"}, "is_reserved": 0}, {"lon": -76.99052116666667, "bike_id": "37d2633757ed0da50ad9e6819dbb9d44", "lat": 38.884174333333334, "fusion_lon": 0.0, "fusion_lat": 0.0, "type": "electric_scooter", "name": "37d2633757ed0da50ad9e6819dbb9d44", "is_disabled": 0, "rental_uris": {"ios": "https://dc.lft.to/lastmile_qr_scan", "android": "https://dc.lft.to/lastmile_qr_scan"}, "is_reserved": 0}, {"lon": -76.91598466666667, "bike_id": "10c4c1cbc48dd62acdbcbc1bdd690ccf", "lat": 38.87983666666667, "fusion_lon": 0.0, "fusion_lat": 0.0, "type": "electric_bike", "name": "10c4c1cbc48dd62acdbcbc1bdd690ccf", "is_disabled": 0, "rental_uris": {"ios": "https://dc.lft.to/lastmile_qr_scan", "android": "https://dc.lft.to/lastmile_qr_scan"}, "is_reserved": 0}, {"lon": -77.02185916666667, "bike_id": "888158c9cf64f577f3036b445fef619a", "lat": 38.910569833333334, "fusion_lon": 0.0, "fusion_lat": 0.0, "type": "electric_scooter", "name": "888158c9cf64f577f3036b445fef619a", "is_disabled": 0, "rental_uris": {"ios": "https://dc.lft.to/lastmile_qr_scan", "android": "https://dc.lft.to/lastmile_qr_scan"}, "is_reserved": 0}, {"lon": -76.98214966666667, "bike_id": "b382acc1204cc2c1d39258456f15eef1", "lat": 38.86619183333333, "fusion_lon": 0.0, "fusion_lat": 0.0, "type": "electric_scooter", "name": "b382acc1204cc2c1d39258456f15eef1", "is_disabled": 0, "rental_uris": {"ios": "https://dc.lft.to/lastmile_qr_scan", "android": "https://dc.lft.to/lastmile_qr_scan"}, "is_reserved": 0}, {"lon": -77.002901, "bike_id": "9220bdb2f80baf3e0ced67cb3c8ea1c8", "lat": 38.911062, "fusion_lon": 0.0, "fusion_lat": 0.0, "type": "electric_scooter", "name": "9220bdb2f80baf3e0ced67cb3c8ea1c8", "is_disabled": 0, "rental_uris": {"ios": "https://dc.lft.to/lastmile_qr_scan", "android": "https://dc.lft.to/lastmile_qr_scan"}, "is_reserved": 0}, {"lon": -77.042475, "bike_id": "ae521af56058573e3b3a8f475a2d105f", "lat": 38.924281666666666, "fusion_lon": 0.0, "fusion_lat": 0.0, "type": "electric_scooter", "name": "ae521af56058573e3b3a8f475a2d105f", "is_disabled": 0, "rental_uris": {"ios": "https://dc.lft.to/lastmile_qr_scan", "android": "https://dc.lft.to/lastmile_qr_scan"}, "is_reserved": 0}, {"lon": -77.03443566666667, "bike_id": "6abcdfb90d2c4d26516cf4e53dd59816", "lat": 38.934307, "fusion_lon": 0.0, "fusion_lat": 0.0, "type": "electric_scooter", "name": "6abcdfb90d2c4d26516cf4e53dd59816", "is_disabled": 0, "rental_uris": {"ios": "https://dc.lft.to/lastmile_qr_scan", "android": "https://dc.lft.to/lastmile_qr_scan"}, "is_reserved": 0}, {"lon": -77.03280716666667, "bike_id": "22e326134a3363dc96939aab29a89390", "lat": 38.94096966666667, "fusion_lon": 0.0, "fusion_lat": 0.0, "type": "electric_scooter", "name": "22e326134a3363dc96939aab29a89390", "is_disabled": 0, "rental_uris": {"ios": "https://dc.lft.to/lastmile_qr_scan", "android": "https://dc.lft.to/lastmile_qr_scan"}, "is_reserved": 0}, {"lon": -77.03753716666667, "bike_id": "246054294c519ffc264b0db7c4efec14", "lat": 38.92895516666667, "fusion_lon": 0.0, "fusion_lat": 0.0, "type": "electric_scooter", "name": "246054294c519ffc264b0db7c4efec14", "is_disabled": 0, "rental_uris": {"ios": "https://dc.lft.to/lastmile_qr_scan", "android": "https://dc.lft.to/lastmile_qr_scan"}, "is_reserved": 0}, {"lon": -77.04655433333333, "bike_id": "fe6b2068b504559b16336791f4dc592c", "lat": 38.91361333333333, "fusion_lon": 0.0, "fusion_lat": 0.0, "type": "electric_scooter", "name": "fe6b2068b504559b16336791f4dc592c", "is_disabled": 0, "rental_uris": {"ios": "https://dc.lft.to/lastmile_qr_scan", "android": "https://dc.lft.to/lastmile_qr_scan"}, "is_reserved": 0}, {"lon": -77.03170716666666, "bike_id": "a4772605204923786440bab1173a83e8", "lat": 38.914129833333334, "fusion_lon": 0.0, "fusion_lat": 0.0, "type": "electric_scooter", "name": "a4772605204923786440bab1173a83e8", "is_disabled": 0, "rental_uris": {"ios": "https://dc.lft.to/lastmile_qr_scan", "android": "https://dc.lft.to/lastmile_qr_scan"}, "is_reserved": 0}, {"lon": -77.16626966666666, "bike_id": "4e41bb6e3d8a950628ec619447b553ba", "lat": 38.88833116666667, "fusion_lon": 0.0, "fusion_lat": 0.0, "type": "electric_bike", "name": "4e41bb6e3d8a950628ec619447b553ba", "is_disabled": 0, "rental_uris": {"ios": "https://dc.lft.to/lastmile_qr_scan", "android": "https://dc.lft.to/lastmile_qr_scan"}, "is_reserved": 0}, {"lon": -76.99603433333333, "bike_id": "f522df745fc2c6459a60ad37db4ae18b", "lat": 38.93085, "fusion_lon": 0.0, "fusion_lat": 0.0, "type": "electric_scooter", "name": "f522df745fc2c6459a60ad37db4ae18b", "is_disabled": 0, "rental_uris": {"ios": "https://dc.lft.to/lastmile_qr_scan", "android": "https://dc.lft.to/lastmile_qr_scan"}, "is_reserved": 0}, {"lon": -77.02500033333334, "bike_id": "71fd17ada15356fb517f80b93729085f", "lat": 38.92595083333333, "fusion_lon": 0.0, "fusion_lat": 0.0, "type": "electric_scooter", "name": "71fd17ada15356fb517f80b93729085f", "is_disabled": 0, "rental_uris": {"ios": "https://dc.lft.to/lastmile_qr_scan", "android": "https://dc.lft.to/lastmile_qr_scan"}, "is_reserved": 0}, {"lon": -77.03285716666667, "bike_id": "c8ad5706ea53f3635c6e00c2a79a9baa", "lat": 38.930205666666666, "fusion_lon": 0.0, "fusion_lat": 0.0, "type": "electric_scooter", "name": "c8ad5706ea53f3635c6e00c2a79a9baa", "is_disabled": 0, "rental_uris": {"ios": "https://dc.lft.to/lastmile_qr_scan", "android": "https://dc.lft.to/lastmile_qr_scan"}, "is_reserved": 0}, {"lon": -77.04660483333333, "bike_id": "87728de9d8b10f7a97b7e84f78206881", "lat": 38.907795666666665, "fusion_lon": 0.0, "fusion_lat": 0.0, "type": "electric_scooter", "name": "87728de9d8b10f7a97b7e84f78206881", "is_disabled": 0, "rental_uris": {"ios": "https://dc.lft.to/lastmile_qr_scan", "android": "https://dc.lft.to/lastmile_qr_scan"}, "is_reserved": 0}, {"lon": -76.98672433333333, "bike_id": "a47a02b904c233684b4b54a976054626", "lat": 38.8673525, "fusion_lon": 0.0, "fusion_lat": 0.0, "type": "electric_scooter", "name": "a47a02b904c233684b4b54a976054626", "is_disabled": 0, "rental_uris": {"ios": "https://dc.lft.to/lastmile_qr_scan", "android": "https://dc.lft.to/lastmile_qr_scan"}, "is_reserved": 0}, {"lon": -77.04133516666667, "bike_id": "fc75a006f301b0d20a0aac08b50b5eb6", "lat": 38.9426215, "fusion_lon": 0.0, "fusion_lat": 0.0, "type": "electric_scooter", "name": "fc75a006f301b0d20a0aac08b50b5eb6", "is_disabled": 0, "rental_uris": {"ios": "https://dc.lft.to/lastmile_qr_scan", "android": "https://dc.lft.to/lastmile_qr_scan"}, "is_reserved": 0}, {"lon": -77.023508, "bike_id": "39a9ef9ee7eaa5546427d4e5e740b5e1", "lat": 38.9206145, "fusion_lon": 0.0, "fusion_lat": 0.0, "type": "electric_scooter", "name": "39a9ef9ee7eaa5546427d4e5e740b5e1", "is_disabled": 0, "rental_uris": {"ios": "https://dc.lft.to/lastmile_qr_scan", "android": "https://dc.lft.to/lastmile_qr_scan"}, "is_reserved": 0}, {"lon": -77.04304566666667, "bike_id": "e19253370eeb138622ba70a3f964a51b", "lat": 38.908651166666665, "fusion_lon": 0.0, "fusion_lat": 0.0, "type": "electric_scooter", "name": "e19253370eeb138622ba70a3f964a51b", "is_disabled": 0, "rental_uris": {"ios": "https://dc.lft.to/lastmile_qr_scan", "android": "https://dc.lft.to/lastmile_qr_scan"}, "is_reserved": 0}, {"lon": -77.03517066666667, "bike_id": "287a1440d634772fe9417e358d9d99fe", "lat": 38.918384, "fusion_lon": 0.0, "fusion_lat": 0.0, "type": "electric_scooter", "name": "287a1440d634772fe9417e358d9d99fe", "is_disabled": 0, "rental_uris": {"ios": "https://dc.lft.to/lastmile_qr_scan", "android": "https://dc.lft.to/lastmile_qr_scan"}, "is_reserved": 0}, {"lon": -76.99528733333334, "bike_id": "1f568a0632ecb42135edc31dc17b8789", "lat": 38.891748166666666, "fusion_lon": 0.0, "fusion_lat": 0.0, "type": "electric_scooter", "name": "1f568a0632ecb42135edc31dc17b8789", "is_disabled": 0, "rental_uris": {"ios": "https://dc.lft.to/lastmile_qr_scan", "android": "https://dc.lft.to/lastmile_qr_scan"}, "is_reserved": 0}, {"lon": -77.04297566666666, "bike_id": "cbb5d4481ac007f4a9d40facf3df18a2", "lat": 38.90731433333333, "fusion_lon": 0.0, "fusion_lat": 0.0, "type": "electric_scooter", "name": "cbb5d4481ac007f4a9d40facf3df18a2", "is_disabled": 0, "rental_uris": {"ios": "https://dc.lft.to/lastmile_qr_scan", "android": "https://dc.lft.to/lastmile_qr_scan"}, "is_reserved": 0}, {"lon": -77.040124, "bike_id": "faa2049fb9bdd93022fdb409e0c3305a", "lat": 38.911081833333334, "fusion_lon": 0.0, "fusion_lat": 0.0, "type": "electric_scooter", "name": "faa2049fb9bdd93022fdb409e0c3305a", "is_disabled": 0, "rental_uris": {"ios": "https://dc.lft.to/lastmile_qr_scan", "android": "https://dc.lft.to/lastmile_qr_scan"}, "is_reserved": 0}, {"lon": -77.10911816666666, "bike_id": "636d70b06f70a01a597f93e5130b30a6", "lat": 39.05205016666667, "fusion_lon": 0.0, "fusion_lat": 0.0, "type": "electric_bike", "name": "636d70b06f70a01a597f93e5130b30a6", "is_disabled": 0, "rental_uris": {"ios": "https://dc.lft.to/lastmile_qr_scan", "android": "https://dc.lft.to/lastmile_qr_scan"}, "is_reserved": 0}, {"lon": -77.01420366666666, "bike_id": "c748f087367102c2495c8d9852a47173", "lat": 38.92814966666667, "fusion_lon": 0.0, "fusion_lat": 0.0, "type": "electric_scooter", "name": "c748f087367102c2495c8d9852a47173", "is_disabled": 0, "rental_uris": {"ios": "https://dc.lft.to/lastmile_qr_scan", "android": "https://dc.lft.to/lastmile_qr_scan"}, "is_reserved": 0}, {"lon": -77.0451835, "bike_id": "d37fea073d76e2fcaa8a2b64115287d3", "lat": 38.886035166666666, "fusion_lon": 0.0, "fusion_lat": 0.0, "type": "electric_scooter", "name": "d37fea073d76e2fcaa8a2b64115287d3", "is_disabled": 0, "rental_uris": {"ios": "https://dc.lft.to/lastmile_qr_scan", "android": "https://dc.lft.to/lastmile_qr_scan"}, "is_reserved": 0}, {"lon": -77.03880083333334, "bike_id": "08d82c95400daf24b7b67ccd81ec4966", "lat": 38.920053833333334, "fusion_lon": 0.0, "fusion_lat": 0.0, "type": "electric_scooter", "name": "08d82c95400daf24b7b67ccd81ec4966", "is_disabled": 0, "rental_uris": {"ios": "https://dc.lft.to/lastmile_qr_scan", "android": "https://dc.lft.to/lastmile_qr_scan"}, "is_reserved": 0}, {"lon": -77.03237566666667, "bike_id": "440332fc6447f8cf55544e243c8cc63b", "lat": 38.89652916666667, "fusion_lon": 0.0, "fusion_lat": 0.0, "type": "electric_scooter", "name": "440332fc6447f8cf55544e243c8cc63b", "is_disabled": 0, "rental_uris": {"ios": "https://dc.lft.to/lastmile_qr_scan", "android": "https://dc.lft.to/lastmile_qr_scan"}, "is_reserved": 0}, {"lon": -77.02707883333333, "bike_id": "7bd7eb37cfa5b92ea3e0fac351492421", "lat": 38.927667166666666, "fusion_lon": 0.0, "fusion_lat": 0.0, "type": "electric_scooter", "name": "7bd7eb37cfa5b92ea3e0fac351492421", "is_disabled": 0, "rental_uris": {"ios": "https://dc.lft.to/lastmile_qr_scan", "android": "https://dc.lft.to/lastmile_qr_scan"}, "is_reserved": 0}, {"lon": -77.03661733333334, "bike_id": "f3916cc96e443b9aa414e67ab0b53721", "lat": 38.91746833333333, "fusion_lon": 0.0, "fusion_lat": 0.0, "type": "electric_scooter", "name": "f3916cc96e443b9aa414e67ab0b53721", "is_disabled": 0, "rental_uris": {"ios": "https://dc.lft.to/lastmile_qr_scan", "android": "https://dc.lft.to/lastmile_qr_scan"}, "is_reserved": 0}, {"lon": -76.9299345, "bike_id": "7d484794ac129b55ef6f4b16b6e8a6fe", "lat": 38.9018775, "fusion_lon": 0.0, "fusion_lat": 0.0, "type": "electric_scooter", "name": "7d484794ac129b55ef6f4b16b6e8a6fe", "is_disabled": 0, "rental_uris": {"ios": "https://dc.lft.to/lastmile_qr_scan", "android": "https://dc.lft.to/lastmile_qr_scan"}, "is_reserved": 0}, {"lon": -77.0358915, "bike_id": "69b094bc171724460ae8f525eac42431", "lat": 38.91770233333333, "fusion_lon": 0.0, "fusion_lat": 0.0, "type": "electric_scooter", "name": "69b094bc171724460ae8f525eac42431", "is_disabled": 0, "rental_uris": {"ios": "https://dc.lft.to/lastmile_qr_scan", "android": "https://dc.lft.to/lastmile_qr_scan"}, "is_reserved": 0}, {"lon": -77.02289483333334, "bike_id": "7fb6847036a04446a549c93c3fb73fcd", "lat": 38.91676783333333, "fusion_lon": 0.0, "fusion_lat": 0.0, "type": "electric_scooter", "name": "7fb6847036a04446a549c93c3fb73fcd", "is_disabled": 0, "rental_uris": {"ios": "https://dc.lft.to/lastmile_qr_scan", "android": "https://dc.lft.to/lastmile_qr_scan"}, "is_reserved": 0}, {"lon": -77.02414133333333, "bike_id": "9bdfe192b0ce3559ecd2867f857543f9", "lat": 38.919929833333335, "fusion_lon": 0.0, "fusion_lat": 0.0, "type": "electric_scooter", "name": "9bdfe192b0ce3559ecd2867f857543f9", "is_disabled": 0, "rental_uris": {"ios": "https://dc.lft.to/lastmile_qr_scan", "android": "https://dc.lft.to/lastmile_qr_scan"}, "is_reserved": 0}, {"lon": -77.0069605, "bike_id": "58fbd953301bec52c1a3d9996c0f2d68", "lat": 38.917423166666666, "fusion_lon": 0.0, "fusion_lat": 0.0, "type": "electric_scooter", "name": "58fbd953301bec52c1a3d9996c0f2d68", "is_disabled": 0, "rental_uris": {"ios": "https://dc.lft.to/lastmile_qr_scan", "android": "https://dc.lft.to/lastmile_qr_scan"}, "is_reserved": 0}, {"lon": -77.00336916666667, "bike_id": "7cabd5ad2a8be872f7f17e9a0e12c329", "lat": 38.89189533333333, "fusion_lon": 0.0, "fusion_lat": 0.0, "type": "electric_scooter", "name": "7cabd5ad2a8be872f7f17e9a0e12c329", "is_disabled": 0, "rental_uris": {"ios": "https://dc.lft.to/lastmile_qr_scan", "android": "https://dc.lft.to/lastmile_qr_scan"}, "is_reserved": 0}, {"lon": -77.04316566666667, "bike_id": "5ccfb7caa4456d0f5bc32b7c20adf430", "lat": 38.915636, "fusion_lon": 0.0, "fusion_lat": 0.0, "type": "electric_scooter", "name": "5ccfb7caa4456d0f5bc32b7c20adf430", "is_disabled": 0, "rental_uris": {"ios": "https://dc.lft.to/lastmile_qr_scan", "android": "https://dc.lft.to/lastmile_qr_scan"}, "is_reserved": 0}, {"lon": -77.03186883333333, "bike_id": "02ae9bc8c4fe423adf43c2467bbc4593", "lat": 38.91920116666667, "fusion_lon": 0.0, "fusion_lat": 0.0, "type": "electric_scooter", "name": "02ae9bc8c4fe423adf43c2467bbc4593", "is_disabled": 0, "rental_uris": {"ios": "https://dc.lft.to/lastmile_qr_scan", "android": "https://dc.lft.to/lastmile_qr_scan"}, "is_reserved": 0}, {"lon": -77.02124966666666, "bike_id": "a6309cd76c0e3b7c7198415d201d57f1", "lat": 38.93701883333333, "fusion_lon": 0.0, "fusion_lat": 0.0, "type": "electric_scooter", "name": "a6309cd76c0e3b7c7198415d201d57f1", "is_disabled": 0, "rental_uris": {"ios": "https://dc.lft.to/lastmile_qr_scan", "android": "https://dc.lft.to/lastmile_qr_scan"}, "is_reserved": 0}, {"lon": -77.04640816666667, "bike_id": "8f3d6c899762b92ad90e907501715e07", "lat": 38.9157865, "fusion_lon": 0.0, "fusion_lat": 0.0, "type": "electric_scooter", "name": "8f3d6c899762b92ad90e907501715e07", "is_disabled": 0, "rental_uris": {"ios": "https://dc.lft.to/lastmile_qr_scan", "android": "https://dc.lft.to/lastmile_qr_scan"}, "is_reserved": 0}, {"lon": -77.05199566666667, "bike_id": "a183e8f45428d695e6212a4fee796f19", "lat": 38.90068983333333, "fusion_lon": 0.0, "fusion_lat": 0.0, "type": "electric_scooter", "name": "a183e8f45428d695e6212a4fee796f19", "is_disabled": 0, "rental_uris": {"ios": "https://dc.lft.to/lastmile_qr_scan", "android": "https://dc.lft.to/lastmile_qr_scan"}, "is_reserved": 0}, {"lon": -77.04642216666667, "bike_id": "01b90bc431fee862dd1eba3e703f5bc3", "lat": 38.90546533333333, "fusion_lon": 0.0, "fusion_lat": 0.0, "type": "electric_scooter", "name": "01b90bc431fee862dd1eba3e703f5bc3", "is_disabled": 0, "rental_uris": {"ios": "https://dc.lft.to/lastmile_qr_scan", "android": "https://dc.lft.to/lastmile_qr_scan"}, "is_reserved": 0}, {"lon": -77.03229583333334, "bike_id": "129c1b6050faddb7092ff32639bf5a35", "lat": 38.92899, "fusion_lon": 0.0, "fusion_lat": 0.0, "type": "electric_scooter", "name": "129c1b6050faddb7092ff32639bf5a35", "is_disabled": 0, "rental_uris": {"ios": "https://dc.lft.to/lastmile_qr_scan", "android": "https://dc.lft.to/lastmile_qr_scan"}, "is_reserved": 0}, {"lon": -77.04466483333333, "bike_id": "f499e259599e7e3a5b2abfff8c5a108e", "lat": 38.90735733333333, "fusion_lon": 0.0, "fusion_lat": 0.0, "type": "electric_scooter", "name": "f499e259599e7e3a5b2abfff8c5a108e", "is_disabled": 0, "rental_uris": {"ios": "https://dc.lft.to/lastmile_qr_scan", "android": "https://dc.lft.to/lastmile_qr_scan"}, "is_reserved": 0}, {"lon": -77.00693233333334, "bike_id": "1c7474637c7bea27c0705d207d0535b3", "lat": 38.905426166666665, "fusion_lon": 0.0, "fusion_lat": 0.0, "type": "electric_scooter", "name": "1c7474637c7bea27c0705d207d0535b3", "is_disabled": 0, "rental_uris": {"ios": "https://dc.lft.to/lastmile_qr_scan", "android": "https://dc.lft.to/lastmile_qr_scan"}, "is_reserved": 0}, {"lon": -77.02501316666667, "bike_id": "f20cbe52e15a9bacb58f59a4039de7dd", "lat": 38.93097816666667, "fusion_lon": 0.0, "fusion_lat": 0.0, "type": "electric_scooter", "name": "f20cbe52e15a9bacb58f59a4039de7dd", "is_disabled": 0, "rental_uris": {"ios": "https://dc.lft.to/lastmile_qr_scan", "android": "https://dc.lft.to/lastmile_qr_scan"}, "is_reserved": 0}, {"lon": -76.93755266666666, "bike_id": "f662597ef87b434b405d742c7df6e67c", "lat": 38.89043683333333, "fusion_lon": 0.0, "fusion_lat": 0.0, "type": "electric_scooter", "name": "f662597ef87b434b405d742c7df6e67c", "is_disabled": 0, "rental_uris": {"ios": "https://dc.lft.to/lastmile_qr_scan", "android": "https://dc.lft.to/lastmile_qr_scan"}, "is_reserved": 0}, {"lon": -76.93731683333333, "bike_id": "79a31f2d3c6b97773764a76607fc88ef", "lat": 38.89007466666666, "fusion_lon": 0.0, "fusion_lat": 0.0, "type": "electric_scooter", "name": "79a31f2d3c6b97773764a76607fc88ef", "is_disabled": 0, "rental_uris": {"ios": "https://dc.lft.to/lastmile_qr_scan", "android": "https://dc.lft.to/lastmile_qr_scan"}, "is_reserved": 0}, {"lon": -77.07334016666667, "bike_id": "a757d8788d6ca616fac14336c3e1b9a0", "lat": 38.93560566666667, "fusion_lon": 0.0, "fusion_lat": 0.0, "type": "electric_scooter", "name": "a757d8788d6ca616fac14336c3e1b9a0", "is_disabled": 0, "rental_uris": {"ios": "https://dc.lft.to/lastmile_qr_scan", "android": "https://dc.lft.to/lastmile_qr_scan"}, "is_reserved": 0}, {"lon": -77.0449375, "bike_id": "018acb539ff2a06f3cba9bff51954566", "lat": 38.91385866666667, "fusion_lon": 0.0, "fusion_lat": 0.0, "type": "electric_scooter", "name": "018acb539ff2a06f3cba9bff51954566", "is_disabled": 0, "rental_uris": {"ios": "https://dc.lft.to/lastmile_qr_scan", "android": "https://dc.lft.to/lastmile_qr_scan"}, "is_reserved": 0}, {"lon": -77.0050225, "bike_id": "8af2c17b3c9c7c3825d9ca300de000da", "lat": 38.905684, "fusion_lon": 0.0, "fusion_lat": 0.0, "type": "electric_scooter", "name": "8af2c17b3c9c7c3825d9ca300de000da", "is_disabled": 0, "rental_uris": {"ios": "https://dc.lft.to/lastmile_qr_scan", "android": "https://dc.lft.to/lastmile_qr_scan"}, "is_reserved": 0}, {"lon": -77.01639366666667, "bike_id": "4d90d71111825a18a69f358d8e00d21b", "lat": 38.92896783333333, "fusion_lon": 0.0, "fusion_lat": 0.0, "type": "electric_scooter", "name": "4d90d71111825a18a69f358d8e00d21b", "is_disabled": 0, "rental_uris": {"ios": "https://dc.lft.to/lastmile_qr_scan", "android": "https://dc.lft.to/lastmile_qr_scan"}, "is_reserved": 0}, {"lon": -77.044315, "bike_id": "f5c51ae9aea3a06f758c08a6496423fe", "lat": 38.92124116666667, "fusion_lon": 0.0, "fusion_lat": 0.0, "type": "electric_scooter", "name": "f5c51ae9aea3a06f758c08a6496423fe", "is_disabled": 0, "rental_uris": {"ios": "https://dc.lft.to/lastmile_qr_scan", "android": "https://dc.lft.to/lastmile_qr_scan"}, "is_reserved": 0}, {"lon": -77.02975333333333, "bike_id": "4ed1ee0d743ac57076467bffe235f1e2", "lat": 38.9073635, "fusion_lon": 0.0, "fusion_lat": 0.0, "type": "electric_scooter", "name": "4ed1ee0d743ac57076467bffe235f1e2", "is_disabled": 0, "rental_uris": {"ios": "https://dc.lft.to/lastmile_qr_scan", "android": "https://dc.lft.to/lastmile_qr_scan"}, "is_reserved": 0}, {"lon": -77.0279235, "bike_id": "816e1a7e9ae69e644382a23cf3f172da", "lat": 38.930157333333334, "fusion_lon": 0.0, "fusion_lat": 0.0, "type": "electric_scooter", "name": "816e1a7e9ae69e644382a23cf3f172da", "is_disabled": 0, "rental_uris": {"ios": "https://dc.lft.to/lastmile_qr_scan", "android": "https://dc.lft.to/lastmile_qr_scan"}, "is_reserved": 0}, {"lon": -77.077611, "bike_id": "30ea00de44d068008ca650437482bb81", "lat": 38.925638, "fusion_lon": 0.0, "fusion_lat": 0.0, "type": "electric_scooter", "name": "30ea00de44d068008ca650437482bb81", "is_disabled": 0, "rental_uris": {"ios": "https://dc.lft.to/lastmile_qr_scan", "android": "https://dc.lft.to/lastmile_qr_scan"}, "is_reserved": 0}, {"lon": -77.071125, "bike_id": "6a6b2886115801bf13f4cb02f68b7bfe", "lat": 38.91976833333333, "fusion_lon": 0.0, "fusion_lat": 0.0, "type": "electric_scooter", "name": "6a6b2886115801bf13f4cb02f68b7bfe", "is_disabled": 0, "rental_uris": {"ios": "https://dc.lft.to/lastmile_qr_scan", "android": "https://dc.lft.to/lastmile_qr_scan"}, "is_reserved": 0}, {"lon": -77.05414883333333, "bike_id": "dea7c92ac588d2be6d3a216ceb923637", "lat": 38.92840283333334, "fusion_lon": 0.0, "fusion_lat": 0.0, "type": "electric_scooter", "name": "dea7c92ac588d2be6d3a216ceb923637", "is_disabled": 0, "rental_uris": {"ios": "https://dc.lft.to/lastmile_qr_scan", "android": "https://dc.lft.to/lastmile_qr_scan"}, "is_reserved": 0}, {"lon": -77.02380416666666, "bike_id": "3bad3c2ab97034426c526384b0dc9b37", "lat": 38.892154, "fusion_lon": 0.0, "fusion_lat": 0.0, "type": "electric_scooter", "name": "3bad3c2ab97034426c526384b0dc9b37", "is_disabled": 0, "rental_uris": {"ios": "https://dc.lft.to/lastmile_qr_scan", "android": "https://dc.lft.to/lastmile_qr_scan"}, "is_reserved": 0}, {"lon": -76.9968275, "bike_id": "319c27defde90534a154dc8ab7442d16", "lat": 38.860240833333336, "fusion_lon": 0.0, "fusion_lat": 0.0, "type": "electric_scooter", "name": "319c27defde90534a154dc8ab7442d16", "is_disabled": 0, "rental_uris": {"ios": "https://dc.lft.to/lastmile_qr_scan", "android": "https://dc.lft.to/lastmile_qr_scan"}, "is_reserved": 0}, {"lon": -77.05061233333333, "bike_id": "518dd4472037d369e6ab1dd276e5df91", "lat": 38.90731366666667, "fusion_lon": 0.0, "fusion_lat": 0.0, "type": "electric_scooter", "name": "518dd4472037d369e6ab1dd276e5df91", "is_disabled": 0, "rental_uris": {"ios": "https://dc.lft.to/lastmile_qr_scan", "android": "https://dc.lft.to/lastmile_qr_scan"}, "is_reserved": 0}, {"lon": -77.036578, "bike_id": "393228cbd7c06fdd036e22eccc2540a4", "lat": 38.92112783333334, "fusion_lon": 0.0, "fusion_lat": 0.0, "type": "electric_scooter", "name": "393228cbd7c06fdd036e22eccc2540a4", "is_disabled": 0, "rental_uris": {"ios": "https://dc.lft.to/lastmile_qr_scan", "android": "https://dc.lft.to/lastmile_qr_scan"}, "is_reserved": 0}, {"lon": -77.04864883333333, "bike_id": "f352b790816626ecb98dad257efa62b0", "lat": 38.9039935, "fusion_lon": 0.0, "fusion_lat": 0.0, "type": "electric_scooter", "name": "f352b790816626ecb98dad257efa62b0", "is_disabled": 0, "rental_uris": {"ios": "https://dc.lft.to/lastmile_qr_scan", "android": "https://dc.lft.to/lastmile_qr_scan"}, "is_reserved": 0}, {"lon": -77.05316883333333, "bike_id": "50760e57d69a0d928c430952ebcc8685", "lat": 38.9008225, "fusion_lon": 0.0, "fusion_lat": 0.0, "type": "electric_scooter", "name": "50760e57d69a0d928c430952ebcc8685", "is_disabled": 0, "rental_uris": {"ios": "https://dc.lft.to/lastmile_qr_scan", "android": "https://dc.lft.to/lastmile_qr_scan"}, "is_reserved": 0}, {"lon": -76.975187, "bike_id": "88092ab5fb050d03f4883405bd3dd892", "lat": 38.9669675, "fusion_lon": 0.0, "fusion_lat": 0.0, "type": "electric_bike", "name": "88092ab5fb050d03f4883405bd3dd892", "is_disabled": 0, "rental_uris": {"ios": "https://dc.lft.to/lastmile_qr_scan", "android": "https://dc.lft.to/lastmile_qr_scan"}, "is_reserved": 0}, {"lon": -77.0414885, "bike_id": "b5af20c3469550a204f6213abbe93d36", "lat": 38.9074095, "fusion_lon": 0.0, "fusion_lat": 0.0, "type": "electric_scooter", "name": "b5af20c3469550a204f6213abbe93d36", "is_disabled": 0, "rental_uris": {"ios": "https://dc.lft.to/lastmile_qr_scan", "android": "https://dc.lft.to/lastmile_qr_scan"}, "is_reserved": 0}, {"lon": -77.02081466666667, "bike_id": "a150a3e03ca7c7b4441d0be813ce31a2", "lat": 38.957444333333335, "fusion_lon": 0.0, "fusion_lat": 0.0, "type": "electric_scooter", "name": "a150a3e03ca7c7b4441d0be813ce31a2", "is_disabled": 0, "rental_uris": {"ios": "https://dc.lft.to/lastmile_qr_scan", "android": "https://dc.lft.to/lastmile_qr_scan"}, "is_reserved": 0}, {"lon": -76.996528, "bike_id": "5b0f004e5e0f74455bebac7f13a7d9b8", "lat": 38.9882065, "fusion_lon": 0.0, "fusion_lat": 0.0, "type": "electric_bike", "name": "5b0f004e5e0f74455bebac7f13a7d9b8", "is_disabled": 0, "rental_uris": {"ios": "https://dc.lft.to/lastmile_qr_scan", "android": "https://dc.lft.to/lastmile_qr_scan"}, "is_reserved": 0}, {"lon": -76.94631633333333, "bike_id": "4a5c2978a2809493dc1c344cc3ed9d3d", "lat": 38.898333, "fusion_lon": 0.0, "fusion_lat": 0.0, "type": "electric_scooter", "name": "4a5c2978a2809493dc1c344cc3ed9d3d", "is_disabled": 0, "rental_uris": {"ios": "https://dc.lft.to/lastmile_qr_scan", "android": "https://dc.lft.to/lastmile_qr_scan"}, "is_reserved": 0}, {"lon": -76.992101, "bike_id": "3e475a296a84385dd6b137530cfebfd6", "lat": 38.898385, "fusion_lon": 0.0, "fusion_lat": 0.0, "type": "electric_scooter", "name": "3e475a296a84385dd6b137530cfebfd6", "is_disabled": 0, "rental_uris": {"ios": "https://dc.lft.to/lastmile_qr_scan", "android": "https://dc.lft.to/lastmile_qr_scan"}, "is_reserved": 0}, {"lon": -77.02245816666667, "bike_id": "eeb8ebd5730c478a1f91ed104d6822f1", "lat": 38.92896483333333, "fusion_lon": 0.0, "fusion_lat": 0.0, "type": "electric_scooter", "name": "eeb8ebd5730c478a1f91ed104d6822f1", "is_disabled": 0, "rental_uris": {"ios": "https://dc.lft.to/lastmile_qr_scan", "android": "https://dc.lft.to/lastmile_qr_scan"}, "is_reserved": 0}, {"lon": -77.02138816666667, "bike_id": "a1c82ccc30a2f6cf37a2596d731c6bec", "lat": 38.89495733333333, "fusion_lon": 0.0, "fusion_lat": 0.0, "type": "electric_scooter", "name": "a1c82ccc30a2f6cf37a2596d731c6bec", "is_disabled": 0, "rental_uris": {"ios": "https://dc.lft.to/lastmile_qr_scan", "android": "https://dc.lft.to/lastmile_qr_scan"}, "is_reserved": 0}, {"lon": -77.02047533333334, "bike_id": "8cfbe68d8492e83252c616c3a821692e", "lat": 38.923910166666666, "fusion_lon": 0.0, "fusion_lat": 0.0, "type": "electric_scooter", "name": "8cfbe68d8492e83252c616c3a821692e", "is_disabled": 0, "rental_uris": {"ios": "https://dc.lft.to/lastmile_qr_scan", "android": "https://dc.lft.to/lastmile_qr_scan"}, "is_reserved": 0}, {"lon": -77.07302133333333, "bike_id": "a68312effdca8b1d90b1a6d25efb8998", "lat": 38.930571666666665, "fusion_lon": 0.0, "fusion_lat": 0.0, "type": "electric_scooter", "name": "a68312effdca8b1d90b1a6d25efb8998", "is_disabled": 0, "rental_uris": {"ios": "https://dc.lft.to/lastmile_qr_scan", "android": "https://dc.lft.to/lastmile_qr_scan"}, "is_reserved": 0}, {"lon": -76.965246, "bike_id": "7e4b5a41647e28136b9dc09c49a43522", "lat": 38.87477783333333, "fusion_lon": 0.0, "fusion_lat": 0.0, "type": "electric_scooter", "name": "7e4b5a41647e28136b9dc09c49a43522", "is_disabled": 0, "rental_uris": {"ios": "https://dc.lft.to/lastmile_qr_scan", "android": "https://dc.lft.to/lastmile_qr_scan"}, "is_reserved": 0}, {"lon": -77.0256265, "bike_id": "ccd8ede4d26af6a3b1ce709d07123a85", "lat": 38.93353316666666, "fusion_lon": 0.0, "fusion_lat": 0.0, "type": "electric_scooter", "name": "ccd8ede4d26af6a3b1ce709d07123a85", "is_disabled": 0, "rental_uris": {"ios": "https://dc.lft.to/lastmile_qr_scan", "android": "https://dc.lft.to/lastmile_qr_scan"}, "is_reserved": 0}, {"lon": -77.04019583333333, "bike_id": "db8fbbc847c8b0adbd265fa30cd848da", "lat": 38.92385983333333, "fusion_lon": 0.0, "fusion_lat": 0.0, "type": "electric_scooter", "name": "db8fbbc847c8b0adbd265fa30cd848da", "is_disabled": 0, "rental_uris": {"ios": "https://dc.lft.to/lastmile_qr_scan", "android": "https://dc.lft.to/lastmile_qr_scan"}, "is_reserved": 0}, {"lon": -77.021689, "bike_id": "edb1f0fcee9d9b0ecfb9369c20127a1a", "lat": 38.942929166666666, "fusion_lon": 0.0, "fusion_lat": 0.0, "type": "electric_scooter", "name": "edb1f0fcee9d9b0ecfb9369c20127a1a", "is_disabled": 0, "rental_uris": {"ios": "https://dc.lft.to/lastmile_qr_scan", "android": "https://dc.lft.to/lastmile_qr_scan"}, "is_reserved": 0}, {"lon": -77.0318065, "bike_id": "4f6e94d3fd2a579cf93523b04d1549e1", "lat": 38.919281166666664, "fusion_lon": 0.0, "fusion_lat": 0.0, "type": "electric_scooter", "name": "4f6e94d3fd2a579cf93523b04d1549e1", "is_disabled": 0, "rental_uris": {"ios": "https://dc.lft.to/lastmile_qr_scan", "android": "https://dc.lft.to/lastmile_qr_scan"}, "is_reserved": 0}, {"lon": -77.00070883333333, "bike_id": "75e4acd087c5d904ceb7a045894fe48b", "lat": 38.87407366666667, "fusion_lon": 0.0, "fusion_lat": 0.0, "type": "electric_scooter", "name": "75e4acd087c5d904ceb7a045894fe48b", "is_disabled": 0, "rental_uris": {"ios": "https://dc.lft.to/lastmile_qr_scan", "android": "https://dc.lft.to/lastmile_qr_scan"}, "is_reserved": 0}, {"lon": -77.02587716666666, "bike_id": "29a9aed75928e3561a859bd90755494b", "lat": 38.90493983333333, "fusion_lon": 0.0, "fusion_lat": 0.0, "type": "electric_scooter", "name": "29a9aed75928e3561a859bd90755494b", "is_disabled": 0, "rental_uris": {"ios": "https://dc.lft.to/lastmile_qr_scan", "android": "https://dc.lft.to/lastmile_qr_scan"}, "is_reserved": 0}, {"lon": -77.00984716666666, "bike_id": "5eb3897c89c9d5b1e3c48cd7d427a807", "lat": 38.903725666666666, "fusion_lon": 0.0, "fusion_lat": 0.0, "type": "electric_scooter", "name": "5eb3897c89c9d5b1e3c48cd7d427a807", "is_disabled": 0, "rental_uris": {"ios": "https://dc.lft.to/lastmile_qr_scan", "android": "https://dc.lft.to/lastmile_qr_scan"}, "is_reserved": 0}, {"lon": -77.03265166666667, "bike_id": "5f393745680030cda587df94abebbd06", "lat": 38.93663633333333, "fusion_lon": 0.0, "fusion_lat": 0.0, "type": "electric_scooter", "name": "5f393745680030cda587df94abebbd06", "is_disabled": 0, "rental_uris": {"ios": "https://dc.lft.to/lastmile_qr_scan", "android": "https://dc.lft.to/lastmile_qr_scan"}, "is_reserved": 0}, {"lon": -77.039807, "bike_id": "3f5ca03cc78184dad1adcb034fd23d84", "lat": 38.91639216666667, "fusion_lon": 0.0, "fusion_lat": 0.0, "type": "electric_scooter", "name": "3f5ca03cc78184dad1adcb034fd23d84", "is_disabled": 0, "rental_uris": {"ios": "https://dc.lft.to/lastmile_qr_scan", "android": "https://dc.lft.to/lastmile_qr_scan"}, "is_reserved": 0}, {"lon": -77.10329766666666, "bike_id": "23c9f15e53cea026b063933e169afaa5", "lat": 38.885535833333336, "fusion_lon": 0.0, "fusion_lat": 0.0, "type": "electric_bike", "name": "23c9f15e53cea026b063933e169afaa5", "is_disabled": 0, "rental_uris": {"ios": "https://dc.lft.to/lastmile_qr_scan", "android": "https://dc.lft.to/lastmile_qr_scan"}, "is_reserved": 0}, {"lon": -77.02166966666667, "bike_id": "871bc67bba28a61ece492400362ed892", "lat": 38.8973705, "fusion_lon": 0.0, "fusion_lat": 0.0, "type": "electric_scooter", "name": "871bc67bba28a61ece492400362ed892", "is_disabled": 0, "rental_uris": {"ios": "https://dc.lft.to/lastmile_qr_scan", "android": "https://dc.lft.to/lastmile_qr_scan"}, "is_reserved": 0}, {"lon": -77.00206983333334, "bike_id": "56b8d7d96cfe29ec4ec4774cc3f359cd", "lat": 38.90034883333333, "fusion_lon": 0.0, "fusion_lat": 0.0, "type": "electric_scooter", "name": "56b8d7d96cfe29ec4ec4774cc3f359cd", "is_disabled": 0, "rental_uris": {"ios": "https://dc.lft.to/lastmile_qr_scan", "android": "https://dc.lft.to/lastmile_qr_scan"}, "is_reserved": 0}, {"lon": -77.01597733333334, "bike_id": "d575b28a4f491b4879d06015e86e7bae", "lat": 38.899701, "fusion_lon": 0.0, "fusion_lat": 0.0, "type": "electric_scooter", "name": "d575b28a4f491b4879d06015e86e7bae", "is_disabled": 0, "rental_uris": {"ios": "https://dc.lft.to/lastmile_qr_scan", "android": "https://dc.lft.to/lastmile_qr_scan"}, "is_reserved": 0}, {"lon": -77.01060366666667, "bike_id": "20fe7632e3335df1777097adc395a1d4", "lat": 38.96345783333334, "fusion_lon": 0.0, "fusion_lat": 0.0, "type": "electric_scooter", "name": "20fe7632e3335df1777097adc395a1d4", "is_disabled": 0, "rental_uris": {"ios": "https://dc.lft.to/lastmile_qr_scan", "android": "https://dc.lft.to/lastmile_qr_scan"}, "is_reserved": 0}, {"lon": -77.02533216666667, "bike_id": "cb748d63cf90da08dfb343951ad6b832", "lat": 38.927408666666665, "fusion_lon": 0.0, "fusion_lat": 0.0, "type": "electric_scooter", "name": "cb748d63cf90da08dfb343951ad6b832", "is_disabled": 0, "rental_uris": {"ios": "https://dc.lft.to/lastmile_qr_scan", "android": "https://dc.lft.to/lastmile_qr_scan"}, "is_reserved": 0}, {"lon": -77.03432616666667, "bike_id": "55490fe28039dbcae1d96637b508924b", "lat": 38.9192715, "fusion_lon": 0.0, "fusion_lat": 0.0, "type": "electric_scooter", "name": "55490fe28039dbcae1d96637b508924b", "is_disabled": 0, "rental_uris": {"ios": "https://dc.lft.to/lastmile_qr_scan", "android": "https://dc.lft.to/lastmile_qr_scan"}, "is_reserved": 0}, {"lon": -77.04221366666667, "bike_id": "f583fd7abfcd6d7987e1f4c3c3c1f400", "lat": 38.917074166666666, "fusion_lon": 0.0, "fusion_lat": 0.0, "type": "electric_scooter", "name": "f583fd7abfcd6d7987e1f4c3c3c1f400", "is_disabled": 0, "rental_uris": {"ios": "https://dc.lft.to/lastmile_qr_scan", "android": "https://dc.lft.to/lastmile_qr_scan"}, "is_reserved": 0}, {"lon": -77.01017233333333, "bike_id": "a6898950a9800bff5d55bf3fdfdfe291", "lat": 38.894791833333336, "fusion_lon": 0.0, "fusion_lat": 0.0, "type": "electric_scooter", "name": "a6898950a9800bff5d55bf3fdfdfe291", "is_disabled": 0, "rental_uris": {"ios": "https://dc.lft.to/lastmile_qr_scan", "android": "https://dc.lft.to/lastmile_qr_scan"}, "is_reserved": 0}, {"lon": -76.99530816666666, "bike_id": "1296a450c7c75d6543c9bf361fb7d8cf", "lat": 38.883729, "fusion_lon": 0.0, "fusion_lat": 0.0, "type": "electric_scooter", "name": "1296a450c7c75d6543c9bf361fb7d8cf", "is_disabled": 0, "rental_uris": {"ios": "https://dc.lft.to/lastmile_qr_scan", "android": "https://dc.lft.to/lastmile_qr_scan"}, "is_reserved": 0}, {"lon": -77.01909833333333, "bike_id": "80a1b6bc5096794c52d8f0bb12d80afb", "lat": 38.88619666666666, "fusion_lon": 0.0, "fusion_lat": 0.0, "type": "electric_scooter", "name": "80a1b6bc5096794c52d8f0bb12d80afb", "is_disabled": 0, "rental_uris": {"ios": "https://dc.lft.to/lastmile_qr_scan", "android": "https://dc.lft.to/lastmile_qr_scan"}, "is_reserved": 0}, {"lon": -77.02626933333333, "bike_id": "7957608b4bff85028932e5d8f29b1e79", "lat": 38.962294666666665, "fusion_lon": 0.0, "fusion_lat": 0.0, "type": "electric_bike", "name": "7957608b4bff85028932e5d8f29b1e79", "is_disabled": 0, "rental_uris": {"ios": "https://dc.lft.to/lastmile_qr_scan", "android": "https://dc.lft.to/lastmile_qr_scan"}, "is_reserved": 0}, {"lon": -77.078223, "bike_id": "5ee07c2212bc1eb10ecd004dd6d45aff", "lat": 38.923700833333335, "fusion_lon": 0.0, "fusion_lat": 0.0, "type": "electric_scooter", "name": "5ee07c2212bc1eb10ecd004dd6d45aff", "is_disabled": 0, "rental_uris": {"ios": "https://dc.lft.to/lastmile_qr_scan", "android": "https://dc.lft.to/lastmile_qr_scan"}, "is_reserved": 0}, {"lon": -77.05923733333333, "bike_id": "ce97839288519d8dc4801d1d151d878a", "lat": 38.906229833333335, "fusion_lon": 0.0, "fusion_lat": 0.0, "type": "electric_scooter", "name": "ce97839288519d8dc4801d1d151d878a", "is_disabled": 0, "rental_uris": {"ios": "https://dc.lft.to/lastmile_qr_scan", "android": "https://dc.lft.to/lastmile_qr_scan"}, "is_reserved": 0}, {"lon": -77.03379483333333, "bike_id": "0eae16da043dfc357a7651a606493536", "lat": 38.9054025, "fusion_lon": 0.0, "fusion_lat": 0.0, "type": "electric_scooter", "name": "0eae16da043dfc357a7651a606493536", "is_disabled": 0, "rental_uris": {"ios": "https://dc.lft.to/lastmile_qr_scan", "android": "https://dc.lft.to/lastmile_qr_scan"}, "is_reserved": 0}, {"lon": -77.03339066666666, "bike_id": "0ca196709db7e276d56d704a7b23c7d1", "lat": 38.9056315, "fusion_lon": 0.0, "fusion_lat": 0.0, "type": "electric_scooter", "name": "0ca196709db7e276d56d704a7b23c7d1", "is_disabled": 0, "rental_uris": {"ios": "https://dc.lft.to/lastmile_qr_scan", "android": "https://dc.lft.to/lastmile_qr_scan"}, "is_reserved": 0}, {"lon": -77.03257383333333, "bike_id": "a8263a3be7bc382e1df031641f3e4a50", "lat": 38.930077833333335, "fusion_lon": 0.0, "fusion_lat": 0.0, "type": "electric_scooter", "name": "a8263a3be7bc382e1df031641f3e4a50", "is_disabled": 0, "rental_uris": {"ios": "https://dc.lft.to/lastmile_qr_scan", "android": "https://dc.lft.to/lastmile_qr_scan"}, "is_reserved": 0}, {"lon": -77.05559216666667, "bike_id": "b7b90dda7c66cf02ab10eeff9b84c1b3", "lat": 38.930455, "fusion_lon": 0.0, "fusion_lat": 0.0, "type": "electric_scooter", "name": "b7b90dda7c66cf02ab10eeff9b84c1b3", "is_disabled": 0, "rental_uris": {"ios": "https://dc.lft.to/lastmile_qr_scan", "android": "https://dc.lft.to/lastmile_qr_scan"}, "is_reserved": 0}, {"lon": -77.03648216666667, "bike_id": "075022bb201df9e76466fd7bda4c4a67", "lat": 38.9181255, "fusion_lon": 0.0, "fusion_lat": 0.0, "type": "electric_scooter", "name": "075022bb201df9e76466fd7bda4c4a67", "is_disabled": 0, "rental_uris": {"ios": "https://dc.lft.to/lastmile_qr_scan", "android": "https://dc.lft.to/lastmile_qr_scan"}, "is_reserved": 0}, {"lon": -77.00576183333334, "bike_id": "f3bb5cd039a56ab64c9bccfac6813843", "lat": 38.83000233333333, "fusion_lon": 0.0, "fusion_lat": 0.0, "type": "electric_scooter", "name": "f3bb5cd039a56ab64c9bccfac6813843", "is_disabled": 0, "rental_uris": {"ios": "https://dc.lft.to/lastmile_qr_scan", "android": "https://dc.lft.to/lastmile_qr_scan"}, "is_reserved": 0}, {"lon": -76.991943, "bike_id": "b3ad6abb0cf15755059d367d64619b3a", "lat": 38.882707333333336, "fusion_lon": 0.0, "fusion_lat": 0.0, "type": "electric_scooter", "name": "b3ad6abb0cf15755059d367d64619b3a", "is_disabled": 0, "rental_uris": {"ios": "https://dc.lft.to/lastmile_qr_scan", "android": "https://dc.lft.to/lastmile_qr_scan"}, "is_reserved": 0}, {"lon": -77.027989, "bike_id": "25c5c106118423b9b7152aac9d375c12", "lat": 38.92286283333333, "fusion_lon": 0.0, "fusion_lat": 0.0, "type": "electric_scooter", "name": "25c5c106118423b9b7152aac9d375c12", "is_disabled": 0, "rental_uris": {"ios": "https://dc.lft.to/lastmile_qr_scan", "android": "https://dc.lft.to/lastmile_qr_scan"}, "is_reserved": 0}, {"lon": -77.10523083333334, "bike_id": "d007909eb87f7a1bb787cc97f362d9ac", "lat": 38.87373766666666, "fusion_lon": 0.0, "fusion_lat": 0.0, "type": "electric_bike", "name": "d007909eb87f7a1bb787cc97f362d9ac", "is_disabled": 0, "rental_uris": {"ios": "https://dc.lft.to/lastmile_qr_scan", "android": "https://dc.lft.to/lastmile_qr_scan"}, "is_reserved": 0}, {"lon": -76.9880045, "bike_id": "b31a984ceb3f4ef6c4e4ed0e273ec157", "lat": 38.89242333333333, "fusion_lon": 0.0, "fusion_lat": 0.0, "type": "electric_scooter", "name": "b31a984ceb3f4ef6c4e4ed0e273ec157", "is_disabled": 0, "rental_uris": {"ios": "https://dc.lft.to/lastmile_qr_scan", "android": "https://dc.lft.to/lastmile_qr_scan"}, "is_reserved": 0}, {"lon": -77.02294766666667, "bike_id": "02cfca7c3f906b9678794d1edcdd1546", "lat": 38.93298683333333, "fusion_lon": 0.0, "fusion_lat": 0.0, "type": "electric_scooter", "name": "02cfca7c3f906b9678794d1edcdd1546", "is_disabled": 0, "rental_uris": {"ios": "https://dc.lft.to/lastmile_qr_scan", "android": "https://dc.lft.to/lastmile_qr_scan"}, "is_reserved": 0}, {"lon": -77.01885716666666, "bike_id": "b553c932f3a80ae25b7a96265af76306", "lat": 38.906108, "fusion_lon": 0.0, "fusion_lat": 0.0, "type": "electric_scooter", "name": "b553c932f3a80ae25b7a96265af76306", "is_disabled": 0, "rental_uris": {"ios": "https://dc.lft.to/lastmile_qr_scan", "android": "https://dc.lft.to/lastmile_qr_scan"}, "is_reserved": 0}, {"lon": -77.041131, "bike_id": "e1708a8c88f10aeea5927c2c8e40d10a", "lat": 38.915534666666666, "fusion_lon": 0.0, "fusion_lat": 0.0, "type": "electric_scooter", "name": "e1708a8c88f10aeea5927c2c8e40d10a", "is_disabled": 0, "rental_uris": {"ios": "https://dc.lft.to/lastmile_qr_scan", "android": "https://dc.lft.to/lastmile_qr_scan"}, "is_reserved": 0}, {"lon": -77.03207, "bike_id": "2abcb47ec7e47e5e388cbe0289431c71", "lat": 38.907239, "fusion_lon": 0.0, "fusion_lat": 0.0, "type": "electric_scooter", "name": "2abcb47ec7e47e5e388cbe0289431c71", "is_disabled": 0, "rental_uris": {"ios": "https://dc.lft.to/lastmile_qr_scan", "android": "https://dc.lft.to/lastmile_qr_scan"}, "is_reserved": 0}, {"lon": -77.023381, "bike_id": "b64cfe55dcb3488412e0ae96886dc39d", "lat": 38.896291833333336, "fusion_lon": 0.0, "fusion_lat": 0.0, "type": "electric_scooter", "name": "b64cfe55dcb3488412e0ae96886dc39d", "is_disabled": 0, "rental_uris": {"ios": "https://dc.lft.to/lastmile_qr_scan", "android": "https://dc.lft.to/lastmile_qr_scan"}, "is_reserved": 0}, {"lon": -76.98307466666667, "bike_id": "be4909c18ef1278e2f0d3f8461af6e18", "lat": 38.8996585, "fusion_lon": 0.0, "fusion_lat": 0.0, "type": "electric_scooter", "name": "be4909c18ef1278e2f0d3f8461af6e18", "is_disabled": 0, "rental_uris": {"ios": "https://dc.lft.to/lastmile_qr_scan", "android": "https://dc.lft.to/lastmile_qr_scan"}, "is_reserved": 0}, {"lon": -76.992701, "bike_id": "83cb3fa6357cb229a3dd3eff72a72b56", "lat": 38.90390166666667, "fusion_lon": 0.0, "fusion_lat": 0.0, "type": "electric_scooter", "name": "83cb3fa6357cb229a3dd3eff72a72b56", "is_disabled": 0, "rental_uris": {"ios": "https://dc.lft.to/lastmile_qr_scan", "android": "https://dc.lft.to/lastmile_qr_scan"}, "is_reserved": 0}, {"lon": -76.98146466666667, "bike_id": "3bdd59f984ca140d3bf8f7daaea0dd28", "lat": 38.90567, "fusion_lon": 0.0, "fusion_lat": 0.0, "type": "electric_scooter", "name": "3bdd59f984ca140d3bf8f7daaea0dd28", "is_disabled": 0, "rental_uris": {"ios": "https://dc.lft.to/lastmile_qr_scan", "android": "https://dc.lft.to/lastmile_qr_scan"}, "is_reserved": 0}, {"lon": -77.02700616666667, "bike_id": "fbe98f46714944cd5f910420c1633c7a", "lat": 38.90670816666667, "fusion_lon": 0.0, "fusion_lat": 0.0, "type": "electric_scooter", "name": "fbe98f46714944cd5f910420c1633c7a", "is_disabled": 0, "rental_uris": {"ios": "https://dc.lft.to/lastmile_qr_scan", "android": "https://dc.lft.to/lastmile_qr_scan"}, "is_reserved": 0}, {"lon": -77.05216483333334, "bike_id": "30c293bdf5a871a1b8514a331a493efb", "lat": 38.9156345, "fusion_lon": 0.0, "fusion_lat": 0.0, "type": "electric_scooter", "name": "30c293bdf5a871a1b8514a331a493efb", "is_disabled": 0, "rental_uris": {"ios": "https://dc.lft.to/lastmile_qr_scan", "android": "https://dc.lft.to/lastmile_qr_scan"}, "is_reserved": 0}, {"lon": -76.965263, "bike_id": "33ba4a4b2ec7ccb3f635483074315de3", "lat": 38.876271833333334, "fusion_lon": 0.0, "fusion_lat": 0.0, "type": "electric_scooter", "name": "33ba4a4b2ec7ccb3f635483074315de3", "is_disabled": 0, "rental_uris": {"ios": "https://dc.lft.to/lastmile_qr_scan", "android": "https://dc.lft.to/lastmile_qr_scan"}, "is_reserved": 0}, {"lon": -77.05709016666667, "bike_id": "02344ea59e885223182636bad3afd397", "lat": 38.9054645, "fusion_lon": 0.0, "fusion_lat": 0.0, "type": "electric_scooter", "name": "02344ea59e885223182636bad3afd397", "is_disabled": 0, "rental_uris": {"ios": "https://dc.lft.to/lastmile_qr_scan", "android": "https://dc.lft.to/lastmile_qr_scan"}, "is_reserved": 0}, {"lon": -77.03684583333333, "bike_id": "5897c51c94afd5ffeeb9d3f43de6ed92", "lat": 38.92109983333334, "fusion_lon": 0.0, "fusion_lat": 0.0, "type": "electric_scooter", "name": "5897c51c94afd5ffeeb9d3f43de6ed92", "is_disabled": 0, "rental_uris": {"ios": "https://dc.lft.to/lastmile_qr_scan", "android": "https://dc.lft.to/lastmile_qr_scan"}, "is_reserved": 0}, {"lon": -77.04736433333333, "bike_id": "ce55fa14ac0720d8366b1899b3c9014d", "lat": 38.9072335, "fusion_lon": 0.0, "fusion_lat": 0.0, "type": "electric_scooter", "name": "ce55fa14ac0720d8366b1899b3c9014d", "is_disabled": 0, "rental_uris": {"ios": "https://dc.lft.to/lastmile_qr_scan", "android": "https://dc.lft.to/lastmile_qr_scan"}, "is_reserved": 0}, {"lon": -76.94118816666666, "bike_id": "e9a2c5ad5e418bc35f70e201271bb024", "lat": 38.88648833333333, "fusion_lon": 0.0, "fusion_lat": 0.0, "type": "electric_scooter", "name": "e9a2c5ad5e418bc35f70e201271bb024", "is_disabled": 0, "rental_uris": {"ios": "https://dc.lft.to/lastmile_qr_scan", "android": "https://dc.lft.to/lastmile_qr_scan"}, "is_reserved": 0}, {"lon": -77.02797433333333, "bike_id": "3378aad35e965f59319e2654c43266b5", "lat": 38.930811, "fusion_lon": 0.0, "fusion_lat": 0.0, "type": "electric_scooter", "name": "3378aad35e965f59319e2654c43266b5", "is_disabled": 0, "rental_uris": {"ios": "https://dc.lft.to/lastmile_qr_scan", "android": "https://dc.lft.to/lastmile_qr_scan"}, "is_reserved": 0}, {"lon": -77.016278, "bike_id": "effd9baff14fe4bba9f29d9ac1f13e7d", "lat": 38.90239116666667, "fusion_lon": 0.0, "fusion_lat": 0.0, "type": "electric_scooter", "name": "effd9baff14fe4bba9f29d9ac1f13e7d", "is_disabled": 0, "rental_uris": {"ios": "https://dc.lft.to/lastmile_qr_scan", "android": "https://dc.lft.to/lastmile_qr_scan"}, "is_reserved": 0}, {"lon": -77.04845583333334, "bike_id": "427ae461690106939065a4b434ab4bc1", "lat": 38.904278, "fusion_lon": 0.0, "fusion_lat": 0.0, "type": "electric_scooter", "name": "427ae461690106939065a4b434ab4bc1", "is_disabled": 0, "rental_uris": {"ios": "https://dc.lft.to/lastmile_qr_scan", "android": "https://dc.lft.to/lastmile_qr_scan"}, "is_reserved": 0}, {"lon": -77.032683, "bike_id": "407913421170082f12a3d6ca3715c9bd", "lat": 38.937729166666664, "fusion_lon": 0.0, "fusion_lat": 0.0, "type": "electric_scooter", "name": "407913421170082f12a3d6ca3715c9bd", "is_disabled": 0, "rental_uris": {"ios": "https://dc.lft.to/lastmile_qr_scan", "android": "https://dc.lft.to/lastmile_qr_scan"}, "is_reserved": 0}, {"lon": -76.98494983333333, "bike_id": "0fe18064b8a753be16bd808c74a842c8", "lat": 38.87833466666667, "fusion_lon": 0.0, "fusion_lat": 0.0, "type": "electric_scooter", "name": "0fe18064b8a753be16bd808c74a842c8", "is_disabled": 0, "rental_uris": {"ios": "https://dc.lft.to/lastmile_qr_scan", "android": "https://dc.lft.to/lastmile_qr_scan"}, "is_reserved": 0}, {"lon": -77.02547133333333, "bike_id": "1bc561d74b32c96a8a9e2067d49f7b43", "lat": 38.92090666666667, "fusion_lon": 0.0, "fusion_lat": 0.0, "type": "electric_scooter", "name": "1bc561d74b32c96a8a9e2067d49f7b43", "is_disabled": 0, "rental_uris": {"ios": "https://dc.lft.to/lastmile_qr_scan", "android": "https://dc.lft.to/lastmile_qr_scan"}, "is_reserved": 0}, {"lon": -77.00561716666667, "bike_id": "31313f36dddd3fa2977b478ca61768c3", "lat": 38.8747025, "fusion_lon": 0.0, "fusion_lat": 0.0, "type": "electric_scooter", "name": "31313f36dddd3fa2977b478ca61768c3", "is_disabled": 0, "rental_uris": {"ios": "https://dc.lft.to/lastmile_qr_scan", "android": "https://dc.lft.to/lastmile_qr_scan"}, "is_reserved": 0}, {"lon": -76.97426016666667, "bike_id": "5cd47bb73b4dd7025cfa8b00cd07d5ec", "lat": 38.904, "fusion_lon": 0.0, "fusion_lat": 0.0, "type": "electric_scooter", "name": "5cd47bb73b4dd7025cfa8b00cd07d5ec", "is_disabled": 0, "rental_uris": {"ios": "https://dc.lft.to/lastmile_qr_scan", "android": "https://dc.lft.to/lastmile_qr_scan"}, "is_reserved": 0}, {"lon": -76.9073635, "bike_id": "eceebb9e8c6764f826dd48f05f55317b", "lat": 38.896188, "fusion_lon": 0.0, "fusion_lat": 0.0, "type": "electric_bike", "name": "eceebb9e8c6764f826dd48f05f55317b", "is_disabled": 0, "rental_uris": {"ios": "https://dc.lft.to/lastmile_qr_scan", "android": "https://dc.lft.to/lastmile_qr_scan"}, "is_reserved": 0}, {"lon": -77.04227133333333, "bike_id": "a6bb49dfaeb61f1671564ba22915314a", "lat": 38.91407733333333, "fusion_lon": 0.0, "fusion_lat": 0.0, "type": "electric_scooter", "name": "a6bb49dfaeb61f1671564ba22915314a", "is_disabled": 0, "rental_uris": {"ios": "https://dc.lft.to/lastmile_qr_scan", "android": "https://dc.lft.to/lastmile_qr_scan"}, "is_reserved": 0}, {"lon": -77.03264533333333, "bike_id": "1fed7e692ac6d6356363f71c31989639", "lat": 38.919872166666664, "fusion_lon": 0.0, "fusion_lat": 0.0, "type": "electric_scooter", "name": "1fed7e692ac6d6356363f71c31989639", "is_disabled": 0, "rental_uris": {"ios": "https://dc.lft.to/lastmile_qr_scan", "android": "https://dc.lft.to/lastmile_qr_scan"}, "is_reserved": 0}, {"lon": -77.02293933333333, "bike_id": "31314c8a025061b458682f91b888c0a2", "lat": 38.92230283333333, "fusion_lon": 0.0, "fusion_lat": 0.0, "type": "electric_scooter", "name": "31314c8a025061b458682f91b888c0a2", "is_disabled": 0, "rental_uris": {"ios": "https://dc.lft.to/lastmile_qr_scan", "android": "https://dc.lft.to/lastmile_qr_scan"}, "is_reserved": 0}, {"lon": -76.98526033333333, "bike_id": "01d40b116d130b2ce27c9cd9477dc743", "lat": 38.8668485, "fusion_lon": 0.0, "fusion_lat": 0.0, "type": "electric_scooter", "name": "01d40b116d130b2ce27c9cd9477dc743", "is_disabled": 0, "rental_uris": {"ios": "https://dc.lft.to/lastmile_qr_scan", "android": "https://dc.lft.to/lastmile_qr_scan"}, "is_reserved": 0}, {"lon": -77.02027333333334, "bike_id": "8135f151c73fd6697301a0f117bc9058", "lat": 38.90562366666666, "fusion_lon": 0.0, "fusion_lat": 0.0, "type": "electric_scooter", "name": "8135f151c73fd6697301a0f117bc9058", "is_disabled": 0, "rental_uris": {"ios": "https://dc.lft.to/lastmile_qr_scan", "android": "https://dc.lft.to/lastmile_qr_scan"}, "is_reserved": 0}, {"lon": -77.03817416666666, "bike_id": "774a83c8ab90e130993cd2951d87d7a8", "lat": 38.93111316666667, "fusion_lon": 0.0, "fusion_lat": 0.0, "type": "electric_scooter", "name": "774a83c8ab90e130993cd2951d87d7a8", "is_disabled": 0, "rental_uris": {"ios": "https://dc.lft.to/lastmile_qr_scan", "android": "https://dc.lft.to/lastmile_qr_scan"}, "is_reserved": 0}, {"lon": -77.048289, "bike_id": "f25d68a07676cf3abff062f7389f6800", "lat": 38.897279833333336, "fusion_lon": 0.0, "fusion_lat": 0.0, "type": "electric_scooter", "name": "f25d68a07676cf3abff062f7389f6800", "is_disabled": 0, "rental_uris": {"ios": "https://dc.lft.to/lastmile_qr_scan", "android": "https://dc.lft.to/lastmile_qr_scan"}, "is_reserved": 0}, {"lon": -77.02767283333333, "bike_id": "a4100350f3fd03668bfb90942089eb3a", "lat": 38.95430966666667, "fusion_lon": 0.0, "fusion_lat": 0.0, "type": "electric_scooter", "name": "a4100350f3fd03668bfb90942089eb3a", "is_disabled": 0, "rental_uris": {"ios": "https://dc.lft.to/lastmile_qr_scan", "android": "https://dc.lft.to/lastmile_qr_scan"}, "is_reserved": 0}, {"lon": -77.04807866666667, "bike_id": "d7e80f7cd19254312a8203d927ddf796", "lat": 38.911060166666665, "fusion_lon": 0.0, "fusion_lat": 0.0, "type": "electric_scooter", "name": "d7e80f7cd19254312a8203d927ddf796", "is_disabled": 0, "rental_uris": {"ios": "https://dc.lft.to/lastmile_qr_scan", "android": "https://dc.lft.to/lastmile_qr_scan"}, "is_reserved": 0}, {"lon": -77.05584433333334, "bike_id": "20cd3d1a02cc6a132751eac514820111", "lat": 38.90004316666667, "fusion_lon": 0.0, "fusion_lat": 0.0, "type": "electric_scooter", "name": "20cd3d1a02cc6a132751eac514820111", "is_disabled": 0, "rental_uris": {"ios": "https://dc.lft.to/lastmile_qr_scan", "android": "https://dc.lft.to/lastmile_qr_scan"}, "is_reserved": 0}, {"lon": -77.04474916666666, "bike_id": "8649e3c9cf0d2f78c18617897d2dd590", "lat": 38.923919, "fusion_lon": 0.0, "fusion_lat": 0.0, "type": "electric_scooter", "name": "8649e3c9cf0d2f78c18617897d2dd590", "is_disabled": 0, "rental_uris": {"ios": "https://dc.lft.to/lastmile_qr_scan", "android": "https://dc.lft.to/lastmile_qr_scan"}, "is_reserved": 0}, {"lon": -77.00499683333334, "bike_id": "321df9c6afc618c977a8cef97950686a", "lat": 38.90576516666667, "fusion_lon": 0.0, "fusion_lat": 0.0, "type": "electric_scooter", "name": "321df9c6afc618c977a8cef97950686a", "is_disabled": 0, "rental_uris": {"ios": "https://dc.lft.to/lastmile_qr_scan", "android": "https://dc.lft.to/lastmile_qr_scan"}, "is_reserved": 0}, {"lon": -77.018927, "bike_id": "de7f98c922fd0e921ec9ab5ef7dcd521", "lat": 38.899768, "fusion_lon": 0.0, "fusion_lat": 0.0, "type": "electric_scooter", "name": "de7f98c922fd0e921ec9ab5ef7dcd521", "is_disabled": 0, "rental_uris": {"ios": "https://dc.lft.to/lastmile_qr_scan", "android": "https://dc.lft.to/lastmile_qr_scan"}, "is_reserved": 0}, {"lon": -76.99764016666667, "bike_id": "642827dc2785c553087d2d447258612a", "lat": 38.92273483333334, "fusion_lon": 0.0, "fusion_lat": 0.0, "type": "electric_scooter", "name": "642827dc2785c553087d2d447258612a", "is_disabled": 0, "rental_uris": {"ios": "https://dc.lft.to/lastmile_qr_scan", "android": "https://dc.lft.to/lastmile_qr_scan"}, "is_reserved": 0}, {"lon": -76.963628, "bike_id": "d4968fde9fd555eab6d9188e6ac0c27e", "lat": 38.93502016666667, "fusion_lon": 0.0, "fusion_lat": 0.0, "type": "electric_scooter", "name": "d4968fde9fd555eab6d9188e6ac0c27e", "is_disabled": 0, "rental_uris": {"ios": "https://dc.lft.to/lastmile_qr_scan", "android": "https://dc.lft.to/lastmile_qr_scan"}, "is_reserved": 0}, {"lon": -77.047003, "bike_id": "e6bcbc226b8dfd280b081e6f37c20f77", "lat": 38.922336666666666, "fusion_lon": 0.0, "fusion_lat": 0.0, "type": "electric_scooter", "name": "e6bcbc226b8dfd280b081e6f37c20f77", "is_disabled": 0, "rental_uris": {"ios": "https://dc.lft.to/lastmile_qr_scan", "android": "https://dc.lft.to/lastmile_qr_scan"}, "is_reserved": 0}, {"lon": -77.00916216666667, "bike_id": "35a7b9869eef42a4beafe43ed92553f4", "lat": 38.82782533333334, "fusion_lon": 0.0, "fusion_lat": 0.0, "type": "electric_bike", "name": "35a7b9869eef42a4beafe43ed92553f4", "is_disabled": 0, "rental_uris": {"ios": "https://dc.lft.to/lastmile_qr_scan", "android": "https://dc.lft.to/lastmile_qr_scan"}, "is_reserved": 0}, {"lon": -77.02116383333333, "bike_id": "71777c05b3226494d1b2030cd008a404", "lat": 38.937, "fusion_lon": 0.0, "fusion_lat": 0.0, "type": "electric_scooter", "name": "71777c05b3226494d1b2030cd008a404", "is_disabled": 0, "rental_uris": {"ios": "https://dc.lft.to/lastmile_qr_scan", "android": "https://dc.lft.to/lastmile_qr_scan"}, "is_reserved": 0}, {"lon": -77.0318075, "bike_id": "7cfa9ad17d3262385671492e5e2435f4", "lat": 38.91929016666667, "fusion_lon": 0.0, "fusion_lat": 0.0, "type": "electric_scooter", "name": "7cfa9ad17d3262385671492e5e2435f4", "is_disabled": 0, "rental_uris": {"ios": "https://dc.lft.to/lastmile_qr_scan", "android": "https://dc.lft.to/lastmile_qr_scan"}, "is_reserved": 0}, {"lon": -76.97623066666667, "bike_id": "548e6853b58e7fcf143cd82d72fa1d73", "lat": 38.903838666666665, "fusion_lon": 0.0, "fusion_lat": 0.0, "type": "electric_scooter", "name": "548e6853b58e7fcf143cd82d72fa1d73", "is_disabled": 0, "rental_uris": {"ios": "https://dc.lft.to/lastmile_qr_scan", "android": "https://dc.lft.to/lastmile_qr_scan"}, "is_reserved": 0}, {"lon": -77.032023, "bike_id": "03ad4a6a3283727d73282df874a42c8d", "lat": 38.90568066666667, "fusion_lon": 0.0, "fusion_lat": 0.0, "type": "electric_scooter", "name": "03ad4a6a3283727d73282df874a42c8d", "is_disabled": 0, "rental_uris": {"ios": "https://dc.lft.to/lastmile_qr_scan", "android": "https://dc.lft.to/lastmile_qr_scan"}, "is_reserved": 0}, {"lon": -77.00059633333333, "bike_id": "23f74d926e8bb174b4039bcc0abe87ee", "lat": 38.924375, "fusion_lon": 0.0, "fusion_lat": 0.0, "type": "electric_scooter", "name": "23f74d926e8bb174b4039bcc0abe87ee", "is_disabled": 0, "rental_uris": {"ios": "https://dc.lft.to/lastmile_qr_scan", "android": "https://dc.lft.to/lastmile_qr_scan"}, "is_reserved": 0}, {"lon": -77.035743, "bike_id": "abe82944b11c89b6f452bfef4a9a5f08", "lat": 38.91042383333333, "fusion_lon": 0.0, "fusion_lat": 0.0, "type": "electric_scooter", "name": "abe82944b11c89b6f452bfef4a9a5f08", "is_disabled": 0, "rental_uris": {"ios": "https://dc.lft.to/lastmile_qr_scan", "android": "https://dc.lft.to/lastmile_qr_scan"}, "is_reserved": 0}, {"lon": -77.04430616666667, "bike_id": "a92a7f0b40d1b7bc2ee2450ce28e9e2d", "lat": 38.91128116666667, "fusion_lon": 0.0, "fusion_lat": 0.0, "type": "electric_scooter", "name": "a92a7f0b40d1b7bc2ee2450ce28e9e2d", "is_disabled": 0, "rental_uris": {"ios": "https://dc.lft.to/lastmile_qr_scan", "android": "https://dc.lft.to/lastmile_qr_scan"}, "is_reserved": 0}, {"lon": -77.03258966666667, "bike_id": "7f18666885fae4077fbc22b7f6f56bc8", "lat": 38.9377725, "fusion_lon": 0.0, "fusion_lat": 0.0, "type": "electric_scooter", "name": "7f18666885fae4077fbc22b7f6f56bc8", "is_disabled": 0, "rental_uris": {"ios": "https://dc.lft.to/lastmile_qr_scan", "android": "https://dc.lft.to/lastmile_qr_scan"}, "is_reserved": 0}, {"lon": -77.03329783333334, "bike_id": "435af4913f4d7c029c6d3a3d3563c32a", "lat": 38.947170666666665, "fusion_lon": 0.0, "fusion_lat": 0.0, "type": "electric_scooter", "name": "435af4913f4d7c029c6d3a3d3563c32a", "is_disabled": 0, "rental_uris": {"ios": "https://dc.lft.to/lastmile_qr_scan", "android": "https://dc.lft.to/lastmile_qr_scan"}, "is_reserved": 0}, {"lon": -77.03186916666667, "bike_id": "1f61f4db75909541489f15826a8a48b0", "lat": 38.91741916666667, "fusion_lon": 0.0, "fusion_lat": 0.0, "type": "electric_scooter", "name": "1f61f4db75909541489f15826a8a48b0", "is_disabled": 0, "rental_uris": {"ios": "https://dc.lft.to/lastmile_qr_scan", "android": "https://dc.lft.to/lastmile_qr_scan"}, "is_reserved": 0}, {"lon": -77.04220383333333, "bike_id": "2224fc3b80550eec80cea439fc5304a7", "lat": 38.913450166666664, "fusion_lon": 0.0, "fusion_lat": 0.0, "type": "electric_scooter", "name": "2224fc3b80550eec80cea439fc5304a7", "is_disabled": 0, "rental_uris": {"ios": "https://dc.lft.to/lastmile_qr_scan", "android": "https://dc.lft.to/lastmile_qr_scan"}, "is_reserved": 0}, {"lon": -76.99286016666667, "bike_id": "8b3cd75c2746b4b950408bdffd801f46", "lat": 38.89886166666667, "fusion_lon": 0.0, "fusion_lat": 0.0, "type": "electric_scooter", "name": "8b3cd75c2746b4b950408bdffd801f46", "is_disabled": 0, "rental_uris": {"ios": "https://dc.lft.to/lastmile_qr_scan", "android": "https://dc.lft.to/lastmile_qr_scan"}, "is_reserved": 0}, {"lon": -77.03192216666666, "bike_id": "275ba0506f18841dc6a988bde28d960b", "lat": 38.92788433333333, "fusion_lon": 0.0, "fusion_lat": 0.0, "type": "electric_scooter", "name": "275ba0506f18841dc6a988bde28d960b", "is_disabled": 0, "rental_uris": {"ios": "https://dc.lft.to/lastmile_qr_scan", "android": "https://dc.lft.to/lastmile_qr_scan"}, "is_reserved": 0}, {"lon": -77.02740916666667, "bike_id": "8b830488fb5f2a0a205735f5aba4c80c", "lat": 38.933376833333334, "fusion_lon": 0.0, "fusion_lat": 0.0, "type": "electric_scooter", "name": "8b830488fb5f2a0a205735f5aba4c80c", "is_disabled": 0, "rental_uris": {"ios": "https://dc.lft.to/lastmile_qr_scan", "android": "https://dc.lft.to/lastmile_qr_scan"}, "is_reserved": 0}, {"lon": -77.03525333333333, "bike_id": "ba9d965a5965d2702398af8e697e6108", "lat": 38.92571433333333, "fusion_lon": 0.0, "fusion_lat": 0.0, "type": "electric_scooter", "name": "ba9d965a5965d2702398af8e697e6108", "is_disabled": 0, "rental_uris": {"ios": "https://dc.lft.to/lastmile_qr_scan", "android": "https://dc.lft.to/lastmile_qr_scan"}, "is_reserved": 0}, {"lon": -76.9838145, "bike_id": "1a83deac3942080cd2f3be26fec3c8ec", "lat": 38.8960895, "fusion_lon": 0.0, "fusion_lat": 0.0, "type": "electric_scooter", "name": "1a83deac3942080cd2f3be26fec3c8ec", "is_disabled": 0, "rental_uris": {"ios": "https://dc.lft.to/lastmile_qr_scan", "android": "https://dc.lft.to/lastmile_qr_scan"}, "is_reserved": 0}, {"lon": -77.04174933333333, "bike_id": "a799e488dacaa16c087071a53cc87cb1", "lat": 38.905465666666665, "fusion_lon": 0.0, "fusion_lat": 0.0, "type": "electric_scooter", "name": "a799e488dacaa16c087071a53cc87cb1", "is_disabled": 0, "rental_uris": {"ios": "https://dc.lft.to/lastmile_qr_scan", "android": "https://dc.lft.to/lastmile_qr_scan"}, "is_reserved": 0}, {"lon": -77.0376475, "bike_id": "8c243203b9f757e880e51014d1abe7f2", "lat": 38.92013083333333, "fusion_lon": 0.0, "fusion_lat": 0.0, "type": "electric_scooter", "name": "8c243203b9f757e880e51014d1abe7f2", "is_disabled": 0, "rental_uris": {"ios": "https://dc.lft.to/lastmile_qr_scan", "android": "https://dc.lft.to/lastmile_qr_scan"}, "is_reserved": 0}, {"lon": -77.0216725, "bike_id": "758163f67e0f21fdb82d65a873e239ea", "lat": 38.929970833333336, "fusion_lon": 0.0, "fusion_lat": 0.0, "type": "electric_scooter", "name": "758163f67e0f21fdb82d65a873e239ea", "is_disabled": 0, "rental_uris": {"ios": "https://dc.lft.to/lastmile_qr_scan", "android": "https://dc.lft.to/lastmile_qr_scan"}, "is_reserved": 0}, {"lon": -77.04670683333333, "bike_id": "f3600df575972d3fde8382895b99a7fd", "lat": 38.9071755, "fusion_lon": 0.0, "fusion_lat": 0.0, "type": "electric_scooter", "name": "f3600df575972d3fde8382895b99a7fd", "is_disabled": 0, "rental_uris": {"ios": "https://dc.lft.to/lastmile_qr_scan", "android": "https://dc.lft.to/lastmile_qr_scan"}, "is_reserved": 0}, {"lon": -77.03267416666667, "bike_id": "0ac151cbad7996dee2432248eee1a287", "lat": 38.932417, "fusion_lon": 0.0, "fusion_lat": 0.0, "type": "electric_scooter", "name": "0ac151cbad7996dee2432248eee1a287", "is_disabled": 0, "rental_uris": {"ios": "https://dc.lft.to/lastmile_qr_scan", "android": "https://dc.lft.to/lastmile_qr_scan"}, "is_reserved": 0}, {"lon": -77.02366816666667, "bike_id": "95a740f030431b44949de814a4ee37c9", "lat": 38.9019385, "fusion_lon": 0.0, "fusion_lat": 0.0, "type": "electric_scooter", "name": "95a740f030431b44949de814a4ee37c9", "is_disabled": 0, "rental_uris": {"ios": "https://dc.lft.to/lastmile_qr_scan", "android": "https://dc.lft.to/lastmile_qr_scan"}, "is_reserved": 0}, {"lon": -76.92770683333333, "bike_id": "feddbff234dd5c90550b8ece747bb6bc", "lat": 38.90085283333333, "fusion_lon": 0.0, "fusion_lat": 0.0, "type": "electric_scooter", "name": "feddbff234dd5c90550b8ece747bb6bc", "is_disabled": 0, "rental_uris": {"ios": "https://dc.lft.to/lastmile_qr_scan", "android": "https://dc.lft.to/lastmile_qr_scan"}, "is_reserved": 0}, {"lon": -77.05193633333333, "bike_id": "e0ef4f12f8747ab2b4f3833bd9d5df6e", "lat": 38.924464, "fusion_lon": 0.0, "fusion_lat": 0.0, "type": "electric_scooter", "name": "e0ef4f12f8747ab2b4f3833bd9d5df6e", "is_disabled": 0, "rental_uris": {"ios": "https://dc.lft.to/lastmile_qr_scan", "android": "https://dc.lft.to/lastmile_qr_scan"}, "is_reserved": 0}, {"lon": -76.983086, "bike_id": "37e28509c7550e5a016e3065d9e39265", "lat": 38.868877166666664, "fusion_lon": 0.0, "fusion_lat": 0.0, "type": "electric_scooter", "name": "37e28509c7550e5a016e3065d9e39265", "is_disabled": 0, "rental_uris": {"ios": "https://dc.lft.to/lastmile_qr_scan", "android": "https://dc.lft.to/lastmile_qr_scan"}, "is_reserved": 0}, {"lon": -76.987181, "bike_id": "afc055587da93e9cfc4a88c485d8cf30", "lat": 38.8663105, "fusion_lon": 0.0, "fusion_lat": 0.0, "type": "electric_scooter", "name": "afc055587da93e9cfc4a88c485d8cf30", "is_disabled": 0, "rental_uris": {"ios": "https://dc.lft.to/lastmile_qr_scan", "android": "https://dc.lft.to/lastmile_qr_scan"}, "is_reserved": 0}, {"lon": -77.04377033333333, "bike_id": "18052077157723856fbfb213ab6fe585", "lat": 38.886485, "fusion_lon": 0.0, "fusion_lat": 0.0, "type": "electric_scooter", "name": "18052077157723856fbfb213ab6fe585", "is_disabled": 0, "rental_uris": {"ios": "https://dc.lft.to/lastmile_qr_scan", "android": "https://dc.lft.to/lastmile_qr_scan"}, "is_reserved": 0}, {"lon": -77.0020435, "bike_id": "88e599b34230039c412df2b95f355c36", "lat": 38.9003585, "fusion_lon": 0.0, "fusion_lat": 0.0, "type": "electric_scooter", "name": "88e599b34230039c412df2b95f355c36", "is_disabled": 0, "rental_uris": {"ios": "https://dc.lft.to/lastmile_qr_scan", "android": "https://dc.lft.to/lastmile_qr_scan"}, "is_reserved": 0}, {"lon": -76.96064066666666, "bike_id": "226013bac9c1ace78336d60a26234477", "lat": 38.884064, "fusion_lon": 0.0, "fusion_lat": 0.0, "type": "electric_bike", "name": "226013bac9c1ace78336d60a26234477", "is_disabled": 0, "rental_uris": {"ios": "https://dc.lft.to/lastmile_qr_scan", "android": "https://dc.lft.to/lastmile_qr_scan"}, "is_reserved": 0}, {"lon": -77.03450666666667, "bike_id": "8f9cbe8f89288ad74015b82a8a809375", "lat": 38.91014333333333, "fusion_lon": 0.0, "fusion_lat": 0.0, "type": "electric_scooter", "name": "8f9cbe8f89288ad74015b82a8a809375", "is_disabled": 0, "rental_uris": {"ios": "https://dc.lft.to/lastmile_qr_scan", "android": "https://dc.lft.to/lastmile_qr_scan"}, "is_reserved": 0}, {"lon": -76.988865, "bike_id": "78b224a9fa680058d8482a0bcdcdc5d1", "lat": 38.866651833333336, "fusion_lon": 0.0, "fusion_lat": 0.0, "type": "electric_scooter", "name": "78b224a9fa680058d8482a0bcdcdc5d1", "is_disabled": 0, "rental_uris": {"ios": "https://dc.lft.to/lastmile_qr_scan", "android": "https://dc.lft.to/lastmile_qr_scan"}, "is_reserved": 0}, {"lon": -77.011363, "bike_id": "def22a3119426027054dd5f818b53064", "lat": 38.907302333333334, "fusion_lon": 0.0, "fusion_lat": 0.0, "type": "electric_scooter", "name": "def22a3119426027054dd5f818b53064", "is_disabled": 0, "rental_uris": {"ios": "https://dc.lft.to/lastmile_qr_scan", "android": "https://dc.lft.to/lastmile_qr_scan"}, "is_reserved": 0}, {"lon": -77.0216635, "bike_id": "5bdcba24df3922c1e6d8de0804a9c804", "lat": 38.922399166666665, "fusion_lon": 0.0, "fusion_lat": 0.0, "type": "electric_scooter", "name": "5bdcba24df3922c1e6d8de0804a9c804", "is_disabled": 0, "rental_uris": {"ios": "https://dc.lft.to/lastmile_qr_scan", "android": "https://dc.lft.to/lastmile_qr_scan"}, "is_reserved": 0}, {"lon": -76.99949566666666, "bike_id": "dff5bf3a0e060b5d8e474a0f631a6269", "lat": 38.90625166666667, "fusion_lon": 0.0, "fusion_lat": 0.0, "type": "electric_scooter", "name": "dff5bf3a0e060b5d8e474a0f631a6269", "is_disabled": 0, "rental_uris": {"ios": "https://dc.lft.to/lastmile_qr_scan", "android": "https://dc.lft.to/lastmile_qr_scan"}, "is_reserved": 0}, {"lon": -77.0355835, "bike_id": "d1a3dddd9a2a7f9952dec3414d000ce7", "lat": 38.908363333333334, "fusion_lon": 0.0, "fusion_lat": 0.0, "type": "electric_scooter", "name": "d1a3dddd9a2a7f9952dec3414d000ce7", "is_disabled": 0, "rental_uris": {"ios": "https://dc.lft.to/lastmile_qr_scan", "android": "https://dc.lft.to/lastmile_qr_scan"}, "is_reserved": 0}, {"lon": -77.0123465, "bike_id": "3f3cf6cb7c8e09209b06a21000c687fb", "lat": 38.89299233333333, "fusion_lon": 0.0, "fusion_lat": 0.0, "type": "electric_scooter", "name": "3f3cf6cb7c8e09209b06a21000c687fb", "is_disabled": 0, "rental_uris": {"ios": "https://dc.lft.to/lastmile_qr_scan", "android": "https://dc.lft.to/lastmile_qr_scan"}, "is_reserved": 0}, {"lon": -77.03190433333333, "bike_id": "e2395f576b2f6b5b0e09bb72a8363794", "lat": 38.8922405, "fusion_lon": 0.0, "fusion_lat": 0.0, "type": "electric_scooter", "name": "e2395f576b2f6b5b0e09bb72a8363794", "is_disabled": 0, "rental_uris": {"ios": "https://dc.lft.to/lastmile_qr_scan", "android": "https://dc.lft.to/lastmile_qr_scan"}, "is_reserved": 0}, {"lon": -77.03906083333334, "bike_id": "9b30b8817bc5e67c652a8ed38a0cb570", "lat": 38.918453666666665, "fusion_lon": 0.0, "fusion_lat": 0.0, "type": "electric_scooter", "name": "9b30b8817bc5e67c652a8ed38a0cb570", "is_disabled": 0, "rental_uris": {"ios": "https://dc.lft.to/lastmile_qr_scan", "android": "https://dc.lft.to/lastmile_qr_scan"}, "is_reserved": 0}, {"lon": -77.01626516666667, "bike_id": "fd628b90e1fd86f66f07a9b783b51f7d", "lat": 38.90568966666667, "fusion_lon": 0.0, "fusion_lat": 0.0, "type": "electric_scooter", "name": "fd628b90e1fd86f66f07a9b783b51f7d", "is_disabled": 0, "rental_uris": {"ios": "https://dc.lft.to/lastmile_qr_scan", "android": "https://dc.lft.to/lastmile_qr_scan"}, "is_reserved": 0}, {"lon": -77.01742883333333, "bike_id": "8e8114574906184c9827f0533fd2e1d0", "lat": 38.90240633333333, "fusion_lon": 0.0, "fusion_lat": 0.0, "type": "electric_scooter", "name": "8e8114574906184c9827f0533fd2e1d0", "is_disabled": 0, "rental_uris": {"ios": "https://dc.lft.to/lastmile_qr_scan", "android": "https://dc.lft.to/lastmile_qr_scan"}, "is_reserved": 0}, {"lon": -76.97669133333333, "bike_id": "120f46fedcf828dfa1cd2b40dc24da69", "lat": 38.9452005, "fusion_lon": 0.0, "fusion_lat": 0.0, "type": "electric_bike", "name": "120f46fedcf828dfa1cd2b40dc24da69", "is_disabled": 0, "rental_uris": {"ios": "https://dc.lft.to/lastmile_qr_scan", "android": "https://dc.lft.to/lastmile_qr_scan"}, "is_reserved": 0}, {"lon": -77.0120715, "bike_id": "3902dc38528de04f2a9f9cedede0f2cc", "lat": 38.915943, "fusion_lon": 0.0, "fusion_lat": 0.0, "type": "electric_scooter", "name": "3902dc38528de04f2a9f9cedede0f2cc", "is_disabled": 0, "rental_uris": {"ios": "https://dc.lft.to/lastmile_qr_scan", "android": "https://dc.lft.to/lastmile_qr_scan"}, "is_reserved": 0}, {"lon": -77.031708, "bike_id": "d91cc729c187d8ef9b3cc8aa881b7a12", "lat": 38.920931833333334, "fusion_lon": 0.0, "fusion_lat": 0.0, "type": "electric_scooter", "name": "d91cc729c187d8ef9b3cc8aa881b7a12", "is_disabled": 0, "rental_uris": {"ios": "https://dc.lft.to/lastmile_qr_scan", "android": "https://dc.lft.to/lastmile_qr_scan"}, "is_reserved": 0}, {"lon": -77.030248, "bike_id": "187787b231d49bbb277abb33e73726a9", "lat": 38.91708766666667, "fusion_lon": 0.0, "fusion_lat": 0.0, "type": "electric_scooter", "name": "187787b231d49bbb277abb33e73726a9", "is_disabled": 0, "rental_uris": {"ios": "https://dc.lft.to/lastmile_qr_scan", "android": "https://dc.lft.to/lastmile_qr_scan"}, "is_reserved": 0}, {"lon": -77.03841333333334, "bike_id": "95173031f4ad35c46e460414f3b0f8cf", "lat": 38.90357733333333, "fusion_lon": 0.0, "fusion_lat": 0.0, "type": "electric_scooter", "name": "95173031f4ad35c46e460414f3b0f8cf", "is_disabled": 0, "rental_uris": {"ios": "https://dc.lft.to/lastmile_qr_scan", "android": "https://dc.lft.to/lastmile_qr_scan"}, "is_reserved": 0}, {"lon": -76.98881533333333, "bike_id": "052430810daf7284db1dcb1cab1bfeb7", "lat": 38.86662483333333, "fusion_lon": 0.0, "fusion_lat": 0.0, "type": "electric_scooter", "name": "052430810daf7284db1dcb1cab1bfeb7", "is_disabled": 0, "rental_uris": {"ios": "https://dc.lft.to/lastmile_qr_scan", "android": "https://dc.lft.to/lastmile_qr_scan"}, "is_reserved": 0}, {"lon": -77.02122983333334, "bike_id": "dc63a331c510322400ff072c9bc30a1e", "lat": 38.93579833333333, "fusion_lon": 0.0, "fusion_lat": 0.0, "type": "electric_bike", "name": "dc63a331c510322400ff072c9bc30a1e", "is_disabled": 0, "rental_uris": {"ios": "https://dc.lft.to/lastmile_qr_scan", "android": "https://dc.lft.to/lastmile_qr_scan"}, "is_reserved": 0}, {"lon": -77.04023733333334, "bike_id": "74b1993e3e26ae69a69edefe118b3d01", "lat": 38.92447133333334, "fusion_lon": 0.0, "fusion_lat": 0.0, "type": "electric_scooter", "name": "74b1993e3e26ae69a69edefe118b3d01", "is_disabled": 0, "rental_uris": {"ios": "https://dc.lft.to/lastmile_qr_scan", "android": "https://dc.lft.to/lastmile_qr_scan"}, "is_reserved": 0}, {"lon": -77.02209666666667, "bike_id": "3813d08cec32730123b98338b82d1330", "lat": 38.8951185, "fusion_lon": 0.0, "fusion_lat": 0.0, "type": "electric_scooter", "name": "3813d08cec32730123b98338b82d1330", "is_disabled": 0, "rental_uris": {"ios": "https://dc.lft.to/lastmile_qr_scan", "android": "https://dc.lft.to/lastmile_qr_scan"}, "is_reserved": 0}, {"lon": -76.98711066666667, "bike_id": "6ad1c7eadcca6936860f1be0123c0b23", "lat": 38.86700116666667, "fusion_lon": 0.0, "fusion_lat": 0.0, "type": "electric_scooter", "name": "6ad1c7eadcca6936860f1be0123c0b23", "is_disabled": 0, "rental_uris": {"ios": "https://dc.lft.to/lastmile_qr_scan", "android": "https://dc.lft.to/lastmile_qr_scan"}, "is_reserved": 0}, {"lon": -77.03300633333333, "bike_id": "426ceff326a8300e4625bff301ea1426", "lat": 38.9111665, "fusion_lon": 0.0, "fusion_lat": 0.0, "type": "electric_scooter", "name": "426ceff326a8300e4625bff301ea1426", "is_disabled": 0, "rental_uris": {"ios": "https://dc.lft.to/lastmile_qr_scan", "android": "https://dc.lft.to/lastmile_qr_scan"}, "is_reserved": 0}, {"lon": -77.124906, "bike_id": "b42a68a1991cd396dfa4f5021820307c", "lat": 38.82786483333334, "fusion_lon": 0.0, "fusion_lat": 0.0, "type": "electric_bike", "name": "b42a68a1991cd396dfa4f5021820307c", "is_disabled": 0, "rental_uris": {"ios": "https://dc.lft.to/lastmile_qr_scan", "android": "https://dc.lft.to/lastmile_qr_scan"}, "is_reserved": 0}, {"lon": -77.02708916666667, "bike_id": "99a270601cf67f79dcd3f5976bd8e913", "lat": 38.934696833333334, "fusion_lon": 0.0, "fusion_lat": 0.0, "type": "electric_scooter", "name": "99a270601cf67f79dcd3f5976bd8e913", "is_disabled": 0, "rental_uris": {"ios": "https://dc.lft.to/lastmile_qr_scan", "android": "https://dc.lft.to/lastmile_qr_scan"}, "is_reserved": 0}, {"lon": -76.96577966666666, "bike_id": "622d312f09c16f26b4f8f2092901482e", "lat": 38.8713685, "fusion_lon": 0.0, "fusion_lat": 0.0, "type": "electric_scooter", "name": "622d312f09c16f26b4f8f2092901482e", "is_disabled": 0, "rental_uris": {"ios": "https://dc.lft.to/lastmile_qr_scan", "android": "https://dc.lft.to/lastmile_qr_scan"}, "is_reserved": 0}, {"lon": -76.99611666666667, "bike_id": "21d0077f87eb44d337b747d4340648f8", "lat": 38.88717666666667, "fusion_lon": 0.0, "fusion_lat": 0.0, "type": "electric_scooter", "name": "21d0077f87eb44d337b747d4340648f8", "is_disabled": 0, "rental_uris": {"ios": "https://dc.lft.to/lastmile_qr_scan", "android": "https://dc.lft.to/lastmile_qr_scan"}, "is_reserved": 0}, {"lon": -77.02848066666667, "bike_id": "9824a5a08a7b4b90a55defd44deb82e8", "lat": 38.9275985, "fusion_lon": 0.0, "fusion_lat": 0.0, "type": "electric_scooter", "name": "9824a5a08a7b4b90a55defd44deb82e8", "is_disabled": 0, "rental_uris": {"ios": "https://dc.lft.to/lastmile_qr_scan", "android": "https://dc.lft.to/lastmile_qr_scan"}, "is_reserved": 0}, {"lon": -77.03410016666666, "bike_id": "b7cc890fa92225129c6f411acf58bccb", "lat": 38.96028333333334, "fusion_lon": 0.0, "fusion_lat": 0.0, "type": "electric_bike", "name": "b7cc890fa92225129c6f411acf58bccb", "is_disabled": 0, "rental_uris": {"ios": "https://dc.lft.to/lastmile_qr_scan", "android": "https://dc.lft.to/lastmile_qr_scan"}, "is_reserved": 0}, {"lon": -77.002804, "bike_id": "c693d2740b76bb27cfc85a7d122a2d5b", "lat": 38.95711883333333, "fusion_lon": 0.0, "fusion_lat": 0.0, "type": "electric_bike", "name": "c693d2740b76bb27cfc85a7d122a2d5b", "is_disabled": 0, "rental_uris": {"ios": "https://dc.lft.to/lastmile_qr_scan", "android": "https://dc.lft.to/lastmile_qr_scan"}, "is_reserved": 0}, {"lon": -77.0642855, "bike_id": "afeb6358e1f90e5140a14989e8f23930", "lat": 38.90892066666667, "fusion_lon": 0.0, "fusion_lat": 0.0, "type": "electric_scooter", "name": "afeb6358e1f90e5140a14989e8f23930", "is_disabled": 0, "rental_uris": {"ios": "https://dc.lft.to/lastmile_qr_scan", "android": "https://dc.lft.to/lastmile_qr_scan"}, "is_reserved": 0}, {"lon": -77.0432865, "bike_id": "31f3fab338963fde38362eca77396602", "lat": 38.918776333333334, "fusion_lon": 0.0, "fusion_lat": 0.0, "type": "electric_scooter", "name": "31f3fab338963fde38362eca77396602", "is_disabled": 0, "rental_uris": {"ios": "https://dc.lft.to/lastmile_qr_scan", "android": "https://dc.lft.to/lastmile_qr_scan"}, "is_reserved": 0}, {"lon": -76.99853583333334, "bike_id": "9cbeb4d0ffa032ede40fdf44a0849a94", "lat": 38.841599, "fusion_lon": 0.0, "fusion_lat": 0.0, "type": "electric_scooter", "name": "9cbeb4d0ffa032ede40fdf44a0849a94", "is_disabled": 0, "rental_uris": {"ios": "https://dc.lft.to/lastmile_qr_scan", "android": "https://dc.lft.to/lastmile_qr_scan"}, "is_reserved": 0}, {"lon": -77.02467683333333, "bike_id": "932e8f2436226023ce7bd646d89d51b3", "lat": 38.938553666666664, "fusion_lon": 0.0, "fusion_lat": 0.0, "type": "electric_scooter", "name": "932e8f2436226023ce7bd646d89d51b3", "is_disabled": 0, "rental_uris": {"ios": "https://dc.lft.to/lastmile_qr_scan", "android": "https://dc.lft.to/lastmile_qr_scan"}, "is_reserved": 0}, {"lon": -77.05769333333333, "bike_id": "b808e06a753b79c8d2b8035059ac6b03", "lat": 38.9361565, "fusion_lon": 0.0, "fusion_lat": 0.0, "type": "electric_scooter", "name": "b808e06a753b79c8d2b8035059ac6b03", "is_disabled": 0, "rental_uris": {"ios": "https://dc.lft.to/lastmile_qr_scan", "android": "https://dc.lft.to/lastmile_qr_scan"}, "is_reserved": 0}, {"lon": -77.001993, "bike_id": "a335650dcb0ba78952855bd740091693", "lat": 38.900349, "fusion_lon": 0.0, "fusion_lat": 0.0, "type": "electric_scooter", "name": "a335650dcb0ba78952855bd740091693", "is_disabled": 0, "rental_uris": {"ios": "https://dc.lft.to/lastmile_qr_scan", "android": "https://dc.lft.to/lastmile_qr_scan"}, "is_reserved": 0}, {"lon": -77.04488633333334, "bike_id": "1fc256fbe832ea7e66b412557c2b13d8", "lat": 38.91118216666667, "fusion_lon": 0.0, "fusion_lat": 0.0, "type": "electric_scooter", "name": "1fc256fbe832ea7e66b412557c2b13d8", "is_disabled": 0, "rental_uris": {"ios": "https://dc.lft.to/lastmile_qr_scan", "android": "https://dc.lft.to/lastmile_qr_scan"}, "is_reserved": 0}, {"lon": -77.03413266666666, "bike_id": "c6e7648173e7fd4caadc14556ca2e786", "lat": 38.92741933333333, "fusion_lon": 0.0, "fusion_lat": 0.0, "type": "electric_scooter", "name": "c6e7648173e7fd4caadc14556ca2e786", "is_disabled": 0, "rental_uris": {"ios": "https://dc.lft.to/lastmile_qr_scan", "android": "https://dc.lft.to/lastmile_qr_scan"}, "is_reserved": 0}, {"lon": -77.015396, "bike_id": "b4940b2d6425fa43004c7494ab5e8912", "lat": 38.909699333333336, "fusion_lon": 0.0, "fusion_lat": 0.0, "type": "electric_bike", "name": "b4940b2d6425fa43004c7494ab5e8912", "is_disabled": 0, "rental_uris": {"ios": "https://dc.lft.to/lastmile_qr_scan", "android": "https://dc.lft.to/lastmile_qr_scan"}, "is_reserved": 0}, {"lon": -77.01456966666667, "bike_id": "7d7d6089a48102a23f47251f81c9782d", "lat": 38.90517083333334, "fusion_lon": 0.0, "fusion_lat": 0.0, "type": "electric_scooter", "name": "7d7d6089a48102a23f47251f81c9782d", "is_disabled": 0, "rental_uris": {"ios": "https://dc.lft.to/lastmile_qr_scan", "android": "https://dc.lft.to/lastmile_qr_scan"}, "is_reserved": 0}, {"lon": -77.01149266666667, "bike_id": "e1e4eafea2317f0670462cdd48a55c3e", "lat": 38.89583533333333, "fusion_lon": 0.0, "fusion_lat": 0.0, "type": "electric_scooter", "name": "e1e4eafea2317f0670462cdd48a55c3e", "is_disabled": 0, "rental_uris": {"ios": "https://dc.lft.to/lastmile_qr_scan", "android": "https://dc.lft.to/lastmile_qr_scan"}, "is_reserved": 0}, {"lon": -77.12223566666667, "bike_id": "8a0e249ab9696b33fabf7ce6ab770fe2", "lat": 38.85298183333333, "fusion_lon": 0.0, "fusion_lat": 0.0, "type": "electric_bike", "name": "8a0e249ab9696b33fabf7ce6ab770fe2", "is_disabled": 0, "rental_uris": {"ios": "https://dc.lft.to/lastmile_qr_scan", "android": "https://dc.lft.to/lastmile_qr_scan"}, "is_reserved": 0}, {"lon": -76.98849383333334, "bike_id": "373e1fbfde30c70d74d438f2ca11d760", "lat": 38.901291, "fusion_lon": 0.0, "fusion_lat": 0.0, "type": "electric_scooter", "name": "373e1fbfde30c70d74d438f2ca11d760", "is_disabled": 0, "rental_uris": {"ios": "https://dc.lft.to/lastmile_qr_scan", "android": "https://dc.lft.to/lastmile_qr_scan"}, "is_reserved": 0}, {"lon": -77.0322035, "bike_id": "8c8823f917af9ccbaf248fcba8eb5666", "lat": 38.8922345, "fusion_lon": 0.0, "fusion_lat": 0.0, "type": "electric_scooter", "name": "8c8823f917af9ccbaf248fcba8eb5666", "is_disabled": 0, "rental_uris": {"ios": "https://dc.lft.to/lastmile_qr_scan", "android": "https://dc.lft.to/lastmile_qr_scan"}, "is_reserved": 0}, {"lon": -77.03467466666666, "bike_id": "35f0c8c9de1886555a1020f003f08df3", "lat": 38.900414, "fusion_lon": 0.0, "fusion_lat": 0.0, "type": "electric_scooter", "name": "35f0c8c9de1886555a1020f003f08df3", "is_disabled": 0, "rental_uris": {"ios": "https://dc.lft.to/lastmile_qr_scan", "android": "https://dc.lft.to/lastmile_qr_scan"}, "is_reserved": 0}, {"lon": -77.0406315, "bike_id": "3f83e14c917aa2010b5e8299bf5c6179", "lat": 38.91490133333333, "fusion_lon": 0.0, "fusion_lat": 0.0, "type": "electric_scooter", "name": "3f83e14c917aa2010b5e8299bf5c6179", "is_disabled": 0, "rental_uris": {"ios": "https://dc.lft.to/lastmile_qr_scan", "android": "https://dc.lft.to/lastmile_qr_scan"}, "is_reserved": 0}, {"lon": -77.0435615, "bike_id": "e9e795e7c9ac167a2b5ca827e04d32ab", "lat": 38.921478666666665, "fusion_lon": 0.0, "fusion_lat": 0.0, "type": "electric_scooter", "name": "e9e795e7c9ac167a2b5ca827e04d32ab", "is_disabled": 0, "rental_uris": {"ios": "https://dc.lft.to/lastmile_qr_scan", "android": "https://dc.lft.to/lastmile_qr_scan"}, "is_reserved": 0}, {"lon": -76.977633, "bike_id": "2dfad22b629eea9902fb418268d262b1", "lat": 38.864472166666665, "fusion_lon": 0.0, "fusion_lat": 0.0, "type": "electric_scooter", "name": "2dfad22b629eea9902fb418268d262b1", "is_disabled": 0, "rental_uris": {"ios": "https://dc.lft.to/lastmile_qr_scan", "android": "https://dc.lft.to/lastmile_qr_scan"}, "is_reserved": 0}, {"lon": -76.99109516666667, "bike_id": "b12494162f2ec589b208ee13beebe0c8", "lat": 38.903222166666666, "fusion_lon": 0.0, "fusion_lat": 0.0, "type": "electric_scooter", "name": "b12494162f2ec589b208ee13beebe0c8", "is_disabled": 0, "rental_uris": {"ios": "https://dc.lft.to/lastmile_qr_scan", "android": "https://dc.lft.to/lastmile_qr_scan"}, "is_reserved": 0}, {"lon": -76.9819995, "bike_id": "7121fca21fbb307cbbe4806df3239705", "lat": 38.92606766666667, "fusion_lon": 0.0, "fusion_lat": 0.0, "type": "electric_scooter", "name": "7121fca21fbb307cbbe4806df3239705", "is_disabled": 0, "rental_uris": {"ios": "https://dc.lft.to/lastmile_qr_scan", "android": "https://dc.lft.to/lastmile_qr_scan"}, "is_reserved": 0}, {"lon": -77.1265635, "bike_id": "f73d20c27a53906975d4e8de230e573d", "lat": 38.815169, "fusion_lon": 0.0, "fusion_lat": 0.0, "type": "electric_bike", "name": "f73d20c27a53906975d4e8de230e573d", "is_disabled": 0, "rental_uris": {"ios": "https://dc.lft.to/lastmile_qr_scan", "android": "https://dc.lft.to/lastmile_qr_scan"}, "is_reserved": 0}, {"lon": -77.0450955, "bike_id": "2c76549dccd0884c899dc8bb8416f04f", "lat": 38.9163155, "fusion_lon": 0.0, "fusion_lat": 0.0, "type": "electric_scooter", "name": "2c76549dccd0884c899dc8bb8416f04f", "is_disabled": 0, "rental_uris": {"ios": "https://dc.lft.to/lastmile_qr_scan", "android": "https://dc.lft.to/lastmile_qr_scan"}, "is_reserved": 0}, {"lon": -77.04628133333334, "bike_id": "10b67a9bd8077775da0d082e7334c3cd", "lat": 38.9191185, "fusion_lon": 0.0, "fusion_lat": 0.0, "type": "electric_scooter", "name": "10b67a9bd8077775da0d082e7334c3cd", "is_disabled": 0, "rental_uris": {"ios": "https://dc.lft.to/lastmile_qr_scan", "android": "https://dc.lft.to/lastmile_qr_scan"}, "is_reserved": 0}, {"lon": -77.00212833333333, "bike_id": "86fdf2877dcbf95a4602331e11a59643", "lat": 38.881295, "fusion_lon": 0.0, "fusion_lat": 0.0, "type": "electric_scooter", "name": "86fdf2877dcbf95a4602331e11a59643", "is_disabled": 0, "rental_uris": {"ios": "https://dc.lft.to/lastmile_qr_scan", "android": "https://dc.lft.to/lastmile_qr_scan"}, "is_reserved": 0}, {"lon": -77.04817366666667, "bike_id": "fcdc56e11d23fab45a6b2022141002ce", "lat": 38.907202166666664, "fusion_lon": 0.0, "fusion_lat": 0.0, "type": "electric_scooter", "name": "fcdc56e11d23fab45a6b2022141002ce", "is_disabled": 0, "rental_uris": {"ios": "https://dc.lft.to/lastmile_qr_scan", "android": "https://dc.lft.to/lastmile_qr_scan"}, "is_reserved": 0}, {"lon": -77.02345066666666, "bike_id": "58665e4d8a63b86337db2d7a1dce4779", "lat": 38.9353965, "fusion_lon": 0.0, "fusion_lat": 0.0, "type": "electric_scooter", "name": "58665e4d8a63b86337db2d7a1dce4779", "is_disabled": 0, "rental_uris": {"ios": "https://dc.lft.to/lastmile_qr_scan", "android": "https://dc.lft.to/lastmile_qr_scan"}, "is_reserved": 0}, {"lon": -77.044592, "bike_id": "692c0e3c69bf5253b359ef67ea0c4c66", "lat": 38.9187435, "fusion_lon": 0.0, "fusion_lat": 0.0, "type": "electric_scooter", "name": "692c0e3c69bf5253b359ef67ea0c4c66", "is_disabled": 0, "rental_uris": {"ios": "https://dc.lft.to/lastmile_qr_scan", "android": "https://dc.lft.to/lastmile_qr_scan"}, "is_reserved": 0}, {"lon": -76.933574, "bike_id": "45096c187344e4578174c9e94ae82b39", "lat": 38.899055, "fusion_lon": 0.0, "fusion_lat": 0.0, "type": "electric_scooter", "name": "45096c187344e4578174c9e94ae82b39", "is_disabled": 0, "rental_uris": {"ios": "https://dc.lft.to/lastmile_qr_scan", "android": "https://dc.lft.to/lastmile_qr_scan"}, "is_reserved": 0}, {"lon": -77.02354033333333, "bike_id": "7e63d21daf18c36ee67eaf1187b596a7", "lat": 38.920663166666664, "fusion_lon": 0.0, "fusion_lat": 0.0, "type": "electric_scooter", "name": "7e63d21daf18c36ee67eaf1187b596a7", "is_disabled": 0, "rental_uris": {"ios": "https://dc.lft.to/lastmile_qr_scan", "android": "https://dc.lft.to/lastmile_qr_scan"}, "is_reserved": 0}, {"lon": -76.93327683333334, "bike_id": "9037637b981a17253232eeb4fd707688", "lat": 38.9106325, "fusion_lon": 0.0, "fusion_lat": 0.0, "type": "electric_scooter", "name": "9037637b981a17253232eeb4fd707688", "is_disabled": 0, "rental_uris": {"ios": "https://dc.lft.to/lastmile_qr_scan", "android": "https://dc.lft.to/lastmile_qr_scan"}, "is_reserved": 0}, {"lon": -77.0479555, "bike_id": "b8882fe8842aa317bc429f0f1ae9bf63", "lat": 38.90959016666667, "fusion_lon": 0.0, "fusion_lat": 0.0, "type": "electric_scooter", "name": "b8882fe8842aa317bc429f0f1ae9bf63", "is_disabled": 0, "rental_uris": {"ios": "https://dc.lft.to/lastmile_qr_scan", "android": "https://dc.lft.to/lastmile_qr_scan"}, "is_reserved": 0}, {"lon": -77.02711866666667, "bike_id": "318afcdbd3665273d12f67bcfad4ac9d", "lat": 38.92771366666667, "fusion_lon": 0.0, "fusion_lat": 0.0, "type": "electric_scooter", "name": "318afcdbd3665273d12f67bcfad4ac9d", "is_disabled": 0, "rental_uris": {"ios": "https://dc.lft.to/lastmile_qr_scan", "android": "https://dc.lft.to/lastmile_qr_scan"}, "is_reserved": 0}, {"lon": -76.92739266666666, "bike_id": "010a8b5a64de9cddcd9ffc1fbcce42ab", "lat": 38.88965433333333, "fusion_lon": 0.0, "fusion_lat": 0.0, "type": "electric_scooter", "name": "010a8b5a64de9cddcd9ffc1fbcce42ab", "is_disabled": 0, "rental_uris": {"ios": "https://dc.lft.to/lastmile_qr_scan", "android": "https://dc.lft.to/lastmile_qr_scan"}, "is_reserved": 0}, {"lon": -76.985599, "bike_id": "990fee5649fb26f9558eb7556a160527", "lat": 38.89959416666667, "fusion_lon": 0.0, "fusion_lat": 0.0, "type": "electric_scooter", "name": "990fee5649fb26f9558eb7556a160527", "is_disabled": 0, "rental_uris": {"ios": "https://dc.lft.to/lastmile_qr_scan", "android": "https://dc.lft.to/lastmile_qr_scan"}, "is_reserved": 0}, {"lon": -77.0433785, "bike_id": "d1b57091b56949fd27443ed587488f58", "lat": 38.929678, "fusion_lon": 0.0, "fusion_lat": 0.0, "type": "electric_scooter", "name": "d1b57091b56949fd27443ed587488f58", "is_disabled": 0, "rental_uris": {"ios": "https://dc.lft.to/lastmile_qr_scan", "android": "https://dc.lft.to/lastmile_qr_scan"}, "is_reserved": 0}, {"lon": -77.03171966666666, "bike_id": "70964ce9b174095f9a7c1a3b99d31707", "lat": 38.88734433333333, "fusion_lon": 0.0, "fusion_lat": 0.0, "type": "electric_scooter", "name": "70964ce9b174095f9a7c1a3b99d31707", "is_disabled": 0, "rental_uris": {"ios": "https://dc.lft.to/lastmile_qr_scan", "android": "https://dc.lft.to/lastmile_qr_scan"}, "is_reserved": 0}, {"lon": -77.02820283333334, "bike_id": "84e831e1ced291281f8517bc99eb5b30", "lat": 38.902587833333335, "fusion_lon": 0.0, "fusion_lat": 0.0, "type": "electric_scooter", "name": "84e831e1ced291281f8517bc99eb5b30", "is_disabled": 0, "rental_uris": {"ios": "https://dc.lft.to/lastmile_qr_scan", "android": "https://dc.lft.to/lastmile_qr_scan"}, "is_reserved": 0}, {"lon": -76.98363733333333, "bike_id": "3ba0601c5ee0a69aa750b39b190eb1b1", "lat": 38.89978166666667, "fusion_lon": 0.0, "fusion_lat": 0.0, "type": "electric_scooter", "name": "3ba0601c5ee0a69aa750b39b190eb1b1", "is_disabled": 0, "rental_uris": {"ios": "https://dc.lft.to/lastmile_qr_scan", "android": "https://dc.lft.to/lastmile_qr_scan"}, "is_reserved": 0}, {"lon": -77.0229655, "bike_id": "5c29e127ab2401105c8ce95bb42483e6", "lat": 38.90973666666667, "fusion_lon": 0.0, "fusion_lat": 0.0, "type": "electric_scooter", "name": "5c29e127ab2401105c8ce95bb42483e6", "is_disabled": 0, "rental_uris": {"ios": "https://dc.lft.to/lastmile_qr_scan", "android": "https://dc.lft.to/lastmile_qr_scan"}, "is_reserved": 0}, {"lon": -77.02971116666667, "bike_id": "dfd748c8a50b2bbff9bcaea6a7094c6c", "lat": 38.9328215, "fusion_lon": 0.0, "fusion_lat": 0.0, "type": "electric_scooter", "name": "dfd748c8a50b2bbff9bcaea6a7094c6c", "is_disabled": 0, "rental_uris": {"ios": "https://dc.lft.to/lastmile_qr_scan", "android": "https://dc.lft.to/lastmile_qr_scan"}, "is_reserved": 0},