{"data": {"bikes": [{"type": "electric_scooter", "name": "69500ff835b99c65603fe55c9bb15bc5", "lat": 38.8934985, "fusion_lat": 0.0, "bike_id": "69500ff835b99c65603fe55c9bb15bc5", "is_reserved": 0, "lon": -77.00339833333334, "is_disabled": 0, "fusion_lon": 0.0, "rental_uris": {"android": "https://dc.lft.to/lastmile_qr_scan", "ios": "https://dc.lft.to/lastmile_qr_scan"}}, {"type": "electric_scooter", "name": "b2c00fdf0fd336b2b123316f921c9d51", "lat": 38.917053, "fusion_lat": 0.0, "bike_id": "b2c00fdf0fd336b2b123316f921c9d51", "is_reserved": 0, "lon": -77.03858416666667, "is_disabled": 0, "fusion_lon": 0.0, "rental_uris": {"android": "https://dc.lft.to/lastmile_qr_scan", "ios": "https://dc.lft.to/lastmile_qr_scan"}}, {"type": "electric_scooter", "name": "e60ca931f254ecb53a9e3cd4c5040620", "lat": 38.900178333333336, "fusion_lat": 0.0, "bike_id": "e60ca931f254ecb53a9e3cd4c5040620", "is_reserved": 0, "lon": -76.99172183333333, "is_disabled": 0, "fusion_lon": 0.0, "rental_uris": {"android": "https://dc.lft.to/lastmile_qr_scan", "ios": "https://dc.lft.to/lastmile_qr_scan"}}, {"type": "electric_scooter", "name": "547c4bdd3294db4bca78c0ae0e97ba66", "lat": 38.9170605, "fusion_lat": 0.0, "bike_id": "547c4bdd3294db4bca78c0ae0e97ba66", "is_reserved": 0, "lon": -77.03858666666666, "is_disabled": 0, "fusion_lon": 0.0, "rental_uris": {"android": "https://dc.lft.to/lastmile_qr_scan", "ios": "https://dc.lft.to/lastmile_qr_scan"}}, {"type": "electric_scooter", "name": "86444b5b6bd89a0087fb8c007e58343c", "lat": 38.927873, "fusion_lat": 0.0, "bike_id": "86444b5b6bd89a0087fb8c007e58343c", "is_reserved": 0, "lon": -77.02311383333333, "is_disabled": 0, "fusion_lon": 0.0, "rental_uris": {"android": "https://dc.lft.to/lastmile_qr_scan", "ios": "https://dc.lft.to/lastmile_qr_scan"}}, {"type": "electric_scooter", "name": "03c00469306a78ceb5afaf5d6419ce42", "lat": 38.920039333333335, "fusion_lat": 0.0, "bike_id": "03c00469306a78ceb5afaf5d6419ce42", "is_reserved": 0, "lon": -77.03226366666667, "is_disabled": 0, "fusion_lon": 0.0, "rental_uris": {"android": "https://dc.lft.to/lastmile_qr_scan", "ios": "https://dc.lft.to/lastmile_qr_scan"}}, {"type": "electric_scooter", "name": "705fefe472adfceafba3f246027cb8f1", "lat": 38.91572, "fusion_lat": 0.0, "bike_id": "705fefe472adfceafba3f246027cb8f1", "is_reserved": 0, "lon": -77.03172183333334, "is_disabled": 0, "fusion_lon": 0.0, "rental_uris": {"android": "https://dc.lft.to/lastmile_qr_scan", "ios": "https://dc.lft.to/lastmile_qr_scan"}}, {"type": "electric_scooter", "name": "75a5ea124ad494d1bf5f02a482bbab98", "lat": 38.931041666666665, "fusion_lat": 0.0, "bike_id": "75a5ea124ad494d1bf5f02a482bbab98", "is_reserved": 0, "lon": -77.02121033333333, "is_disabled": 0, "fusion_lon": 0.0, "rental_uris": {"android": "https://dc.lft.to/lastmile_qr_scan", "ios": "https://dc.lft.to/lastmile_qr_scan"}}, {"type": "electric_scooter", "name": "2819d0cc2f8a13c05c0603c27ada81cf", "lat": 38.85590366666667, "fusion_lat": 0.0, "bike_id": "2819d0cc2f8a13c05c0603c27ada81cf", "is_reserved": 0, "lon": -76.98728316666667, "is_disabled": 0, "fusion_lon": 0.0, "rental_uris": {"android": "https://dc.lft.to/lastmile_qr_scan", "ios": "https://dc.lft.to/lastmile_qr_scan"}}, {"type": "electric_scooter", "name": "5441c47afebe5ff7f095dc2b4487c95c", "lat": 38.92044583333333, "fusion_lat": 0.0, "bike_id": "5441c47afebe5ff7f095dc2b4487c95c", "is_reserved": 0, "lon": -77.02571416666666, "is_disabled": 0, "fusion_lon": 0.0, "rental_uris": {"android": "https://dc.lft.to/lastmile_qr_scan", "ios": "https://dc.lft.to/lastmile_qr_scan"}}, {"type": "electric_scooter", "name": "136a92913565b1ec7fdd1945408b5383", "lat": 38.904182, "fusion_lat": 0.0, "bike_id": "136a92913565b1ec7fdd1945408b5383", "is_reserved": 0, "lon": -77.04342416666667, "is_disabled": 0, "fusion_lon": 0.0, "rental_uris": {"android": "https://dc.lft.to/lastmile_qr_scan", "ios": "https://dc.lft.to/lastmile_qr_scan"}}, {"type": "electric_scooter", "name": "90de37499fbb697d15bb03d735eba234", "lat": 38.9307735, "fusion_lat": 0.0, "bike_id": "90de37499fbb697d15bb03d735eba234", "is_reserved": 0, "lon": -77.02789933333334, "is_disabled": 0, "fusion_lon": 0.0, "rental_uris": {"android": "https://dc.lft.to/lastmile_qr_scan", "ios": "https://dc.lft.to/lastmile_qr_scan"}}, {"type": "electric_scooter", "name": "551bd35050ec4bef6551d9c0e4f70957", "lat": 38.88705616666667, "fusion_lat": 0.0, "bike_id": "551bd35050ec4bef6551d9c0e4f70957", "is_reserved": 0, "lon": -77.013721, "is_disabled": 0, "fusion_lon": 0.0, "rental_uris": {"android": "https://dc.lft.to/lastmile_qr_scan", "ios": "https://dc.lft.to/lastmile_qr_scan"}}, {"type": "electric_scooter", "name": "8eca94901aa504c89175f64cb19a22ae", "lat": 38.902781, "fusion_lat": 0.0, "bike_id": "8eca94901aa504c89175f64cb19a22ae", "is_reserved": 0, "lon": -77.02311216666666, "is_disabled": 0, "fusion_lon": 0.0, "rental_uris": {"android": "https://dc.lft.to/lastmile_qr_scan", "ios": "https://dc.lft.to/lastmile_qr_scan"}}, {"type": "electric_scooter", "name": "d9deef9758a96e455b6252f4e00e60ce", "lat": 38.899206666666664, "fusion_lat": 0.0, "bike_id": "d9deef9758a96e455b6252f4e00e60ce", "is_reserved": 0, "lon": -77.0403455, "is_disabled": 0, "fusion_lon": 0.0, "rental_uris": {"android": "https://dc.lft.to/lastmile_qr_scan", "ios": "https://dc.lft.to/lastmile_qr_scan"}}, {"type": "electric_scooter", "name": "a147fb1bc1d5fa59f29de8067f06fd7a", "lat": 38.9097085, "fusion_lat": 0.0, "bike_id": "a147fb1bc1d5fa59f29de8067f06fd7a", "is_reserved": 0, "lon": -77.03364033333334, "is_disabled": 0, "fusion_lon": 0.0, "rental_uris": {"android": "https://dc.lft.to/lastmile_qr_scan", "ios": "https://dc.lft.to/lastmile_qr_scan"}}, {"type": "electric_scooter", "name": "a0a0dae2814e13b06d3214ee30852215", "lat": 38.9211315, "fusion_lat": 0.0, "bike_id": "a0a0dae2814e13b06d3214ee30852215", "is_reserved": 0, "lon": -77.025248, "is_disabled": 0, "fusion_lon": 0.0, "rental_uris": {"android": "https://dc.lft.to/lastmile_qr_scan", "ios": "https://dc.lft.to/lastmile_qr_scan"}}, {"type": "electric_scooter", "name": "0d7b9871b2604fbefa5b0125c308fb6d", "lat": 38.898311166666666, "fusion_lat": 0.0, "bike_id": "0d7b9871b2604fbefa5b0125c308fb6d", "is_reserved": 0, "lon": -77.043526, "is_disabled": 0, "fusion_lon": 0.0, "rental_uris": {"android": "https://dc.lft.to/lastmile_qr_scan", "ios": "https://dc.lft.to/lastmile_qr_scan"}}, {"type": "electric_scooter", "name": "9e0c5bb2cc5f8510db613eda89114bc2", "lat": 38.89863533333333, "fusion_lat": 0.0, "bike_id": "9e0c5bb2cc5f8510db613eda89114bc2", "is_reserved": 0, "lon": -76.94632916666667, "is_disabled": 0, "fusion_lon": 0.0, "rental_uris": {"android": "https://dc.lft.to/lastmile_qr_scan", "ios": "https://dc.lft.to/lastmile_qr_scan"}}, {"type": "electric_scooter", "name": "b1b3fc13b1c2cc727238c6b1675f2706", "lat": 38.93395916666667, "fusion_lat": 0.0, "bike_id": "b1b3fc13b1c2cc727238c6b1675f2706", "is_reserved": 0, "lon": -77.05745233333333, "is_disabled": 0, "fusion_lon": 0.0, "rental_uris": {"android": "https://dc.lft.to/lastmile_qr_scan", "ios": "https://dc.lft.to/lastmile_qr_scan"}}, {"type": "electric_bike", "name": "664d47d2f8776b9e83bbb9d0448133b5", "lat": 38.9737935, "fusion_lat": 0.0, "bike_id": "664d47d2f8776b9e83bbb9d0448133b5", "is_reserved": 0, "lon": -77.06468366666667, "is_disabled": 0, "fusion_lon": 0.0, "rental_uris": {"android": "https://dc.lft.to/lastmile_qr_scan", "ios": "https://dc.lft.to/lastmile_qr_scan"}}, {"type": "electric_scooter", "name": "1e13c3a9e58d291ff7f952d4f6e6ab51", "lat": 38.910512833333335, "fusion_lat": 0.0, "bike_id": "1e13c3a9e58d291ff7f952d4f6e6ab51", "is_reserved": 0, "lon": -77.0437175, "is_disabled": 0, "fusion_lon": 0.0, "rental_uris": {"android": "https://dc.lft.to/lastmile_qr_scan", "ios": "https://dc.lft.to/lastmile_qr_scan"}}, {"type": "electric_scooter", "name": "0a412d01dd7ce5b6896e161695193421", "lat": 38.91190733333333, "fusion_lat": 0.0, "bike_id": "0a412d01dd7ce5b6896e161695193421", "is_reserved": 0, "lon": -77.036585, "is_disabled": 0, "fusion_lon": 0.0, "rental_uris": {"android": "https://dc.lft.to/lastmile_qr_scan", "ios": "https://dc.lft.to/lastmile_qr_scan"}}, {"type": "electric_scooter", "name": "6e58200c36a7e396758e43c20cc8c780", "lat": 38.92415533333333, "fusion_lat": 0.0, "bike_id": "6e58200c36a7e396758e43c20cc8c780", "is_reserved": 0, "lon": -77.0200835, "is_disabled": 0, "fusion_lon": 0.0, "rental_uris": {"android": "https://dc.lft.to/lastmile_qr_scan", "ios": "https://dc.lft.to/lastmile_qr_scan"}}, {"type": "electric_scooter", "name": "9e5bdfea9e0bdda15e391ac551bf1d93", "lat": 38.8881595, "fusion_lat": 0.0, "bike_id": "9e5bdfea9e0bdda15e391ac551bf1d93", "is_reserved": 0, "lon": -76.98064766666667, "is_disabled": 0, "fusion_lon": 0.0, "rental_uris": {"android": "https://dc.lft.to/lastmile_qr_scan", "ios": "https://dc.lft.to/lastmile_qr_scan"}}, {"type": "electric_scooter", "name": "1cb540d4171baa6ea9b0bfcf36890403", "lat": 38.89728233333334, "fusion_lat": 0.0, "bike_id": "1cb540d4171baa6ea9b0bfcf36890403", "is_reserved": 0, "lon": -77.055236, "is_disabled": 0, "fusion_lon": 0.0, "rental_uris": {"android": "https://dc.lft.to/lastmile_qr_scan", "ios": "https://dc.lft.to/lastmile_qr_scan"}}, {"type": "electric_scooter", "name": "001fdbc3acc8d86fbd1cdebf0fb7f5cf", "lat": 38.9115655, "fusion_lat": 0.0, "bike_id": "001fdbc3acc8d86fbd1cdebf0fb7f5cf", "is_reserved": 0, "lon": -77.02376533333333, "is_disabled": 0, "fusion_lon": 0.0, "rental_uris": {"android": "https://dc.lft.to/lastmile_qr_scan", "ios": "https://dc.lft.to/lastmile_qr_scan"}}, {"type": "electric_scooter", "name": "19a0d903e8821bd73c42c0b0b256a258", "lat": 38.91615566666667, "fusion_lat": 0.0, "bike_id": "19a0d903e8821bd73c42c0b0b256a258", "is_reserved": 0, "lon": -77.048643, "is_disabled": 0, "fusion_lon": 0.0, "rental_uris": {"android": "https://dc.lft.to/lastmile_qr_scan", "ios": "https://dc.lft.to/lastmile_qr_scan"}}, {"type": "electric_scooter", "name": "85f330b7bad15411579fc6a8716d9d5c", "lat": 38.9054195, "fusion_lat": 0.0, "bike_id": "85f330b7bad15411579fc6a8716d9d5c", "is_reserved": 0, "lon": -77.05701, "is_disabled": 0, "fusion_lon": 0.0, "rental_uris": {"android": "https://dc.lft.to/lastmile_qr_scan", "ios": "https://dc.lft.to/lastmile_qr_scan"}}, {"type": "electric_scooter", "name": "38b6bceff1734ae91e41ec3f166f9ea0", "lat": 38.899073333333334, "fusion_lat": 0.0, "bike_id": "38b6bceff1734ae91e41ec3f166f9ea0", "is_reserved": 0, "lon": -77.032933, "is_disabled": 0, "fusion_lon": 0.0, "rental_uris": {"android": "https://dc.lft.to/lastmile_qr_scan", "ios": "https://dc.lft.to/lastmile_qr_scan"}}, {"type": "electric_scooter", "name": "32f6a116f9048ee6b226cb4b7cac0b44", "lat": 38.939474833333335, "fusion_lat": 0.0, "bike_id": "32f6a116f9048ee6b226cb4b7cac0b44", "is_reserved": 0, "lon": -77.0723625, "is_disabled": 0, "fusion_lon": 0.0, "rental_uris": {"android": "https://dc.lft.to/lastmile_qr_scan", "ios": "https://dc.lft.to/lastmile_qr_scan"}}, {"type": "electric_bike", "name": "2f4e68525dcf4626d77bf6b9d1991f70", "lat": 38.89350916666667, "fusion_lat": 0.0, "bike_id": "2f4e68525dcf4626d77bf6b9d1991f70", "is_reserved": 0, "lon": -77.187396, "is_disabled": 0, "fusion_lon": 0.0, "rental_uris": {"android": "https://dc.lft.to/lastmile_qr_scan", "ios": "https://dc.lft.to/lastmile_qr_scan"}}, {"type": "electric_scooter", "name": "444cfcdfc0efa02ff608fb0f4468babf", "lat": 38.95614233333333, "fusion_lat": 0.0, "bike_id": "444cfcdfc0efa02ff608fb0f4468babf", "is_reserved": 0, "lon": -77.02822483333334, "is_disabled": 0, "fusion_lon": 0.0, "rental_uris": {"android": "https://dc.lft.to/lastmile_qr_scan", "ios": "https://dc.lft.to/lastmile_qr_scan"}}, {"type": "electric_scooter", "name": "7703e02516a4b3ca2d131c4eb85cfa09", "lat": 38.90255333333333, "fusion_lat": 0.0, "bike_id": "7703e02516a4b3ca2d131c4eb85cfa09", "is_reserved": 0, "lon": -77.03930716666666, "is_disabled": 0, "fusion_lon": 0.0, "rental_uris": {"android": "https://dc.lft.to/lastmile_qr_scan", "ios": "https://dc.lft.to/lastmile_qr_scan"}}, {"type": "electric_bike", "name": "c6bacb934e565d9a945832299a5b3599", "lat": 38.95236516666667, "fusion_lat": 0.0, "bike_id": "c6bacb934e565d9a945832299a5b3599", "is_reserved": 0, "lon": -77.00269516666667, "is_disabled": 0, "fusion_lon": 0.0, "rental_uris": {"android": "https://dc.lft.to/lastmile_qr_scan", "ios": "https://dc.lft.to/lastmile_qr_scan"}}, {"type": "electric_scooter", "name": "5a26b3cd7e0323f9816a3ae2aa81ecdc", "lat": 38.844377333333334, "fusion_lat": 0.0, "bike_id": "5a26b3cd7e0323f9816a3ae2aa81ecdc", "is_reserved": 0, "lon": -76.99778583333334, "is_disabled": 0, "fusion_lon": 0.0, "rental_uris": {"android": "https://dc.lft.to/lastmile_qr_scan", "ios": "https://dc.lft.to/lastmile_qr_scan"}}, {"type": "electric_scooter", "name": "b6744d50f82e3c6da21d00a747a43d80", "lat": 38.92003583333333, "fusion_lat": 0.0, "bike_id": "b6744d50f82e3c6da21d00a747a43d80", "is_reserved": 0, "lon": -77.03222133333334, "is_disabled": 0, "fusion_lon": 0.0, "rental_uris": {"android": "https://dc.lft.to/lastmile_qr_scan", "ios": "https://dc.lft.to/lastmile_qr_scan"}}, {"type": "electric_scooter", "name": "b3d57c1cb59cc089af44f5f06e28aa2e", "lat": 38.904257, "fusion_lat": 0.0, "bike_id": "b3d57c1cb59cc089af44f5f06e28aa2e", "is_reserved": 0, "lon": -77.04641766666667, "is_disabled": 0, "fusion_lon": 0.0, "rental_uris": {"android": "https://dc.lft.to/lastmile_qr_scan", "ios": "https://dc.lft.to/lastmile_qr_scan"}}, {"type": "electric_scooter", "name": "aa73330a3a0fc75dd5ddb7d193454013", "lat": 38.900379666666666, "fusion_lat": 0.0, "bike_id": "aa73330a3a0fc75dd5ddb7d193454013", "is_reserved": 0, "lon": -76.998347, "is_disabled": 0, "fusion_lon": 0.0, "rental_uris": {"android": "https://dc.lft.to/lastmile_qr_scan", "ios": "https://dc.lft.to/lastmile_qr_scan"}}, {"type": "electric_bike", "name": "d8f95aa21bd4f6eeb5fbc9fa51b048d3", "lat": 39.084410166666665, "fusion_lat": 0.0, "bike_id": "d8f95aa21bd4f6eeb5fbc9fa51b048d3", "is_reserved": 0, "lon": -76.95181916666667, "is_disabled": 0, "fusion_lon": 0.0, "rental_uris": {"android": "https://dc.lft.to/lastmile_qr_scan", "ios": "https://dc.lft.to/lastmile_qr_scan"}}, {"type": "electric_scooter", "name": "1c68e41fc6d8546a3349c33f1651b5e7", "lat": 38.923789666666664, "fusion_lat": 0.0, "bike_id": "1c68e41fc6d8546a3349c33f1651b5e7", "is_reserved": 0, "lon": -77.0268745, "is_disabled": 0, "fusion_lon": 0.0, "rental_uris": {"android": "https://dc.lft.to/lastmile_qr_scan", "ios": "https://dc.lft.to/lastmile_qr_scan"}}, {"type": "electric_scooter", "name": "aeca2ff037e4dbf75e3f71f6596a36fa", "lat": 38.90071733333333, "fusion_lat": 0.0, "bike_id": "aeca2ff037e4dbf75e3f71f6596a36fa", "is_reserved": 0, "lon": -77.04762316666667, "is_disabled": 0, "fusion_lon": 0.0, "rental_uris": {"android": "https://dc.lft.to/lastmile_qr_scan", "ios": "https://dc.lft.to/lastmile_qr_scan"}}, {"type": "electric_scooter", "name": "12fc1f0d86237632c161a2eedac2e603", "lat": 38.9023345, "fusion_lat": 0.0, "bike_id": "12fc1f0d86237632c161a2eedac2e603", "is_reserved": 0, "lon": -77.00191916666667, "is_disabled": 0, "fusion_lon": 0.0, "rental_uris": {"android": "https://dc.lft.to/lastmile_qr_scan", "ios": "https://dc.lft.to/lastmile_qr_scan"}}, {"type": "electric_scooter", "name": "5fd305f19b44f0892238e8dbc1f5c6cd", "lat": 38.90687333333333, "fusion_lat": 0.0, "bike_id": "5fd305f19b44f0892238e8dbc1f5c6cd", "is_reserved": 0, "lon": -77.05716, "is_disabled": 0, "fusion_lon": 0.0, "rental_uris": {"android": "https://dc.lft.to/lastmile_qr_scan", "ios": "https://dc.lft.to/lastmile_qr_scan"}}, {"type": "electric_scooter", "name": "043b9b9da40b04eed9034aa0f56f7b2d", "lat": 38.918076, "fusion_lat": 0.0, "bike_id": "043b9b9da40b04eed9034aa0f56f7b2d", "is_reserved": 0, "lon": -77.04438216666667, "is_disabled": 0, "fusion_lon": 0.0, "rental_uris": {"android": "https://dc.lft.to/lastmile_qr_scan", "ios": "https://dc.lft.to/lastmile_qr_scan"}}, {"type": "electric_scooter", "name": "d5d194608b2c97047b3a76d6170a5f87", "lat": 38.92652283333334, "fusion_lat": 0.0, "bike_id": "d5d194608b2c97047b3a76d6170a5f87", "is_reserved": 0, "lon": -77.04314216666667, "is_disabled": 0, "fusion_lon": 0.0, "rental_uris": {"android": "https://dc.lft.to/lastmile_qr_scan", "ios": "https://dc.lft.to/lastmile_qr_scan"}}, {"type": "electric_scooter", "name": "b57642c441a65f0753f03d7a266e90fb", "lat": 38.91668416666667, "fusion_lat": 0.0, "bike_id": "b57642c441a65f0753f03d7a266e90fb", "is_reserved": 0, "lon": -77.02386433333334, "is_disabled": 0, "fusion_lon": 0.0, "rental_uris": {"android": "https://dc.lft.to/lastmile_qr_scan", "ios": "https://dc.lft.to/lastmile_qr_scan"}}, {"type": "electric_scooter", "name": "622b19c3d1806a6f7290f856db29fa2a", "lat": 38.92946633333333, "fusion_lat": 0.0, "bike_id": "622b19c3d1806a6f7290f856db29fa2a", "is_reserved": 0, "lon": -77.0551045, "is_disabled": 0, "fusion_lon": 0.0, "rental_uris": {"android": "https://dc.lft.to/lastmile_qr_scan", "ios": "https://dc.lft.to/lastmile_qr_scan"}}, {"type": "electric_scooter", "name": "2bcffd824d7fe60a426e31254ec5fa77", "lat": 38.903889, "fusion_lat": 0.0, "bike_id": "2bcffd824d7fe60a426e31254ec5fa77", "is_reserved": 0, "lon": -77.033159, "is_disabled": 0, "fusion_lon": 0.0, "rental_uris": {"android": "https://dc.lft.to/lastmile_qr_scan", "ios": "https://dc.lft.to/lastmile_qr_scan"}}, {"type": "electric_bike", "name": "94141a629a625dd9991209dd89792c03", "lat": 38.9909605, "fusion_lat": 0.0, "bike_id": "94141a629a625dd9991209dd89792c03", "is_reserved": 0, "lon": -76.9937355, "is_disabled": 0, "fusion_lon": 0.0, "rental_uris": {"android": "https://dc.lft.to/lastmile_qr_scan", "ios": "https://dc.lft.to/lastmile_qr_scan"}}, {"type": "electric_scooter", "name": "6b5d267b4965505f7410d9f18f52913f", "lat": 38.87696716666667, "fusion_lat": 0.0, "bike_id": "6b5d267b4965505f7410d9f18f52913f", "is_reserved": 0, "lon": -77.0039895, "is_disabled": 0, "fusion_lon": 0.0, "rental_uris": {"android": "https://dc.lft.to/lastmile_qr_scan", "ios": "https://dc.lft.to/lastmile_qr_scan"}}, {"type": "electric_scooter", "name": "c8304ec7a0718bc4efb7f2437364084d", "lat": 38.8921725, "fusion_lat": 0.0, "bike_id": "c8304ec7a0718bc4efb7f2437364084d", "is_reserved": 0, "lon": -77.02509083333334, "is_disabled": 0, "fusion_lon": 0.0, "rental_uris": {"android": "https://dc.lft.to/lastmile_qr_scan", "ios": "https://dc.lft.to/lastmile_qr_scan"}}, {"type": "electric_bike", "name": "042b2f10c01f3129ee36413259f3c797", "lat": 38.93688783333333, "fusion_lat": 0.0, "bike_id": "042b2f10c01f3129ee36413259f3c797", "is_reserved": 0, "lon": -76.99059383333334, "is_disabled": 0, "fusion_lon": 0.0, "rental_uris": {"android": "https://dc.lft.to/lastmile_qr_scan", "ios": "https://dc.lft.to/lastmile_qr_scan"}}, {"type": "electric_scooter", "name": "8048e4d39f8093a420b6ece961c3889b", "lat": 38.938769666666666, "fusion_lat": 0.0, "bike_id": "8048e4d39f8093a420b6ece961c3889b", "is_reserved": 0, "lon": -77.02484516666667, "is_disabled": 0, "fusion_lon": 0.0, "rental_uris": {"android": "https://dc.lft.to/lastmile_qr_scan", "ios": "https://dc.lft.to/lastmile_qr_scan"}}, {"type": "electric_scooter", "name": "20da3678b0716f845b7ca9d689d17bb9", "lat": 38.93861616666667, "fusion_lat": 0.0, "bike_id": "20da3678b0716f845b7ca9d689d17bb9", "is_reserved": 0, "lon": -77.02783983333333, "is_disabled": 0, "fusion_lon": 0.0, "rental_uris": {"android": "https://dc.lft.to/lastmile_qr_scan", "ios": "https://dc.lft.to/lastmile_qr_scan"}}, {"type": "electric_bike", "name": "74e715b5f7eb3b76525abde765ad3db0", "lat": 38.975335666666666, "fusion_lat": 0.0, "bike_id": "74e715b5f7eb3b76525abde765ad3db0", "is_reserved": 0, "lon": -77.0168245, "is_disabled": 0, "fusion_lon": 0.0, "rental_uris": {"android": "https://dc.lft.to/lastmile_qr_scan", "ios": "https://dc.lft.to/lastmile_qr_scan"}}, {"type": "electric_scooter", "name": "012dcc0f63d03d81194443a14fca12fc", "lat": 38.89969716666667, "fusion_lat": 0.0, "bike_id": "012dcc0f63d03d81194443a14fca12fc", "is_reserved": 0, "lon": -76.99484816666667, "is_disabled": 0, "fusion_lon": 0.0, "rental_uris": {"android": "https://dc.lft.to/lastmile_qr_scan", "ios": "https://dc.lft.to/lastmile_qr_scan"}}, {"type": "electric_scooter", "name": "e005a534909a03226e20a8cfdc3bf322", "lat": 38.92062, "fusion_lat": 0.0, "bike_id": "e005a534909a03226e20a8cfdc3bf322", "is_reserved": 0, "lon": -76.98194183333334, "is_disabled": 0, "fusion_lon": 0.0, "rental_uris": {"android": "https://dc.lft.to/lastmile_qr_scan", "ios": "https://dc.lft.to/lastmile_qr_scan"}}, {"type": "electric_scooter", "name": "ef9b8e2632cd645ebb7c4e25de13539c", "lat": 38.94812733333333, "fusion_lat": 0.0, "bike_id": "ef9b8e2632cd645ebb7c4e25de13539c", "is_reserved": 0, "lon": -77.02143833333334, "is_disabled": 0, "fusion_lon": 0.0, "rental_uris": {"android": "https://dc.lft.to/lastmile_qr_scan", "ios": "https://dc.lft.to/lastmile_qr_scan"}}, {"type": "electric_scooter", "name": "5a07ab9a9c93424895442e08a5059d08", "lat": 38.86683166666667, "fusion_lat": 0.0, "bike_id": "5a07ab9a9c93424895442e08a5059d08", "is_reserved": 0, "lon": -76.985626, "is_disabled": 0, "fusion_lon": 0.0, "rental_uris": {"android": "https://dc.lft.to/lastmile_qr_scan", "ios": "https://dc.lft.to/lastmile_qr_scan"}}, {"type": "electric_scooter", "name": "248db03d2267955da15a1adec053ecf4", "lat": 38.92359866666666, "fusion_lat": 0.0, "bike_id": "248db03d2267955da15a1adec053ecf4", "is_reserved": 0, "lon": -77.050314, "is_disabled": 0, "fusion_lon": 0.0, "rental_uris": {"android": "https://dc.lft.to/lastmile_qr_scan", "ios": "https://dc.lft.to/lastmile_qr_scan"}}, {"type": "electric_scooter", "name": "bf14f5ea201e0b4ff1122721459a23d5", "lat": 38.89227983333333, "fusion_lat": 0.0, "bike_id": "bf14f5ea201e0b4ff1122721459a23d5", "is_reserved": 0, "lon": -77.022067, "is_disabled": 0, "fusion_lon": 0.0, "rental_uris": {"android": "https://dc.lft.to/lastmile_qr_scan", "ios": "https://dc.lft.to/lastmile_qr_scan"}}, {"type": "electric_scooter", "name": "1d9ccd52b60aafbe1cf4e870eb76d36b", "lat": 38.92001233333333, "fusion_lat": 0.0, "bike_id": "1d9ccd52b60aafbe1cf4e870eb76d36b", "is_reserved": 0, "lon": -77.02463433333334, "is_disabled": 0, "fusion_lon": 0.0, "rental_uris": {"android": "https://dc.lft.to/lastmile_qr_scan", "ios": "https://dc.lft.to/lastmile_qr_scan"}}, {"type": "electric_scooter", "name": "ab5671ae55aeb5a3d8234e2beba5c22b", "lat": 38.914316, "fusion_lat": 0.0, "bike_id": "ab5671ae55aeb5a3d8234e2beba5c22b", "is_reserved": 0, "lon": -77.022866, "is_disabled": 0, "fusion_lon": 0.0, "rental_uris": {"android": "https://dc.lft.to/lastmile_qr_scan", "ios": "https://dc.lft.to/lastmile_qr_scan"}}, {"type": "electric_scooter", "name": "c5babd023e8b75e36c3c1bdc38c4f0aa", "lat": 38.901891666666664, "fusion_lat": 0.0, "bike_id": "c5babd023e8b75e36c3c1bdc38c4f0aa", "is_reserved": 0, "lon": -77.05081183333333, "is_disabled": 0, "fusion_lon": 0.0, "rental_uris": {"android": "https://dc.lft.to/lastmile_qr_scan", "ios": "https://dc.lft.to/lastmile_qr_scan"}}, {"type": "electric_scooter", "name": "1eedb7b80627b94aeb3c5c320a77415f", "lat": 38.926598166666665, "fusion_lat": 0.0, "bike_id": "1eedb7b80627b94aeb3c5c320a77415f", "is_reserved": 0, "lon": -77.023868, "is_disabled": 0, "fusion_lon": 0.0, "rental_uris": {"android": "https://dc.lft.to/lastmile_qr_scan", "ios": "https://dc.lft.to/lastmile_qr_scan"}}, {"type": "electric_scooter", "name": "b1eeb4d4f4d9324e9234e0fa333d777a", "lat": 38.920391333333335, "fusion_lat": 0.0, "bike_id": "b1eeb4d4f4d9324e9234e0fa333d777a", "is_reserved": 0, "lon": -77.01677733333334, "is_disabled": 0, "fusion_lon": 0.0, "rental_uris": {"android": "https://dc.lft.to/lastmile_qr_scan", "ios": "https://dc.lft.to/lastmile_qr_scan"}}, {"type": "electric_scooter", "name": "0e04706b382f8e1d666980998ec5a4c1", "lat": 38.90619566666667, "fusion_lat": 0.0, "bike_id": "0e04706b382f8e1d666980998ec5a4c1", "is_reserved": 0, "lon": -77.05008316666667, "is_disabled": 0, "fusion_lon": 0.0, "rental_uris": {"android": "https://dc.lft.to/lastmile_qr_scan", "ios": "https://dc.lft.to/lastmile_qr_scan"}}, {"type": "electric_scooter", "name": "d01361839bc2cb3a349914dc32b397b7", "lat": 38.88311083333333, "fusion_lat": 0.0, "bike_id": "d01361839bc2cb3a349914dc32b397b7", "is_reserved": 0, "lon": -77.0176145, "is_disabled": 0, "fusion_lon": 0.0, "rental_uris": {"android": "https://dc.lft.to/lastmile_qr_scan", "ios": "https://dc.lft.to/lastmile_qr_scan"}}, {"type": "electric_scooter", "name": "fb22ed588667539aac5ac03b18fb5174", "lat": 38.90339083333333, "fusion_lat": 0.0, "bike_id": "fb22ed588667539aac5ac03b18fb5174", "is_reserved": 0, "lon": -77.04327266666667, "is_disabled": 0, "fusion_lon": 0.0, "rental_uris": {"android": "https://dc.lft.to/lastmile_qr_scan", "ios": "https://dc.lft.to/lastmile_qr_scan"}}, {"type": "electric_scooter", "name": "e5e0f5fbf5128d6875bc33f2a22df784", "lat": 38.907190666666665, "fusion_lat": 0.0, "bike_id": "e5e0f5fbf5128d6875bc33f2a22df784", "is_reserved": 0, "lon": -77.0480385, "is_disabled": 0, "fusion_lon": 0.0, "rental_uris": {"android": "https://dc.lft.to/lastmile_qr_scan", "ios": "https://dc.lft.to/lastmile_qr_scan"}}, {"type": "electric_scooter", "name": "c9566f5749fc1343d0af29990ac90766", "lat": 38.8990125, "fusion_lat": 0.0, "bike_id": "c9566f5749fc1343d0af29990ac90766", "is_reserved": 0, "lon": -77.04998533333334, "is_disabled": 0, "fusion_lon": 0.0, "rental_uris": {"android": "https://dc.lft.to/lastmile_qr_scan", "ios": "https://dc.lft.to/lastmile_qr_scan"}}, {"type": "electric_bike", "name": "8995b2732ddfa5eb2fc8ef37b638e2fc", "lat": 38.885158, "fusion_lat": 0.0, "bike_id": "8995b2732ddfa5eb2fc8ef37b638e2fc", "is_reserved": 0, "lon": -77.01871933333334, "is_disabled": 0, "fusion_lon": 0.0, "rental_uris": {"android": "https://dc.lft.to/lastmile_qr_scan", "ios": "https://dc.lft.to/lastmile_qr_scan"}}, {"type": "electric_scooter", "name": "776891572af988e2960c9c8affde4cc6", "lat": 38.8983475, "fusion_lat": 0.0, "bike_id": "776891572af988e2960c9c8affde4cc6", "is_reserved": 0, "lon": -77.028138, "is_disabled": 0, "fusion_lon": 0.0, "rental_uris": {"android": "https://dc.lft.to/lastmile_qr_scan", "ios": "https://dc.lft.to/lastmile_qr_scan"}}, {"type": "electric_scooter", "name": "50e6d321c16631ff1a1bd9531d070776", "lat": 38.921623333333336, "fusion_lat": 0.0, "bike_id": "50e6d321c16631ff1a1bd9531d070776", "is_reserved": 0, "lon": -77.03378833333333, "is_disabled": 0, "fusion_lon": 0.0, "rental_uris": {"android": "https://dc.lft.to/lastmile_qr_scan", "ios": "https://dc.lft.to/lastmile_qr_scan"}}, {"type": "electric_scooter", "name": "f15193d5caf6022e837136c962cea7c9", "lat": 38.911010833333336, "fusion_lat": 0.0, "bike_id": "f15193d5caf6022e837136c962cea7c9", "is_reserved": 0, "lon": -77.03852216666667, "is_disabled": 0, "fusion_lon": 0.0, "rental_uris": {"android": "https://dc.lft.to/lastmile_qr_scan", "ios": "https://dc.lft.to/lastmile_qr_scan"}}, {"type": "electric_scooter", "name": "22b4c443588b1d87f5ca5e1ea560f9d7", "lat": 38.90821116666667, "fusion_lat": 0.0, "bike_id": "22b4c443588b1d87f5ca5e1ea560f9d7", "is_reserved": 0, "lon": -77.03390616666667, "is_disabled": 0, "fusion_lon": 0.0, "rental_uris": {"android": "https://dc.lft.to/lastmile_qr_scan", "ios": "https://dc.lft.to/lastmile_qr_scan"}}, {"type": "electric_scooter", "name": "992132c69c4a76980f8507c6657c685a", "lat": 38.885099833333335, "fusion_lat": 0.0, "bike_id": "992132c69c4a76980f8507c6657c685a", "is_reserved": 0, "lon": -77.02288583333333, "is_disabled": 0, "fusion_lon": 0.0, "rental_uris": {"android": "https://dc.lft.to/lastmile_qr_scan", "ios": "https://dc.lft.to/lastmile_qr_scan"}}, {"type": "electric_scooter", "name": "439f11b328041d1ca999e5383ab7d310", "lat": 38.92870033333333, "fusion_lat": 0.0, "bike_id": "439f11b328041d1ca999e5383ab7d310", "is_reserved": 0, "lon": -77.03351783333333, "is_disabled": 0, "fusion_lon": 0.0, "rental_uris": {"android": "https://dc.lft.to/lastmile_qr_scan", "ios": "https://dc.lft.to/lastmile_qr_scan"}}, {"type": "electric_scooter", "name": "a04a44813422ae58bdd9410a8dca6b71", "lat": 38.91410333333334, "fusion_lat": 0.0, "bike_id": "a04a44813422ae58bdd9410a8dca6b71", "is_reserved": 0, "lon": -77.02334783333333, "is_disabled": 0, "fusion_lon": 0.0, "rental_uris": {"android": "https://dc.lft.to/lastmile_qr_scan", "ios": "https://dc.lft.to/lastmile_qr_scan"}}, {"type": "electric_scooter", "name": "0651310327b8d8bca94b66feaa55e9d8", "lat": 38.920890666666665, "fusion_lat": 0.0, "bike_id": "0651310327b8d8bca94b66feaa55e9d8", "is_reserved": 0, "lon": -77.02328533333333, "is_disabled": 0, "fusion_lon": 0.0, "rental_uris": {"android": "https://dc.lft.to/lastmile_qr_scan", "ios": "https://dc.lft.to/lastmile_qr_scan"}}, {"type": "electric_scooter", "name": "89dcf9ffba9acc5d59cd9e1f5710aca6", "lat": 38.9236555, "fusion_lat": 0.0, "bike_id": "89dcf9ffba9acc5d59cd9e1f5710aca6", "is_reserved": 0, "lon": -77.021217, "is_disabled": 0, "fusion_lon": 0.0, "rental_uris": {"android": "https://dc.lft.to/lastmile_qr_scan", "ios": "https://dc.lft.to/lastmile_qr_scan"}}, {"type": "electric_scooter", "name": "3a0137b33816949f9a30816c9c975cea", "lat": 38.920649, "fusion_lat": 0.0, "bike_id": "3a0137b33816949f9a30816c9c975cea", "is_reserved": 0, "lon": -77.02301166666666, "is_disabled": 0, "fusion_lon": 0.0, "rental_uris": {"android": "https://dc.lft.to/lastmile_qr_scan", "ios": "https://dc.lft.to/lastmile_qr_scan"}}, {"type": "electric_bike", "name": "8b9bab16917f708b0350c4622d797391", "lat": 38.95635016666667, "fusion_lat": 0.0, "bike_id": "8b9bab16917f708b0350c4622d797391", "is_reserved": 0, "lon": -76.93877, "is_disabled": 0, "fusion_lon": 0.0, "rental_uris": {"android": "https://dc.lft.to/lastmile_qr_scan", "ios": "https://dc.lft.to/lastmile_qr_scan"}}, {"type": "electric_scooter", "name": "8a127e96a2c76cd9d205c987b604fe69", "lat": 38.89725, "fusion_lat": 0.0, "bike_id": "8a127e96a2c76cd9d205c987b604fe69", "is_reserved": 0, "lon": -77.009857, "is_disabled": 0, "fusion_lon": 0.0, "rental_uris": {"android": "https://dc.lft.to/lastmile_qr_scan", "ios": "https://dc.lft.to/lastmile_qr_scan"}}, {"type": "electric_scooter", "name": "a577583799d8fd13a7cde455ca845ba3", "lat": 38.919667, "fusion_lat": 0.0, "bike_id": "a577583799d8fd13a7cde455ca845ba3", "is_reserved": 0, "lon": -77.02360416666667, "is_disabled": 0, "fusion_lon": 0.0, "rental_uris": {"android": "https://dc.lft.to/lastmile_qr_scan", "ios": "https://dc.lft.to/lastmile_qr_scan"}}, {"type": "electric_scooter", "name": "220af5815b58f89b622b900730ea4d4c", "lat": 38.8945215, "fusion_lat": 0.0, "bike_id": "220af5815b58f89b622b900730ea4d4c", "is_reserved": 0, "lon": -77.01877266666666, "is_disabled": 0, "fusion_lon": 0.0, "rental_uris": {"android": "https://dc.lft.to/lastmile_qr_scan", "ios": "https://dc.lft.to/lastmile_qr_scan"}}, {"type": "electric_scooter", "name": "1c2c2470feecb3c8379772348103c211", "lat": 38.919091333333334, "fusion_lat": 0.0, "bike_id": "1c2c2470feecb3c8379772348103c211", "is_reserved": 0, "lon": -77.0213165, "is_disabled": 0, "fusion_lon": 0.0, "rental_uris": {"android": "https://dc.lft.to/lastmile_qr_scan", "ios": "https://dc.lft.to/lastmile_qr_scan"}}, {"type": "electric_scooter", "name": "af8c453c51d31335819d938e46215128", "lat": 38.915534, "fusion_lat": 0.0, "bike_id": "af8c453c51d31335819d938e46215128", "is_reserved": 0, "lon": -77.03172616666667, "is_disabled": 0, "fusion_lon": 0.0, "rental_uris": {"android": "https://dc.lft.to/lastmile_qr_scan", "ios": "https://dc.lft.to/lastmile_qr_scan"}}, {"type": "electric_scooter", "name": "93ced96d0603e02bcef1765fc7b05c46", "lat": 38.895040333333334, "fusion_lat": 0.0, "bike_id": "93ced96d0603e02bcef1765fc7b05c46", "is_reserved": 0, "lon": -77.00335633333333, "is_disabled": 0, "fusion_lon": 0.0, "rental_uris": {"android": "https://dc.lft.to/lastmile_qr_scan", "ios": "https://dc.lft.to/lastmile_qr_scan"}}, {"type": "electric_scooter", "name": "89de4d35532eb8be8880b020c3b97eb6", "lat": 38.917082, "fusion_lat": 0.0, "bike_id": "89de4d35532eb8be8880b020c3b97eb6", "is_reserved": 0, "lon": -77.04125083333334, "is_disabled": 0, "fusion_lon": 0.0, "rental_uris": {"android": "https://dc.lft.to/lastmile_qr_scan", "ios": "https://dc.lft.to/lastmile_qr_scan"}}, {"type": "electric_scooter", "name": "3dd8afc0c0e72c450170e1e887074cab", "lat": 38.928816166666664, "fusion_lat": 0.0, "bike_id": "3dd8afc0c0e72c450170e1e887074cab", "is_reserved": 0, "lon": -77.02711933333333, "is_disabled": 0, "fusion_lon": 0.0, "rental_uris": {"android": "https://dc.lft.to/lastmile_qr_scan", "ios": "https://dc.lft.to/lastmile_qr_scan"}}, {"type": "electric_scooter", "name": "681fef878d9dd71bac0f8b6ed81be810", "lat": 38.92600383333333, "fusion_lat": 0.0, "bike_id": "681fef878d9dd71bac0f8b6ed81be810", "is_reserved": 0, "lon": -77.02158183333333, "is_disabled": 0, "fusion_lon": 0.0, "rental_uris": {"android": "https://dc.lft.to/lastmile_qr_scan", "ios": "https://dc.lft.to/lastmile_qr_scan"}}, {"type": "electric_scooter", "name": "d3008447caf99c249c1e22521a11cd4f", "lat": 38.91906683333333, "fusion_lat": 0.0, "bike_id": "d3008447caf99c249c1e22521a11cd4f", "is_reserved": 0, "lon": -76.98702316666666, "is_disabled": 0, "fusion_lon": 0.0, "rental_uris": {"android": "https://dc.lft.to/lastmile_qr_scan", "ios": "https://dc.lft.to/lastmile_qr_scan"}}, {"type": "electric_scooter", "name": "4a486bfff33a3d605b2efb66e01e6318", "lat": 38.90262416666667, "fusion_lat": 0.0, "bike_id": "4a486bfff33a3d605b2efb66e01e6318", "is_reserved": 0, "lon": -76.97458183333333, "is_disabled": 0, "fusion_lon": 0.0, "rental_uris": {"android": "https://dc.lft.to/lastmile_qr_scan", "ios": "https://dc.lft.to/lastmile_qr_scan"}}, {"type": "electric_scooter", "name": "63c48bf79fcaab377f0541d8aa7c713a", "lat": 38.915937666666665, "fusion_lat": 0.0, "bike_id": "63c48bf79fcaab377f0541d8aa7c713a", "is_reserved": 0, "lon": -76.9837405, "is_disabled": 0, "fusion_lon": 0.0, "rental_uris": {"android": "https://dc.lft.to/lastmile_qr_scan", "ios": "https://dc.lft.to/lastmile_qr_scan"}}, {"type": "electric_scooter", "name": "c9e5eb8bc40c9d9cad0c519138f28983", "lat": 38.898459333333335, "fusion_lat": 0.0, "bike_id": "c9e5eb8bc40c9d9cad0c519138f28983", "is_reserved": 0, "lon": -77.039194, "is_disabled": 0, "fusion_lon": 0.0, "rental_uris": {"android": "https://dc.lft.to/lastmile_qr_scan", "ios": "https://dc.lft.to/lastmile_qr_scan"}}, {"type": "electric_scooter", "name": "7f68ebffadb3d4a6b1f560ab2f4b1c71", "lat": 38.900354, "fusion_lat": 0.0, "bike_id": "7f68ebffadb3d4a6b1f560ab2f4b1c71", "is_reserved": 0, "lon": -77.00201016666666, "is_disabled": 0, "fusion_lon": 0.0, "rental_uris": {"android": "https://dc.lft.to/lastmile_qr_scan", "ios": "https://dc.lft.to/lastmile_qr_scan"}}, {"type": "electric_scooter", "name": "7411b78707ba313a2d4ba5e1e70e1d52", "lat": 38.899590833333335, "fusion_lat": 0.0, "bike_id": "7411b78707ba313a2d4ba5e1e70e1d52", "is_reserved": 0, "lon": -77.04567983333334, "is_disabled": 0, "fusion_lon": 0.0, "rental_uris": {"android": "https://dc.lft.to/lastmile_qr_scan", "ios": "https://dc.lft.to/lastmile_qr_scan"}}, {"type": "electric_bike", "name": "d68d2ef30f28316eab2032f96727698c", "lat": 38.94411133333333, "fusion_lat": 0.0, "bike_id": "d68d2ef30f28316eab2032f96727698c", "is_reserved": 0, "lon": -77.03203266666667, "is_disabled": 0, "fusion_lon": 0.0, "rental_uris": {"android": "https://dc.lft.to/lastmile_qr_scan", "ios": "https://dc.lft.to/lastmile_qr_scan"}}, {"type": "electric_scooter", "name": "6a004f7fcdbb8578d50059a7b5628e9d", "lat": 38.904079333333335, "fusion_lat": 0.0, "bike_id": "6a004f7fcdbb8578d50059a7b5628e9d", "is_reserved": 0, "lon": -76.97329433333333, "is_disabled": 0, "fusion_lon": 0.0, "rental_uris": {"android": "https://dc.lft.to/lastmile_qr_scan", "ios": "https://dc.lft.to/lastmile_qr_scan"}}, {"type": "electric_scooter", "name": "e8f0435c41207597609d2cab33b9e01c", "lat": 38.93228216666667, "fusion_lat": 0.0, "bike_id": "e8f0435c41207597609d2cab33b9e01c", "is_reserved": 0, "lon": -76.99714683333333, "is_disabled": 0, "fusion_lon": 0.0, "rental_uris": {"android": "https://dc.lft.to/lastmile_qr_scan", "ios": "https://dc.lft.to/lastmile_qr_scan"}}, {"type": "electric_scooter", "name": "553476be0e205b5d899ddcb3e81ec089", "lat": 38.91687783333333, "fusion_lat": 0.0, "bike_id": "553476be0e205b5d899ddcb3e81ec089", "is_reserved": 0, "lon": -77.03766533333334, "is_disabled": 0, "fusion_lon": 0.0, "rental_uris": {"android": "https://dc.lft.to/lastmile_qr_scan", "ios": "https://dc.lft.to/lastmile_qr_scan"}}, {"type": "electric_scooter", "name": "5ea0d1c109ccdd3211a060d3129c5853", "lat": 38.96823583333333, "fusion_lat": 0.0, "bike_id": "5ea0d1c109ccdd3211a060d3129c5853", "is_reserved": 0, "lon": -77.0092055, "is_disabled": 0, "fusion_lon": 0.0, "rental_uris": {"android": "https://dc.lft.to/lastmile_qr_scan", "ios": "https://dc.lft.to/lastmile_qr_scan"}}, {"type": "electric_scooter", "name": "14384b63e2678a122a056ae4372f2d4e", "lat": 38.92961783333333, "fusion_lat": 0.0, "bike_id": "14384b63e2678a122a056ae4372f2d4e", "is_reserved": 0, "lon": -77.03762433333333, "is_disabled": 0, "fusion_lon": 0.0, "rental_uris": {"android": "https://dc.lft.to/lastmile_qr_scan", "ios": "https://dc.lft.to/lastmile_qr_scan"}}, {"type": "electric_scooter", "name": "2e9bd4589bae5b24aa6ba76ac754508d", "lat": 38.89791616666667, "fusion_lat": 0.0, "bike_id": "2e9bd4589bae5b24aa6ba76ac754508d", "is_reserved": 0, "lon": -77.010941, "is_disabled": 0, "fusion_lon": 0.0, "rental_uris": {"android": "https://dc.lft.to/lastmile_qr_scan", "ios": "https://dc.lft.to/lastmile_qr_scan"}}, {"type": "electric_scooter", "name": "8270209f69961244526e9f4686175c1e", "lat": 38.876966, "fusion_lat": 0.0, "bike_id": "8270209f69961244526e9f4686175c1e", "is_reserved": 0, "lon": -77.01762066666667, "is_disabled": 0, "fusion_lon": 0.0, "rental_uris": {"android": "https://dc.lft.to/lastmile_qr_scan", "ios": "https://dc.lft.to/lastmile_qr_scan"}}, {"type": "electric_scooter", "name": "75be9276bff9d175f9a57155e95802e5", "lat": 38.92071516666667, "fusion_lat": 0.0, "bike_id": "75be9276bff9d175f9a57155e95802e5", "is_reserved": 0, "lon": -77.02387283333333, "is_disabled": 0, "fusion_lon": 0.0, "rental_uris": {"android": "https://dc.lft.to/lastmile_qr_scan", "ios": "https://dc.lft.to/lastmile_qr_scan"}}, {"type": "electric_scooter", "name": "dbc6cf9dd5fae10c93ce892a5cecf381", "lat": 38.90270116666667, "fusion_lat": 0.0, "bike_id": "dbc6cf9dd5fae10c93ce892a5cecf381", "is_reserved": 0, "lon": -77.0299945, "is_disabled": 0, "fusion_lon": 0.0, "rental_uris": {"android": "https://dc.lft.to/lastmile_qr_scan", "ios": "https://dc.lft.to/lastmile_qr_scan"}}, {"type": "electric_scooter", "name": "f7658299d8e344b833408c0ffbb81ba9", "lat": 38.92526433333333, "fusion_lat": 0.0, "bike_id": "f7658299d8e344b833408c0ffbb81ba9", "is_reserved": 0, "lon": -77.04111383333333, "is_disabled": 0, "fusion_lon": 0.0, "rental_uris": {"android": "https://dc.lft.to/lastmile_qr_scan", "ios": "https://dc.lft.to/lastmile_qr_scan"}}, {"type": "electric_bike", "name": "65acb9636c0cb423a98e3b09c35f2d9c", "lat": 38.83937533333334, "fusion_lat": 0.0, "bike_id": "65acb9636c0cb423a98e3b09c35f2d9c", "is_reserved": 0, "lon": -77.07900483333333, "is_disabled": 0, "fusion_lon": 0.0, "rental_uris": {"android": "https://dc.lft.to/lastmile_qr_scan", "ios": "https://dc.lft.to/lastmile_qr_scan"}}, {"type": "electric_scooter", "name": "6ca601a0bf47f0a4d4d280b524bc04b3", "lat": 38.900462, "fusion_lat": 0.0, "bike_id": "6ca601a0bf47f0a4d4d280b524bc04b3", "is_reserved": 0, "lon": -77.0295975, "is_disabled": 0, "fusion_lon": 0.0, "rental_uris": {"android": "https://dc.lft.to/lastmile_qr_scan", "ios": "https://dc.lft.to/lastmile_qr_scan"}}, {"type": "electric_scooter", "name": "e936d96ea43108d8c96d2ff4a9c6cd40", "lat": 38.8936675, "fusion_lat": 0.0, "bike_id": "e936d96ea43108d8c96d2ff4a9c6cd40", "is_reserved": 0, "lon": -77.01555533333334, "is_disabled": 0, "fusion_lon": 0.0, "rental_uris": {"android": "https://dc.lft.to/lastmile_qr_scan", "ios": "https://dc.lft.to/lastmile_qr_scan"}}, {"type": "electric_scooter", "name": "7b1ab13f9409949d769b79e5f5e4e7a9", "lat": 38.913420333333335, "fusion_lat": 0.0, "bike_id": "7b1ab13f9409949d769b79e5f5e4e7a9", "is_reserved": 0, "lon": -77.01221066666666, "is_disabled": 0, "fusion_lon": 0.0, "rental_uris": {"android": "https://dc.lft.to/lastmile_qr_scan", "ios": "https://dc.lft.to/lastmile_qr_scan"}}, {"type": "electric_scooter", "name": "2acd6f264eeae85f4598e95a9db994e4", "lat": 38.88603116666667, "fusion_lat": 0.0, "bike_id": "2acd6f264eeae85f4598e95a9db994e4", "is_reserved": 0, "lon": -77.03199333333333, "is_disabled": 0, "fusion_lon": 0.0, "rental_uris": {"android": "https://dc.lft.to/lastmile_qr_scan", "ios": "https://dc.lft.to/lastmile_qr_scan"}}, {"type": "electric_scooter", "name": "f922a00ad0b9b2d9c52f48e8a8bac7da", "lat": 38.9181155, "fusion_lat": 0.0, "bike_id": "f922a00ad0b9b2d9c52f48e8a8bac7da", "is_reserved": 0, "lon": -77.01295566666667, "is_disabled": 0, "fusion_lon": 0.0, "rental_uris": {"android": "https://dc.lft.to/lastmile_qr_scan", "ios": "https://dc.lft.to/lastmile_qr_scan"}}, {"type": "electric_scooter", "name": "422c91752889a98baef190852974ea01", "lat": 38.898388, "fusion_lat": 0.0, "bike_id": "422c91752889a98baef190852974ea01", "is_reserved": 0, "lon": -77.04551533333333, "is_disabled": 0, "fusion_lon": 0.0, "rental_uris": {"android": "https://dc.lft.to/lastmile_qr_scan", "ios": "https://dc.lft.to/lastmile_qr_scan"}}, {"type": "electric_scooter", "name": "752059fa7da2cf9f9e849f62b51ad4da", "lat": 38.9204275, "fusion_lat": 0.0, "bike_id": "752059fa7da2cf9f9e849f62b51ad4da", "is_reserved": 0, "lon": -77.01792266666666, "is_disabled": 0, "fusion_lon": 0.0, "rental_uris": {"android": "https://dc.lft.to/lastmile_qr_scan", "ios": "https://dc.lft.to/lastmile_qr_scan"}}, {"type": "electric_scooter", "name": "b07e2b9bcc0120df2ee75c4bd7bc0f1e", "lat": 38.928779166666665, "fusion_lat": 0.0, "bike_id": "b07e2b9bcc0120df2ee75c4bd7bc0f1e", "is_reserved": 0, "lon": -77.0335325, "is_disabled": 0, "fusion_lon": 0.0, "rental_uris": {"android": "https://dc.lft.to/lastmile_qr_scan", "ios": "https://dc.lft.to/lastmile_qr_scan"}}, {"type": "electric_scooter", "name": "b2249706cb646e2a362d8c55143ac025", "lat": 38.92109716666667, "fusion_lat": 0.0, "bike_id": "b2249706cb646e2a362d8c55143ac025", "is_reserved": 0, "lon": -77.02520516666667, "is_disabled": 0, "fusion_lon": 0.0, "rental_uris": {"android": "https://dc.lft.to/lastmile_qr_scan", "ios": "https://dc.lft.to/lastmile_qr_scan"}}, {"type": "electric_scooter", "name": "bc52f344e9b1eb2ad0552da1d52e9552", "lat": 38.90157516666667, "fusion_lat": 0.0, "bike_id": "bc52f344e9b1eb2ad0552da1d52e9552", "is_reserved": 0, "lon": -76.97630733333334, "is_disabled": 0, "fusion_lon": 0.0, "rental_uris": {"android": "https://dc.lft.to/lastmile_qr_scan", "ios": "https://dc.lft.to/lastmile_qr_scan"}}, {"type": "electric_scooter", "name": "4d0bdb66720e98aefea11f96cf95f436", "lat": 38.91123416666667, "fusion_lat": 0.0, "bike_id": "4d0bdb66720e98aefea11f96cf95f436", "is_reserved": 0, "lon": -77.0417165, "is_disabled": 0, "fusion_lon": 0.0, "rental_uris": {"android": "https://dc.lft.to/lastmile_qr_scan", "ios": "https://dc.lft.to/lastmile_qr_scan"}}, {"type": "electric_scooter", "name": "a47303ae5d22e9f1477907ad62b387e6", "lat": 38.89972916666667, "fusion_lat": 0.0, "bike_id": "a47303ae5d22e9f1477907ad62b387e6", "is_reserved": 0, "lon": -77.04513516666667, "is_disabled": 0, "fusion_lon": 0.0, "rental_uris": {"android": "https://dc.lft.to/lastmile_qr_scan", "ios": "https://dc.lft.to/lastmile_qr_scan"}}, {"type": "electric_scooter", "name": "46389cff1c98151fbdee0d32abe31612", "lat": 38.89877216666667, "fusion_lat": 0.0, "bike_id": "46389cff1c98151fbdee0d32abe31612", "is_reserved": 0, "lon": -77.01851083333334, "is_disabled": 0, "fusion_lon": 0.0, "rental_uris": {"android": "https://dc.lft.to/lastmile_qr_scan", "ios": "https://dc.lft.to/lastmile_qr_scan"}}, {"type": "electric_scooter", "name": "4811252a243da97dad9cc1b8d0688041", "lat": 38.916177, "fusion_lat": 0.0, "bike_id": "4811252a243da97dad9cc1b8d0688041", "is_reserved": 0, "lon": -77.04881916666666, "is_disabled": 0, "fusion_lon": 0.0, "rental_uris": {"android": "https://dc.lft.to/lastmile_qr_scan", "ios": "https://dc.lft.to/lastmile_qr_scan"}}, {"type": "electric_scooter", "name": "4c4d3953045dd6b8fc519873322ffd89", "lat": 38.875732166666666, "fusion_lat": 0.0, "bike_id": "4c4d3953045dd6b8fc519873322ffd89", "is_reserved": 0, "lon": -77.0093545, "is_disabled": 0, "fusion_lon": 0.0, "rental_uris": {"android": "https://dc.lft.to/lastmile_qr_scan", "ios": "https://dc.lft.to/lastmile_qr_scan"}}, {"type": "electric_scooter", "name": "c884d8b5326c5113c1e519e2a39ec952", "lat": 38.884811166666665, "fusion_lat": 0.0, "bike_id": "c884d8b5326c5113c1e519e2a39ec952", "is_reserved": 0, "lon": -77.01509866666666, "is_disabled": 0, "fusion_lon": 0.0, "rental_uris": {"android": "https://dc.lft.to/lastmile_qr_scan", "ios": "https://dc.lft.to/lastmile_qr_scan"}}, {"type": "electric_scooter", "name": "0727bdf60db12e38d94c87443db1a27e", "lat": 38.90359333333333, "fusion_lat": 0.0, "bike_id": "0727bdf60db12e38d94c87443db1a27e", "is_reserved": 0, "lon": -77.038789, "is_disabled": 0, "fusion_lon": 0.0, "rental_uris": {"android": "https://dc.lft.to/lastmile_qr_scan", "ios": "https://dc.lft.to/lastmile_qr_scan"}}, {"type": "electric_scooter", "name": "c1cb59a42d351c3adbaab4661d28fa2d", "lat": 38.896253, "fusion_lat": 0.0, "bike_id": "c1cb59a42d351c3adbaab4661d28fa2d", "is_reserved": 0, "lon": -77.02389166666667, "is_disabled": 0, "fusion_lon": 0.0, "rental_uris": {"android": "https://dc.lft.to/lastmile_qr_scan", "ios": "https://dc.lft.to/lastmile_qr_scan"}}, {"type": "electric_scooter", "name": "13e2f1fedc9d4772b574248bdee59367", "lat": 38.882250666666664, "fusion_lat": 0.0, "bike_id": "13e2f1fedc9d4772b574248bdee59367", "is_reserved": 0, "lon": -76.98979166666666, "is_disabled": 0, "fusion_lon": 0.0, "rental_uris": {"android": "https://dc.lft.to/lastmile_qr_scan", "ios": "https://dc.lft.to/lastmile_qr_scan"}}, {"type": "electric_scooter", "name": "fdde0c2260b8a99802a545d63ada2a3d", "lat": 38.922503, "fusion_lat": 0.0, "bike_id": "fdde0c2260b8a99802a545d63ada2a3d", "is_reserved": 0, "lon": -77.0212265, "is_disabled": 0, "fusion_lon": 0.0, "rental_uris": {"android": "https://dc.lft.to/lastmile_qr_scan", "ios": "https://dc.lft.to/lastmile_qr_scan"}}, {"type": "electric_scooter", "name": "469b14b3386dd0d10a3a799210610f6e", "lat": 38.92040733333333, "fusion_lat": 0.0, "bike_id": "469b14b3386dd0d10a3a799210610f6e", "is_reserved": 0, "lon": -77.07977816666667, "is_disabled": 0, "fusion_lon": 0.0, "rental_uris": {"android": "https://dc.lft.to/lastmile_qr_scan", "ios": "https://dc.lft.to/lastmile_qr_scan"}}, {"type": "electric_scooter", "name": "ea8b0e942b296eb777c564305f24eb39", "lat": 38.9312115, "fusion_lat": 0.0, "bike_id": "ea8b0e942b296eb777c564305f24eb39", "is_reserved": 0, "lon": -77.01988116666666, "is_disabled": 0, "fusion_lon": 0.0, "rental_uris": {"android": "https://dc.lft.to/lastmile_qr_scan", "ios": "https://dc.lft.to/lastmile_qr_scan"}}, {"type": "electric_bike", "name": "720bcd574a93820e64a4088026bc23f5", "lat": 38.82062466666667, "fusion_lat": 0.0, "bike_id": "720bcd574a93820e64a4088026bc23f5", "is_reserved": 0, "lon": -77.05456966666667, "is_disabled": 0, "fusion_lon": 0.0, "rental_uris": {"android": "https://dc.lft.to/lastmile_qr_scan", "ios": "https://dc.lft.to/lastmile_qr_scan"}}, {"type": "electric_scooter", "name": "9cb5dbcce9fe961d27233200df805fbd", "lat": 38.876243833333334, "fusion_lat": 0.0, "bike_id": "9cb5dbcce9fe961d27233200df805fbd", "is_reserved": 0, "lon": -77.009344, "is_disabled": 0, "fusion_lon": 0.0, "rental_uris": {"android": "https://dc.lft.to/lastmile_qr_scan", "ios": "https://dc.lft.to/lastmile_qr_scan"}}, {"type": "electric_bike", "name": "2a837c6cb4919f9fa35881bbb013291d", "lat": 38.8824425, "fusion_lat": 0.0, "bike_id": "2a837c6cb4919f9fa35881bbb013291d", "is_reserved": 0, "lon": -76.96258316666666, "is_disabled": 0, "fusion_lon": 0.0, "rental_uris": {"android": "https://dc.lft.to/lastmile_qr_scan", "ios": "https://dc.lft.to/lastmile_qr_scan"}}, {"type": "electric_scooter", "name": "a3baf2574ccb558e7365ab4946e383f9", "lat": 38.907796166666664, "fusion_lat": 0.0, "bike_id": "a3baf2574ccb558e7365ab4946e383f9", "is_reserved": 0, "lon": -76.99857633333333, "is_disabled": 0, "fusion_lon": 0.0, "rental_uris": {"android": "https://dc.lft.to/lastmile_qr_scan", "ios": "https://dc.lft.to/lastmile_qr_scan"}}, {"type": "electric_scooter", "name": "176176823e202b95ec6d78f7fdea7d06", "lat": 38.89509483333333, "fusion_lat": 0.0, "bike_id": "176176823e202b95ec6d78f7fdea7d06", "is_reserved": 0, "lon": -77.02276733333333, "is_disabled": 0, "fusion_lon": 0.0, "rental_uris": {"android": "https://dc.lft.to/lastmile_qr_scan", "ios": "https://dc.lft.to/lastmile_qr_scan"}}, {"type": "electric_scooter", "name": "ce463aef6f6641a99cf22a7dfe74123a", "lat": 38.92065633333333, "fusion_lat": 0.0, "bike_id": "ce463aef6f6641a99cf22a7dfe74123a", "is_reserved": 0, "lon": -77.034589, "is_disabled": 0, "fusion_lon": 0.0, "rental_uris": {"android": "https://dc.lft.to/lastmile_qr_scan", "ios": "https://dc.lft.to/lastmile_qr_scan"}}, {"type": "electric_scooter", "name": "70628714f54d15164f867ecc6867f3fa", "lat": 38.90808466666667, "fusion_lat": 0.0, "bike_id": "70628714f54d15164f867ecc6867f3fa", "is_reserved": 0, "lon": -77.042452, "is_disabled": 0, "fusion_lon": 0.0, "rental_uris": {"android": "https://dc.lft.to/lastmile_qr_scan", "ios": "https://dc.lft.to/lastmile_qr_scan"}}, {"type": "electric_scooter", "name": "fb582ac564d476f629b14eeb9749d043", "lat": 38.8961525, "fusion_lat": 0.0, "bike_id": "fb582ac564d476f629b14eeb9749d043", "is_reserved": 0, "lon": -76.947886, "is_disabled": 0, "fusion_lon": 0.0, "rental_uris": {"android": "https://dc.lft.to/lastmile_qr_scan", "ios": "https://dc.lft.to/lastmile_qr_scan"}}, {"type": "electric_scooter", "name": "373d6516e5d3dac0b642f778b923c919", "lat": 38.917288666666664, "fusion_lat": 0.0, "bike_id": "373d6516e5d3dac0b642f778b923c919", "is_reserved": 0, "lon": -77.0366, "is_disabled": 0, "fusion_lon": 0.0, "rental_uris": {"android": "https://dc.lft.to/lastmile_qr_scan", "ios": "https://dc.lft.to/lastmile_qr_scan"}}, {"type": "electric_scooter", "name": "42877ece9903cf637450a96bdbad2d1c", "lat": 38.93683816666667, "fusion_lat": 0.0, "bike_id": "42877ece9903cf637450a96bdbad2d1c", "is_reserved": 0, "lon": -77.03282933333334, "is_disabled": 0, "fusion_lon": 0.0, "rental_uris": {"android": "https://dc.lft.to/lastmile_qr_scan", "ios": "https://dc.lft.to/lastmile_qr_scan"}}, {"type": "electric_bike", "name": "cf2917ad5d4c6454a60519d7b91653c2", "lat": 38.88514816666667, "fusion_lat": 0.0, "bike_id": "cf2917ad5d4c6454a60519d7b91653c2", "is_reserved": 0, "lon": -76.951656, "is_disabled": 0, "fusion_lon": 0.0, "rental_uris": {"android": "https://dc.lft.to/lastmile_qr_scan", "ios": "https://dc.lft.to/lastmile_qr_scan"}}, {"type": "electric_scooter", "name": "2facc8e70aa1abea68c0bf3dc9edde5d", "lat": 38.91933216666666, "fusion_lat": 0.0, "bike_id": "2facc8e70aa1abea68c0bf3dc9edde5d", "is_reserved": 0, "lon": -77.01360533333333, "is_disabled": 0, "fusion_lon": 0.0, "rental_uris": {"android": "https://dc.lft.to/lastmile_qr_scan", "ios": "https://dc.lft.to/lastmile_qr_scan"}}, {"type": "electric_scooter", "name": "b95f8e97d12866c64d76a124883dbbcc", "lat": 38.8923215, "fusion_lat": 0.0, "bike_id": "b95f8e97d12866c64d76a124883dbbcc", "is_reserved": 0, "lon": -77.04162216666667, "is_disabled": 0, "fusion_lon": 0.0, "rental_uris": {"android": "https://dc.lft.to/lastmile_qr_scan", "ios": "https://dc.lft.to/lastmile_qr_scan"}}, {"type": "electric_scooter", "name": "ad6c2755b1f1bdd03010223c691acd71", "lat": 38.9260035, "fusion_lat": 0.0, "bike_id": "ad6c2755b1f1bdd03010223c691acd71", "is_reserved": 0, "lon": -77.0214915, "is_disabled": 0, "fusion_lon": 0.0, "rental_uris": {"android": "https://dc.lft.to/lastmile_qr_scan", "ios": "https://dc.lft.to/lastmile_qr_scan"}}, {"type": "electric_scooter", "name": "a5783293f00e179fb83cf0f7ee91317f", "lat": 38.924760166666665, "fusion_lat": 0.0, "bike_id": "a5783293f00e179fb83cf0f7ee91317f", "is_reserved": 0, "lon": -77.04065283333334, "is_disabled": 0, "fusion_lon": 0.0, "rental_uris": {"android": "https://dc.lft.to/lastmile_qr_scan", "ios": "https://dc.lft.to/lastmile_qr_scan"}}, {"type": "electric_scooter", "name": "660d79890d75fe7c3ab018b49f4da71d", "lat": 38.864241166666666, "fusion_lat": 0.0, "bike_id": "660d79890d75fe7c3ab018b49f4da71d", "is_reserved": 0, "lon": -76.98997816666666, "is_disabled": 0, "fusion_lon": 0.0, "rental_uris": {"android": "https://dc.lft.to/lastmile_qr_scan", "ios": "https://dc.lft.to/lastmile_qr_scan"}}, {"type": "electric_scooter", "name": "65a219e766bdc877a4e5e2c31fb5c7ab", "lat": 38.8826485, "fusion_lat": 0.0, "bike_id": "65a219e766bdc877a4e5e2c31fb5c7ab", "is_reserved": 0, "lon": -76.99482316666666, "is_disabled": 0, "fusion_lon": 0.0, "rental_uris": {"android": "https://dc.lft.to/lastmile_qr_scan", "ios": "https://dc.lft.to/lastmile_qr_scan"}}, {"type": "electric_scooter", "name": "8ab9c80de6dca7542b33b77a2e685f88", "lat": 38.88297433333334, "fusion_lat": 0.0, "bike_id": "8ab9c80de6dca7542b33b77a2e685f88", "is_reserved": 0, "lon": -76.94852616666667, "is_disabled": 0, "fusion_lon": 0.0, "rental_uris": {"android": "https://dc.lft.to/lastmile_qr_scan", "ios": "https://dc.lft.to/lastmile_qr_scan"}}, {"type": "electric_scooter", "name": "85b55e74d468c1874ad070d23d10ac38", "lat": 38.90011333333333, "fusion_lat": 0.0, "bike_id": "85b55e74d468c1874ad070d23d10ac38", "is_reserved": 0, "lon": -76.99358366666667, "is_disabled": 0, "fusion_lon": 0.0, "rental_uris": {"android": "https://dc.lft.to/lastmile_qr_scan", "ios": "https://dc.lft.to/lastmile_qr_scan"}}, {"type": "electric_scooter", "name": "3afaf56b4ca1a4a0acfc82305c6bd79b", "lat": 38.916001333333334, "fusion_lat": 0.0, "bike_id": "3afaf56b4ca1a4a0acfc82305c6bd79b", "is_reserved": 0, "lon": -77.0217975, "is_disabled": 0, "fusion_lon": 0.0, "rental_uris": {"android": "https://dc.lft.to/lastmile_qr_scan", "ios": "https://dc.lft.to/lastmile_qr_scan"}}, {"type": "electric_scooter", "name": "a95b6335bc67b85914177eb97990a55c", "lat": 38.866805, "fusion_lat": 0.0, "bike_id": "a95b6335bc67b85914177eb97990a55c", "is_reserved": 0, "lon": -76.98561383333333, "is_disabled": 0, "fusion_lon": 0.0, "rental_uris": {"android": "https://dc.lft.to/lastmile_qr_scan", "ios": "https://dc.lft.to/lastmile_qr_scan"}}, {"type": "electric_scooter", "name": "e941f1dcd5862ced996f74c41f14bd95", "lat": 38.910499333333334, "fusion_lat": 0.0, "bike_id": "e941f1dcd5862ced996f74c41f14bd95", "is_reserved": 0, "lon": -77.02682333333334, "is_disabled": 0, "fusion_lon": 0.0, "rental_uris": {"android": "https://dc.lft.to/lastmile_qr_scan", "ios": "https://dc.lft.to/lastmile_qr_scan"}}, {"type": "electric_scooter", "name": "e3d3a4360d48de0986e42bbceaf2e211", "lat": 38.91819666666667, "fusion_lat": 0.0, "bike_id": "e3d3a4360d48de0986e42bbceaf2e211", "is_reserved": 0, "lon": -77.03167183333333, "is_disabled": 0, "fusion_lon": 0.0, "rental_uris": {"android": "https://dc.lft.to/lastmile_qr_scan", "ios": "https://dc.lft.to/lastmile_qr_scan"}}, {"type": "electric_scooter", "name": "f7ce3c96da8c17c89b1a4b56dbc77c6f", "lat": 38.876996166666665, "fusion_lat": 0.0, "bike_id": "f7ce3c96da8c17c89b1a4b56dbc77c6f", "is_reserved": 0, "lon": -77.00708533333334, "is_disabled": 0, "fusion_lon": 0.0, "rental_uris": {"android": "https://dc.lft.to/lastmile_qr_scan", "ios": "https://dc.lft.to/lastmile_qr_scan"}}, {"type": "electric_scooter", "name": "ec031c6923f1d687fcc1d5a553d5dbf8", "lat": 38.900887166666664, "fusion_lat": 0.0, "bike_id": "ec031c6923f1d687fcc1d5a553d5dbf8", "is_reserved": 0, "lon": -77.042159, "is_disabled": 0, "fusion_lon": 0.0, "rental_uris": {"android": "https://dc.lft.to/lastmile_qr_scan", "ios": "https://dc.lft.to/lastmile_qr_scan"}}, {"type": "electric_bike", "name": "d1c2f90c34a03de7be4c5c42a7ed7fce", "lat": 38.903612, "fusion_lat": 0.0, "bike_id": "d1c2f90c34a03de7be4c5c42a7ed7fce", "is_reserved": 0, "lon": -77.06322483333334, "is_disabled": 0, "fusion_lon": 0.0, "rental_uris": {"android": "https://dc.lft.to/lastmile_qr_scan", "ios": "https://dc.lft.to/lastmile_qr_scan"}}, {"type": "electric_scooter", "name": "830dbcaa1916f7c033ca949571aa9e88", "lat": 38.908431666666665, "fusion_lat": 0.0, "bike_id": "830dbcaa1916f7c033ca949571aa9e88", "is_reserved": 0, "lon": -77.03946433333333, "is_disabled": 0, "fusion_lon": 0.0, "rental_uris": {"android": "https://dc.lft.to/lastmile_qr_scan", "ios": "https://dc.lft.to/lastmile_qr_scan"}}, {"type": "electric_scooter", "name": "459616d292976d30f275da4a45872df8", "lat": 38.9053, "fusion_lat": 0.0, "bike_id": "459616d292976d30f275da4a45872df8", "is_reserved": 0, "lon": -77.031239, "is_disabled": 0, "fusion_lon": 0.0, "rental_uris": {"android": "https://dc.lft.to/lastmile_qr_scan", "ios": "https://dc.lft.to/lastmile_qr_scan"}}, {"type": "electric_scooter", "name": "a70b1fffd63bc124744407922624fb17", "lat": 38.89825783333333, "fusion_lat": 0.0, "bike_id": "a70b1fffd63bc124744407922624fb17", "is_reserved": 0, "lon": -77.03169216666667, "is_disabled": 0, "fusion_lon": 0.0, "rental_uris": {"android": "https://dc.lft.to/lastmile_qr_scan", "ios": "https://dc.lft.to/lastmile_qr_scan"}}, {"type": "electric_scooter", "name": "2577d43c6f28eefa138f5f42d79c4e16", "lat": 38.8873245, "fusion_lat": 0.0, "bike_id": "2577d43c6f28eefa138f5f42d79c4e16", "is_reserved": 0, "lon": -77.0258135, "is_disabled": 0, "fusion_lon": 0.0, "rental_uris": {"android": "https://dc.lft.to/lastmile_qr_scan", "ios": "https://dc.lft.to/lastmile_qr_scan"}}, {"type": "electric_scooter", "name": "5e1c7cab29c54908ebe38c9ab0f50f2a", "lat": 38.902642666666665, "fusion_lat": 0.0, "bike_id": "5e1c7cab29c54908ebe38c9ab0f50f2a", "is_reserved": 0, "lon": -77.01758716666667, "is_disabled": 0, "fusion_lon": 0.0, "rental_uris": {"android": "https://dc.lft.to/lastmile_qr_scan", "ios": "https://dc.lft.to/lastmile_qr_scan"}}, {"type": "electric_scooter", "name": "bff3cfdabcaa6f26f20b0d20b6c89de3", "lat": 38.9057615, "fusion_lat": 0.0, "bike_id": "bff3cfdabcaa6f26f20b0d20b6c89de3", "is_reserved": 0, "lon": -76.98430166666667, "is_disabled": 0, "fusion_lon": 0.0, "rental_uris": {"android": "https://dc.lft.to/lastmile_qr_scan", "ios": "https://dc.lft.to/lastmile_qr_scan"}}, {"type": "electric_scooter", "name": "ce4e5875a6e699a3b0babab6f545d2c4", "lat": 38.89229383333333, "fusion_lat": 0.0, "bike_id": "ce4e5875a6e699a3b0babab6f545d2c4", "is_reserved": 0, "lon": -77.02203433333334, "is_disabled": 0, "fusion_lon": 0.0, "rental_uris": {"android": "https://dc.lft.to/lastmile_qr_scan", "ios": "https://dc.lft.to/lastmile_qr_scan"}}, {"type": "electric_bike", "name": "c0dbbb6be0b61c3b828f0c90bd614a96", "lat": 38.924576333333334, "fusion_lat": 0.0, "bike_id": "c0dbbb6be0b61c3b828f0c90bd614a96", "is_reserved": 0, "lon": -77.067342, "is_disabled": 0, "fusion_lon": 0.0, "rental_uris": {"android": "https://dc.lft.to/lastmile_qr_scan", "ios": "https://dc.lft.to/lastmile_qr_scan"}}, {"type": "electric_scooter", "name": "c75f6370bbdadfbf8e196527c4b23a07", "lat": 38.92374266666667, "fusion_lat": 0.0, "bike_id": "c75f6370bbdadfbf8e196527c4b23a07", "is_reserved": 0, "lon": -77.0271205, "is_disabled": 0, "fusion_lon": 0.0, "rental_uris": {"android": "https://dc.lft.to/lastmile_qr_scan", "ios": "https://dc.lft.to/lastmile_qr_scan"}}, {"type": "electric_scooter", "name": "9dcea4acb8e546dc0de2f3b625c27504", "lat": 38.92429466666667, "fusion_lat": 0.0, "bike_id": "9dcea4acb8e546dc0de2f3b625c27504", "is_reserved": 0, "lon": -77.04248633333333, "is_disabled": 0, "fusion_lon": 0.0, "rental_uris": {"android": "https://dc.lft.to/lastmile_qr_scan", "ios": "https://dc.lft.to/lastmile_qr_scan"}}, {"type": "electric_scooter", "name": "55c6143f6c3717e3adcb491a6d5e4eea", "lat": 38.923325, "fusion_lat": 0.0, "bike_id": "55c6143f6c3717e3adcb491a6d5e4eea", "is_reserved": 0, "lon": -77.05343816666667, "is_disabled": 0, "fusion_lon": 0.0, "rental_uris": {"android": "https://dc.lft.to/lastmile_qr_scan", "ios": "https://dc.lft.to/lastmile_qr_scan"}}, {"type": "electric_scooter", "name": "3cfad4816315bc7ba78259ac2434cd53", "lat": 38.91475783333333, "fusion_lat": 0.0, "bike_id": "3cfad4816315bc7ba78259ac2434cd53", "is_reserved": 0, "lon": -77.04169233333333, "is_disabled": 0, "fusion_lon": 0.0, "rental_uris": {"android": "https://dc.lft.to/lastmile_qr_scan", "ios": "https://dc.lft.to/lastmile_qr_scan"}}, {"type": "electric_scooter", "name": "42502e995b7b8ab3ab67b2f95e7b1d78", "lat": 38.903202, "fusion_lat": 0.0, "bike_id": "42502e995b7b8ab3ab67b2f95e7b1d78", "is_reserved": 0, "lon": -77.03819566666667, "is_disabled": 0, "fusion_lon": 0.0, "rental_uris": {"android": "https://dc.lft.to/lastmile_qr_scan", "ios": "https://dc.lft.to/lastmile_qr_scan"}}, {"type": "electric_scooter", "name": "59987bd858d48a00cbc1fab8a44ef1fa", "lat": 38.916467, "fusion_lat": 0.0, "bike_id": "59987bd858d48a00cbc1fab8a44ef1fa", "is_reserved": 0, "lon": -77.03634416666667, "is_disabled": 0, "fusion_lon": 0.0, "rental_uris": {"android": "https://dc.lft.to/lastmile_qr_scan", "ios": "https://dc.lft.to/lastmile_qr_scan"}}, {"type": "electric_scooter", "name": "ca6a37e5e1e2178e4ec2d6b91639998e", "lat": 38.93925016666667, "fusion_lat": 0.0, "bike_id": "ca6a37e5e1e2178e4ec2d6b91639998e", "is_reserved": 0, "lon": -77.0366595, "is_disabled": 0, "fusion_lon": 0.0, "rental_uris": {"android": "https://dc.lft.to/lastmile_qr_scan", "ios": "https://dc.lft.to/lastmile_qr_scan"}}, {"type": "electric_scooter", "name": "2c736d825319278bc6f9941153c8a816", "lat": 38.91122816666667, "fusion_lat": 0.0, "bike_id": "2c736d825319278bc6f9941153c8a816", "is_reserved": 0, "lon": -77.043969, "is_disabled": 0, "fusion_lon": 0.0, "rental_uris": {"android": "https://dc.lft.to/lastmile_qr_scan", "ios": "https://dc.lft.to/lastmile_qr_scan"}}, {"type": "electric_scooter", "name": "99d8a98177645d81e440e1e0a1ce1fbf", "lat": 38.89667333333333, "fusion_lat": 0.0, "bike_id": "99d8a98177645d81e440e1e0a1ce1fbf", "is_reserved": 0, "lon": -77.02377233333333, "is_disabled": 0, "fusion_lon": 0.0, "rental_uris": {"android": "https://dc.lft.to/lastmile_qr_scan", "ios": "https://dc.lft.to/lastmile_qr_scan"}}, {"type": "electric_scooter", "name": "5ff571c38fe0cde1400b0056cf99591a", "lat": 38.916344, "fusion_lat": 0.0, "bike_id": "5ff571c38fe0cde1400b0056cf99591a", "is_reserved": 0, "lon": -77.03189616666667, "is_disabled": 0, "fusion_lon": 0.0, "rental_uris": {"android": "https://dc.lft.to/lastmile_qr_scan", "ios": "https://dc.lft.to/lastmile_qr_scan"}}, {"type": "electric_bike", "name": "3b3719622cf48fade240466f095ce82a", "lat": 38.940487, "fusion_lat": 0.0, "bike_id": "3b3719622cf48fade240466f095ce82a", "is_reserved": 0, "lon": -76.90420833333333, "is_disabled": 0, "fusion_lon": 0.0, "rental_uris": {"android": "https://dc.lft.to/lastmile_qr_scan", "ios": "https://dc.lft.to/lastmile_qr_scan"}}, {"type": "electric_scooter", "name": "023004bcc9ea8d89cd0bfa9548aef359", "lat": 38.901306, "fusion_lat": 0.0, "bike_id": "023004bcc9ea8d89cd0bfa9548aef359", "is_reserved": 0, "lon": -77.03479266666666, "is_disabled": 0, "fusion_lon": 0.0, "rental_uris": {"android": "https://dc.lft.to/lastmile_qr_scan", "ios": "https://dc.lft.to/lastmile_qr_scan"}}, {"type": "electric_scooter", "name": "4edf947390f55ef14b62eaff6c3f3492", "lat": 38.922312, "fusion_lat": 0.0, "bike_id": "4edf947390f55ef14b62eaff6c3f3492", "is_reserved": 0, "lon": -77.023305, "is_disabled": 0, "fusion_lon": 0.0, "rental_uris": {"android": "https://dc.lft.to/lastmile_qr_scan", "ios": "https://dc.lft.to/lastmile_qr_scan"}}, {"type": "electric_scooter", "name": "bdd596b0255c1930384188e5a85b93a2", "lat": 38.917072, "fusion_lat": 0.0, "bike_id": "bdd596b0255c1930384188e5a85b93a2", "is_reserved": 0, "lon": -77.03857833333333, "is_disabled": 0, "fusion_lon": 0.0, "rental_uris": {"android": "https://dc.lft.to/lastmile_qr_scan", "ios": "https://dc.lft.to/lastmile_qr_scan"}}, {"type": "electric_scooter", "name": "db0ef73767d8f2fd370f01968703d1fa", "lat": 38.879254333333336, "fusion_lat": 0.0, "bike_id": "db0ef73767d8f2fd370f01968703d1fa", "is_reserved": 0, "lon": -77.0053505, "is_disabled": 0, "fusion_lon": 0.0, "rental_uris": {"android": "https://dc.lft.to/lastmile_qr_scan", "ios": "https://dc.lft.to/lastmile_qr_scan"}}, {"type": "electric_scooter", "name": "9e6cc4ddfb7f02fdb1810d5e26f7e399", "lat": 38.93294233333334, "fusion_lat": 0.0, "bike_id": "9e6cc4ddfb7f02fdb1810d5e26f7e399", "is_reserved": 0, "lon": -77.03989266666666, "is_disabled": 0, "fusion_lon": 0.0, "rental_uris": {"android": "https://dc.lft.to/lastmile_qr_scan", "ios": "https://dc.lft.to/lastmile_qr_scan"}}, {"type": "electric_scooter", "name": "09835d22d144c7db279f2ea582ec28cc", "lat": 38.928068833333334, "fusion_lat": 0.0, "bike_id": "09835d22d144c7db279f2ea582ec28cc", "is_reserved": 0, "lon": -77.01412733333333, "is_disabled": 0, "fusion_lon": 0.0, "rental_uris": {"android": "https://dc.lft.to/lastmile_qr_scan", "ios": "https://dc.lft.to/lastmile_qr_scan"}}, {"type": "electric_scooter", "name": "f08629fa2ea676755b7cb26ddb135576", "lat": 38.874664, "fusion_lat": 0.0, "bike_id": "f08629fa2ea676755b7cb26ddb135576", "is_reserved": 0, "lon": -77.01895, "is_disabled": 0, "fusion_lon": 0.0, "rental_uris": {"android": "https://dc.lft.to/lastmile_qr_scan", "ios": "https://dc.lft.to/lastmile_qr_scan"}}, {"type": "electric_scooter", "name": "b02a85d2bf8c7be2bb12ca793236f9af", "lat": 38.9276545, "fusion_lat": 0.0, "bike_id": "b02a85d2bf8c7be2bb12ca793236f9af", "is_reserved": 0, "lon": -77.027355, "is_disabled": 0, "fusion_lon": 0.0, "rental_uris": {"android": "https://dc.lft.to/lastmile_qr_scan", "ios": "https://dc.lft.to/lastmile_qr_scan"}}, {"type": "electric_scooter", "name": "773bc36c768f8b34c4600aba995c029b", "lat": 38.9055625, "fusion_lat": 0.0, "bike_id": "773bc36c768f8b34c4600aba995c029b", "is_reserved": 0, "lon": -77.04337533333333, "is_disabled": 0, "fusion_lon": 0.0, "rental_uris": {"android": "https://dc.lft.to/lastmile_qr_scan", "ios": "https://dc.lft.to/lastmile_qr_scan"}}, {"type": "electric_scooter", "name": "0d20a879ee18bcfc515b4596b7faea53", "lat": 38.90387883333333, "fusion_lat": 0.0, "bike_id": "0d20a879ee18bcfc515b4596b7faea53", "is_reserved": 0, "lon": -77.040396, "is_disabled": 0, "fusion_lon": 0.0, "rental_uris": {"android": "https://dc.lft.to/lastmile_qr_scan", "ios": "https://dc.lft.to/lastmile_qr_scan"}}, {"type": "electric_scooter", "name": "8af724e41afbcc8dea231722ac430f3f", "lat": 38.92366966666667, "fusion_lat": 0.0, "bike_id": "8af724e41afbcc8dea231722ac430f3f", "is_reserved": 0, "lon": -77.01901366666667, "is_disabled": 0, "fusion_lon": 0.0, "rental_uris": {"android": "https://dc.lft.to/lastmile_qr_scan", "ios": "https://dc.lft.to/lastmile_qr_scan"}}, {"type": "electric_scooter", "name": "60b00456e0afec9619741d7f24dc70ba", "lat": 38.918103333333335, "fusion_lat": 0.0, "bike_id": "60b00456e0afec9619741d7f24dc70ba", "is_reserved": 0, "lon": -77.02702433333333, "is_disabled": 0, "fusion_lon": 0.0, "rental_uris": {"android": "https://dc.lft.to/lastmile_qr_scan", "ios": "https://dc.lft.to/lastmile_qr_scan"}}, {"type": "electric_scooter", "name": "ab651ce655501812ed4528abfd3d4fa5", "lat": 38.89221216666667, "fusion_lat": 0.0, "bike_id": "ab651ce655501812ed4528abfd3d4fa5", "is_reserved": 0, "lon": -77.0419435, "is_disabled": 0, "fusion_lon": 0.0, "rental_uris": {"android": "https://dc.lft.to/lastmile_qr_scan", "ios": "https://dc.lft.to/lastmile_qr_scan"}}, {"type": "electric_bike", "name": "f37012d4e8c59282922544dbb796baeb", "lat": 38.949175833333335, "fusion_lat": 0.0, "bike_id": "f37012d4e8c59282922544dbb796baeb", "is_reserved": 0, "lon": -77.00799633333334, "is_disabled": 0, "fusion_lon": 0.0, "rental_uris": {"android": "https://dc.lft.to/lastmile_qr_scan", "ios": "https://dc.lft.to/lastmile_qr_scan"}}, {"type": "electric_scooter", "name": "7c008ccc3c76969556002818f0fe4cdb", "lat": 38.894684, "fusion_lat": 0.0, "bike_id": "7c008ccc3c76969556002818f0fe4cdb", "is_reserved": 0, "lon": -76.99501866666667, "is_disabled": 0, "fusion_lon": 0.0, "rental_uris": {"android": "https://dc.lft.to/lastmile_qr_scan", "ios": "https://dc.lft.to/lastmile_qr_scan"}}, {"type": "electric_scooter", "name": "661878ca6db82a9fa29ea447a101e5e3", "lat": 38.95490483333333, "fusion_lat": 0.0, "bike_id": "661878ca6db82a9fa29ea447a101e5e3", "is_reserved": 0, "lon": -77.01715083333333, "is_disabled": 0, "fusion_lon": 0.0, "rental_uris": {"android": "https://dc.lft.to/lastmile_qr_scan", "ios": "https://dc.lft.to/lastmile_qr_scan"}}, {"type": "electric_scooter", "name": "b53d403568acac7ac7da2f07eaca22da", "lat": 38.8765995, "fusion_lat": 0.0, "bike_id": "b53d403568acac7ac7da2f07eaca22da", "is_reserved": 0, "lon": -77.00461216666666, "is_disabled": 0, "fusion_lon": 0.0, "rental_uris": {"android": "https://dc.lft.to/lastmile_qr_scan", "ios": "https://dc.lft.to/lastmile_qr_scan"}}, {"type": "electric_scooter", "name": "21bd1b67863e698ff901c88fd78a4445", "lat": 38.917692, "fusion_lat": 0.0, "bike_id": "21bd1b67863e698ff901c88fd78a4445", "is_reserved": 0, "lon": -77.0417175, "is_disabled": 0, "fusion_lon": 0.0, "rental_uris": {"android": "https://dc.lft.to/lastmile_qr_scan", "ios": "https://dc.lft.to/lastmile_qr_scan"}}, {"type": "electric_scooter", "name": "f0c8a01cbfc23fbe83ac362113b501fa", "lat": 38.92136466666667, "fusion_lat": 0.0, "bike_id": "f0c8a01cbfc23fbe83ac362113b501fa", "is_reserved": 0, "lon": -77.0116915, "is_disabled": 0, "fusion_lon": 0.0, "rental_uris": {"android": "https://dc.lft.to/lastmile_qr_scan", "ios": "https://dc.lft.to/lastmile_qr_scan"}}, {"type": "electric_bike", "name": "7a78054c54ed7031b81d028821dfd871", "lat": 38.992199666666664, "fusion_lat": 0.0, "bike_id": "7a78054c54ed7031b81d028821dfd871", "is_reserved": 0, "lon": -76.94422083333333, "is_disabled": 0, "fusion_lon": 0.0, "rental_uris": {"android": "https://dc.lft.to/lastmile_qr_scan", "ios": "https://dc.lft.to/lastmile_qr_scan"}}, {"type": "electric_scooter", "name": "65ed981fdf869a5141c953c3cd34c145", "lat": 38.91658616666667, "fusion_lat": 0.0, "bike_id": "65ed981fdf869a5141c953c3cd34c145", "is_reserved": 0, "lon": -77.02701016666667, "is_disabled": 0, "fusion_lon": 0.0, "rental_uris": {"android": "https://dc.lft.to/lastmile_qr_scan", "ios": "https://dc.lft.to/lastmile_qr_scan"}}, {"type": "electric_scooter", "name": "5acc5c28850458cbb643f85dd139f198", "lat": 38.9185315, "fusion_lat": 0.0, "bike_id": "5acc5c28850458cbb643f85dd139f198", "is_reserved": 0, "lon": -77.0403145, "is_disabled": 0, "fusion_lon": 0.0, "rental_uris": {"android": "https://dc.lft.to/lastmile_qr_scan", "ios": "https://dc.lft.to/lastmile_qr_scan"}}, {"type": "electric_scooter", "name": "de47a0838e91ae770602ab3cbfc66528", "lat": 38.908287, "fusion_lat": 0.0, "bike_id": "de47a0838e91ae770602ab3cbfc66528", "is_reserved": 0, "lon": -77.03844916666667, "is_disabled": 0, "fusion_lon": 0.0, "rental_uris": {"android": "https://dc.lft.to/lastmile_qr_scan", "ios": "https://dc.lft.to/lastmile_qr_scan"}}, {"type": "electric_scooter", "name": "a529f9d98ab028d366a8cc738010ae43", "lat": 38.9029665, "fusion_lat": 0.0, "bike_id": "a529f9d98ab028d366a8cc738010ae43", "is_reserved": 0, "lon": -77.04019133333334, "is_disabled": 0, "fusion_lon": 0.0, "rental_uris": {"android": "https://dc.lft.to/lastmile_qr_scan", "ios": "https://dc.lft.to/lastmile_qr_scan"}}, {"type": "electric_bike", "name": "6f057f65bf990dca4a6038d2d2c55a71", "lat": 38.8578295, "fusion_lat": 0.0, "bike_id": "6f057f65bf990dca4a6038d2d2c55a71", "is_reserved": 0, "lon": -77.120157, "is_disabled": 0, "fusion_lon": 0.0, "rental_uris": {"android": "https://dc.lft.to/lastmile_qr_scan", "ios": "https://dc.lft.to/lastmile_qr_scan"}}, {"type": "electric_scooter", "name": "36c35d85885bd7977cec6e47c49a7538", "lat": 38.898119, "fusion_lat": 0.0, "bike_id": "36c35d85885bd7977cec6e47c49a7538", "is_reserved": 0, "lon": -77.03310833333333, "is_disabled": 0, "fusion_lon": 0.0, "rental_uris": {"android": "https://dc.lft.to/lastmile_qr_scan", "ios": "https://dc.lft.to/lastmile_qr_scan"}}, {"type": "electric_scooter", "name": "b1af8fc903a3bbfaa8988446bb5ec817", "lat": 38.92043116666667, "fusion_lat": 0.0, "bike_id": "b1af8fc903a3bbfaa8988446bb5ec817", "is_reserved": 0, "lon": -77.02574383333334, "is_disabled": 0, "fusion_lon": 0.0, "rental_uris": {"android": "https://dc.lft.to/lastmile_qr_scan", "ios": "https://dc.lft.to/lastmile_qr_scan"}}, {"type": "electric_scooter", "name": "bde0e0769b6d41f9bcae6acfb9392620", "lat": 38.95248766666667, "fusion_lat": 0.0, "bike_id": "bde0e0769b6d41f9bcae6acfb9392620", "is_reserved": 0, "lon": -77.0021275, "is_disabled": 0, "fusion_lon": 0.0, "rental_uris": {"android": "https://dc.lft.to/lastmile_qr_scan", "ios": "https://dc.lft.to/lastmile_qr_scan"}}, {"type": "electric_scooter", "name": "31997bb34ac6664bca1610682a206915", "lat": 38.8920945, "fusion_lat": 0.0, "bike_id": "31997bb34ac6664bca1610682a206915", "is_reserved": 0, "lon": -76.95696416666667, "is_disabled": 0, "fusion_lon": 0.0, "rental_uris": {"android": "https://dc.lft.to/lastmile_qr_scan", "ios": "https://dc.lft.to/lastmile_qr_scan"}}, {"type": "electric_scooter", "name": "d7a8f50094b6f2b6e76f35792c3d8e8b", "lat": 38.89988733333333, "fusion_lat": 0.0, "bike_id": "d7a8f50094b6f2b6e76f35792c3d8e8b", "is_reserved": 0, "lon": -77.02807433333334, "is_disabled": 0, "fusion_lon": 0.0, "rental_uris": {"android": "https://dc.lft.to/lastmile_qr_scan", "ios": "https://dc.lft.to/lastmile_qr_scan"}}, {"type": "electric_scooter", "name": "8826b13c0d0bfc3eb4850088fc93919e", "lat": 38.940649, "fusion_lat": 0.0, "bike_id": "8826b13c0d0bfc3eb4850088fc93919e", "is_reserved": 0, "lon": -76.999385, "is_disabled": 0, "fusion_lon": 0.0, "rental_uris": {"android": "https://dc.lft.to/lastmile_qr_scan", "ios": "https://dc.lft.to/lastmile_qr_scan"}}, {"type": "electric_scooter", "name": "7fc58b786e41d0d51df93c4600dd9222", "lat": 38.913627, "fusion_lat": 0.0, "bike_id": "7fc58b786e41d0d51df93c4600dd9222", "is_reserved": 0, "lon": -77.044073, "is_disabled": 0, "fusion_lon": 0.0, "rental_uris": {"android": "https://dc.lft.to/lastmile_qr_scan", "ios": "https://dc.lft.to/lastmile_qr_scan"}}, {"type": "electric_scooter", "name": "a7fc01301c97df0433eb29ea53caa173", "lat": 38.8874035, "fusion_lat": 0.0, "bike_id": "a7fc01301c97df0433eb29ea53caa173", "is_reserved": 0, "lon": -77.02275433333334, "is_disabled": 0, "fusion_lon": 0.0, "rental_uris": {"android": "https://dc.lft.to/lastmile_qr_scan", "ios": "https://dc.lft.to/lastmile_qr_scan"}}, {"type": "electric_bike", "name": "4d49db32eb5f47099d3963901d4825f3", "lat": 38.85247416666667, "fusion_lat": 0.0, "bike_id": "4d49db32eb5f47099d3963901d4825f3", "is_reserved": 0, "lon": -77.10782616666667, "is_disabled": 0, "fusion_lon": 0.0, "rental_uris": {"android": "https://dc.lft.to/lastmile_qr_scan", "ios": "https://dc.lft.to/lastmile_qr_scan"}}, {"type": "electric_scooter", "name": "af9510d5a75f7c1e83499e3995b3b305", "lat": 38.9181525, "fusion_lat": 0.0, "bike_id": "af9510d5a75f7c1e83499e3995b3b305", "is_reserved": 0, "lon": -77.0247745, "is_disabled": 0, "fusion_lon": 0.0, "rental_uris": {"android": "https://dc.lft.to/lastmile_qr_scan", "ios": "https://dc.lft.to/lastmile_qr_scan"}}, {"type": "electric_scooter", "name": "967df0b333ba1a288e15fec3d1862fea", "lat": 38.9060595, "fusion_lat": 0.0, "bike_id": "967df0b333ba1a288e15fec3d1862fea", "is_reserved": 0, "lon": -77.040475, "is_disabled": 0, "fusion_lon": 0.0, "rental_uris": {"android": "https://dc.lft.to/lastmile_qr_scan", "ios": "https://dc.lft.to/lastmile_qr_scan"}}, {"type": "electric_bike", "name": "d971622833235bb43694c33db4ccf3f1", "lat": 38.82176316666666, "fusion_lat": 0.0, "bike_id": "d971622833235bb43694c33db4ccf3f1", "is_reserved": 0, "lon": -76.99513833333333, "is_disabled": 0, "fusion_lon": 0.0, "rental_uris": {"android": "https://dc.lft.to/lastmile_qr_scan", "ios": "https://dc.lft.to/lastmile_qr_scan"}}, {"type": "electric_scooter", "name": "2ef353af85714d87cffefc5c5d401f95", "lat": 38.8811425, "fusion_lat": 0.0, "bike_id": "2ef353af85714d87cffefc5c5d401f95", "is_reserved": 0, "lon": -77.02636466666667, "is_disabled": 0, "fusion_lon": 0.0, "rental_uris": {"android": "https://dc.lft.to/lastmile_qr_scan", "ios": "https://dc.lft.to/lastmile_qr_scan"}}, {"type": "electric_scooter", "name": "65762aa0b20ba67c7612e8d259f12b98", "lat": 38.9028305, "fusion_lat": 0.0, "bike_id": "65762aa0b20ba67c7612e8d259f12b98", "is_reserved": 0, "lon": -77.04477116666666, "is_disabled": 0, "fusion_lon": 0.0, "rental_uris": {"android": "https://dc.lft.to/lastmile_qr_scan", "ios": "https://dc.lft.to/lastmile_qr_scan"}}, {"type": "electric_scooter", "name": "2e4ebe445e2482ed0ea239407a99cb08", "lat": 38.90739166666667, "fusion_lat": 0.0, "bike_id": "2e4ebe445e2482ed0ea239407a99cb08", "is_reserved": 0, "lon": -77.00931283333334, "is_disabled": 0, "fusion_lon": 0.0, "rental_uris": {"android": "https://dc.lft.to/lastmile_qr_scan", "ios": "https://dc.lft.to/lastmile_qr_scan"}}, {"type": "electric_scooter", "name": "ec1d1a5ffbb0580a354fde1384367c81", "lat": 38.918188666666666, "fusion_lat": 0.0, "bike_id": "ec1d1a5ffbb0580a354fde1384367c81", "is_reserved": 0, "lon": -77.03697483333333, "is_disabled": 0, "fusion_lon": 0.0, "rental_uris": {"android": "https://dc.lft.to/lastmile_qr_scan", "ios": "https://dc.lft.to/lastmile_qr_scan"}}, {"type": "electric_scooter", "name": "62adbc1f2d26adae431b13f0cc8dd45d", "lat": 38.86691116666667, "fusion_lat": 0.0, "bike_id": "62adbc1f2d26adae431b13f0cc8dd45d", "is_reserved": 0, "lon": -76.98541466666667, "is_disabled": 0, "fusion_lon": 0.0, "rental_uris": {"android": "https://dc.lft.to/lastmile_qr_scan", "ios": "https://dc.lft.to/lastmile_qr_scan"}}, {"type": "electric_scooter", "name": "acb5d5396486a18268da907ad318be37", "lat": 38.903712666666664, "fusion_lat": 0.0, "bike_id": "acb5d5396486a18268da907ad318be37", "is_reserved": 0, "lon": -77.04493716666667, "is_disabled": 0, "fusion_lon": 0.0, "rental_uris": {"android": "https://dc.lft.to/lastmile_qr_scan", "ios": "https://dc.lft.to/lastmile_qr_scan"}}, {"type": "electric_scooter", "name": "b082eb7052ad7874b37eb27287f8edb6", "lat": 38.8983065, "fusion_lat": 0.0, "bike_id": "b082eb7052ad7874b37eb27287f8edb6", "is_reserved": 0, "lon": -76.94627016666666, "is_disabled": 0, "fusion_lon": 0.0, "rental_uris": {"android": "https://dc.lft.to/lastmile_qr_scan", "ios": "https://dc.lft.to/lastmile_qr_scan"}}, {"type": "electric_scooter", "name": "6c344e44a53d2c60cdd2cccc15891f6c", "lat": 38.92416566666667, "fusion_lat": 0.0, "bike_id": "6c344e44a53d2c60cdd2cccc15891f6c", "is_reserved": 0, "lon": -77.02011316666666, "is_disabled": 0, "fusion_lon": 0.0, "rental_uris": {"android": "https://dc.lft.to/lastmile_qr_scan", "ios": "https://dc.lft.to/lastmile_qr_scan"}}, {"type": "electric_scooter", "name": "56531afaad7a999ee582febe1e05cfbf", "lat": 38.907221666666665, "fusion_lat": 0.0, "bike_id": "56531afaad7a999ee582febe1e05cfbf", "is_reserved": 0, "lon": -77.02494883333334, "is_disabled": 0, "fusion_lon": 0.0, "rental_uris": {"android": "https://dc.lft.to/lastmile_qr_scan", "ios": "https://dc.lft.to/lastmile_qr_scan"}}, {"type": "electric_bike", "name": "d8b70606b29e7b9a801ae05514fb27a1", "lat": 38.90768516666667, "fusion_lat": 0.0, "bike_id": "d8b70606b29e7b9a801ae05514fb27a1", "is_reserved": 0, "lon": -77.03760183333333, "is_disabled": 0, "fusion_lon": 0.0, "rental_uris": {"android": "https://dc.lft.to/lastmile_qr_scan", "ios": "https://dc.lft.to/lastmile_qr_scan"}}, {"type": "electric_scooter", "name": "886ae22cf3c720727a5e96c4e44b407b", "lat": 38.908886333333335, "fusion_lat": 0.0, "bike_id": "886ae22cf3c720727a5e96c4e44b407b", "is_reserved": 0, "lon": -76.99786016666667, "is_disabled": 0, "fusion_lon": 0.0, "rental_uris": {"android": "https://dc.lft.to/lastmile_qr_scan", "ios": "https://dc.lft.to/lastmile_qr_scan"}}, {"type": "electric_scooter", "name": "cb94cba7a0e9017004d8e3edf52176ea", "lat": 38.88114266666667, "fusion_lat": 0.0, "bike_id": "cb94cba7a0e9017004d8e3edf52176ea", "is_reserved": 0, "lon": -77.01659966666666, "is_disabled": 0, "fusion_lon": 0.0, "rental_uris": {"android": "https://dc.lft.to/lastmile_qr_scan", "ios": "https://dc.lft.to/lastmile_qr_scan"}}, {"type": "electric_scooter", "name": "7ef92d1659a9c59fb92ffe48cd757af3", "lat": 38.94167083333333, "fusion_lat": 0.0, "bike_id": "7ef92d1659a9c59fb92ffe48cd757af3", "is_reserved": 0, "lon": -77.02555966666667, "is_disabled": 0, "fusion_lon": 0.0, "rental_uris": {"android": "https://dc.lft.to/lastmile_qr_scan", "ios": "https://dc.lft.to/lastmile_qr_scan"}}, {"type": "electric_scooter", "name": "236431606c904fe75c03c2c38ffe1a84", "lat": 38.934867833333335, "fusion_lat": 0.0, "bike_id": "236431606c904fe75c03c2c38ffe1a84", "is_reserved": 0, "lon": -77.08153666666666, "is_disabled": 0, "fusion_lon": 0.0, "rental_uris": {"android": "https://dc.lft.to/lastmile_qr_scan", "ios": "https://dc.lft.to/lastmile_qr_scan"}}, {"type": "electric_scooter", "name": "b9820eb47e474993877cb388d50fb571", "lat": 38.89937833333333, "fusion_lat": 0.0, "bike_id": "b9820eb47e474993877cb388d50fb571", "is_reserved": 0, "lon": -76.997207, "is_disabled": 0, "fusion_lon": 0.0, "rental_uris": {"android": "https://dc.lft.to/lastmile_qr_scan", "ios": "https://dc.lft.to/lastmile_qr_scan"}}, {"type": "electric_scooter", "name": "03dfdf4707d6662340a8022495b4e885", "lat": 38.934222166666665, "fusion_lat": 0.0, "bike_id": "03dfdf4707d6662340a8022495b4e885", "is_reserved": 0, "lon": -77.03993833333334, "is_disabled": 0, "fusion_lon": 0.0, "rental_uris": {"android": "https://dc.lft.to/lastmile_qr_scan", "ios": "https://dc.lft.to/lastmile_qr_scan"}}, {"type": "electric_scooter", "name": "ba7d915d98b79a437d7a1cb7ddf8728a", "lat": 38.935372666666666, "fusion_lat": 0.0, "bike_id": "ba7d915d98b79a437d7a1cb7ddf8728a", "is_reserved": 0, "lon": -77.030899, "is_disabled": 0, "fusion_lon": 0.0, "rental_uris": {"android": "https://dc.lft.to/lastmile_qr_scan", "ios": "https://dc.lft.to/lastmile_qr_scan"}}, {"type": "electric_scooter", "name": "37b77f395f53141e67707192b0e2e806", "lat": 38.90718666666667, "fusion_lat": 0.0, "bike_id": "37b77f395f53141e67707192b0e2e806", "is_reserved": 0, "lon": -77.01911616666666, "is_disabled": 0, "fusion_lon": 0.0, "rental_uris": {"android": "https://dc.lft.to/lastmile_qr_scan", "ios": "https://dc.lft.to/lastmile_qr_scan"}}, {"type": "electric_scooter", "name": "f3bf85abc86ea1ababa04813134441da", "lat": 38.920005833333335, "fusion_lat": 0.0, "bike_id": "f3bf85abc86ea1ababa04813134441da", "is_reserved": 0, "lon": -77.024692, "is_disabled": 0, "fusion_lon": 0.0, "rental_uris": {"android": "https://dc.lft.to/lastmile_qr_scan", "ios": "https://dc.lft.to/lastmile_qr_scan"}}, {"type": "electric_scooter", "name": "62929a825e68a4e6fc88a19af5a069bb", "lat": 38.908307, "fusion_lat": 0.0, "bike_id": "62929a825e68a4e6fc88a19af5a069bb", "is_reserved": 0, "lon": -77.00216583333334, "is_disabled": 0, "fusion_lon": 0.0, "rental_uris": {"android": "https://dc.lft.to/lastmile_qr_scan", "ios": "https://dc.lft.to/lastmile_qr_scan"}}, {"type": "electric_scooter", "name": "82c18612c2ae716febfd9fe0a06b0a03", "lat": 38.92110483333333, "fusion_lat": 0.0, "bike_id": "82c18612c2ae716febfd9fe0a06b0a03", "is_reserved": 0, "lon": -77.009191, "is_disabled": 0, "fusion_lon": 0.0, "rental_uris": {"android": "https://dc.lft.to/lastmile_qr_scan", "ios": "https://dc.lft.to/lastmile_qr_scan"}}, {"type": "electric_bike", "name": "14b5abbfd983796fbe055aba51850877", "lat": 38.909522833333334, "fusion_lat": 0.0, "bike_id": "14b5abbfd983796fbe055aba51850877", "is_reserved": 0, "lon": -77.2288655, "is_disabled": 0, "fusion_lon": 0.0, "rental_uris": {"android": "https://dc.lft.to/lastmile_qr_scan", "ios": "https://dc.lft.to/lastmile_qr_scan"}}, {"type": "electric_scooter", "name": "88c77f4a30ce56ff413e14a51492976b", "lat": 38.905242666666666, "fusion_lat": 0.0, "bike_id": "88c77f4a30ce56ff413e14a51492976b", "is_reserved": 0, "lon": -77.051124, "is_disabled": 0, "fusion_lon": 0.0, "rental_uris": {"android": "https://dc.lft.to/lastmile_qr_scan", "ios": "https://dc.lft.to/lastmile_qr_scan"}}, {"type": "electric_scooter", "name": "d29d4c0eb9db39ebc01870f1f7f091ff", "lat": 38.92454133333333, "fusion_lat": 0.0, "bike_id": "d29d4c0eb9db39ebc01870f1f7f091ff", "is_reserved": 0, "lon": -77.02150366666666, "is_disabled": 0, "fusion_lon": 0.0, "rental_uris": {"android": "https://dc.lft.to/lastmile_qr_scan", "ios": "https://dc.lft.to/lastmile_qr_scan"}}, {"type": "electric_scooter", "name": "f812c8105d3ff2ff13e31a8aaf537594", "lat": 38.93423166666667, "fusion_lat": 0.0, "bike_id": "f812c8105d3ff2ff13e31a8aaf537594", "is_reserved": 0, "lon": -77.04406966666667, "is_disabled": 0, "fusion_lon": 0.0, "rental_uris": {"android": "https://dc.lft.to/lastmile_qr_scan", "ios": "https://dc.lft.to/lastmile_qr_scan"}}, {"type": "electric_scooter", "name": "b4baf90ab8d31517328284a68af288ce", "lat": 38.8982835, "fusion_lat": 0.0, "bike_id": "b4baf90ab8d31517328284a68af288ce", "is_reserved": 0, "lon": -77.03336233333333, "is_disabled": 0, "fusion_lon": 0.0, "rental_uris": {"android": "https://dc.lft.to/lastmile_qr_scan", "ios": "https://dc.lft.to/lastmile_qr_scan"}}, {"type": "electric_scooter", "name": "ddf80348cb43ca959600750a574dc712", "lat": 38.9023335, "fusion_lat": 0.0, "bike_id": "ddf80348cb43ca959600750a574dc712", "is_reserved": 0, "lon": -77.05984033333333, "is_disabled": 0, "fusion_lon": 0.0, "rental_uris": {"android": "https://dc.lft.to/lastmile_qr_scan", "ios": "https://dc.lft.to/lastmile_qr_scan"}}, {"type": "electric_scooter", "name": "d4b2e3450f3752283a13d7434b977e94", "lat": 38.901518, "fusion_lat": 0.0, "bike_id": "d4b2e3450f3752283a13d7434b977e94", "is_reserved": 0, "lon": -76.9902725, "is_disabled": 0, "fusion_lon": 0.0, "rental_uris": {"android": "https://dc.lft.to/lastmile_qr_scan", "ios": "https://dc.lft.to/lastmile_qr_scan"}}, {"type": "electric_scooter", "name": "f904ea70e5447a45c988f7c7e0f032f6", "lat": 38.86653866666666, "fusion_lat": 0.0, "bike_id": "f904ea70e5447a45c988f7c7e0f032f6", "is_reserved": 0, "lon": -76.98883333333333, "is_disabled": 0, "fusion_lon": 0.0, "rental_uris": {"android": "https://dc.lft.to/lastmile_qr_scan", "ios": "https://dc.lft.to/lastmile_qr_scan"}}, {"type": "electric_scooter", "name": "4fc081240f6714fa9e352c7125441ab7", "lat": 38.9429565, "fusion_lat": 0.0, "bike_id": "4fc081240f6714fa9e352c7125441ab7", "is_reserved": 0, "lon": -77.02949283333334, "is_disabled": 0, "fusion_lon": 0.0, "rental_uris": {"android": "https://dc.lft.to/lastmile_qr_scan", "ios": "https://dc.lft.to/lastmile_qr_scan"}}, {"type": "electric_scooter", "name": "05b46d1be2ef6434b80f69a0b2e490cc", "lat": 38.89353333333333, "fusion_lat": 0.0, "bike_id": "05b46d1be2ef6434b80f69a0b2e490cc", "is_reserved": 0, "lon": -77.00337383333333, "is_disabled": 0, "fusion_lon": 0.0, "rental_uris": {"android": "https://dc.lft.to/lastmile_qr_scan", "ios": "https://dc.lft.to/lastmile_qr_scan"}}, {"type": "electric_scooter", "name": "668fb3eae682563e26f3bdd57e02599f", "lat": 38.895315833333335, "fusion_lat": 0.0, "bike_id": "668fb3eae682563e26f3bdd57e02599f", "is_reserved": 0, "lon": -77.03160333333334, "is_disabled": 0, "fusion_lon": 0.0, "rental_uris": {"android": "https://dc.lft.to/lastmile_qr_scan", "ios": "https://dc.lft.to/lastmile_qr_scan"}}, {"type": "electric_scooter", "name": "bd79ec37003a83da0dd8f04af7d8ee4d", "lat": 38.88705683333333, "fusion_lat": 0.0, "bike_id": "bd79ec37003a83da0dd8f04af7d8ee4d", "is_reserved": 0, "lon": -77.0034935, "is_disabled": 0, "fusion_lon": 0.0, "rental_uris": {"android": "https://dc.lft.to/lastmile_qr_scan", "ios": "https://dc.lft.to/lastmile_qr_scan"}}, {"type": "electric_scooter", "name": "87f25d410ff20f2b807f36977c4e7d23", "lat": 38.92894283333333, "fusion_lat": 0.0, "bike_id": "87f25d410ff20f2b807f36977c4e7d23", "is_reserved": 0, "lon": -77.03241566666667, "is_disabled": 0, "fusion_lon": 0.0, "rental_uris": {"android": "https://dc.lft.to/lastmile_qr_scan", "ios": "https://dc.lft.to/lastmile_qr_scan"}}, {"type": "electric_scooter", "name": "866ad303aaa28754c43d7a0b5657fe9d", "lat": 38.92153233333333, "fusion_lat": 0.0, "bike_id": "866ad303aaa28754c43d7a0b5657fe9d", "is_reserved": 0, "lon": -77.03674533333333, "is_disabled": 0, "fusion_lon": 0.0, "rental_uris": {"android": "https://dc.lft.to/lastmile_qr_scan", "ios": "https://dc.lft.to/lastmile_qr_scan"}}, {"type": "electric_scooter", "name": "e1a6efc5b02b0c5d295ef364bb870176", "lat": 38.918072, "fusion_lat": 0.0, "bike_id": "e1a6efc5b02b0c5d295ef364bb870176", "is_reserved": 0, "lon": -77.03718066666667, "is_disabled": 0, "fusion_lon": 0.0, "rental_uris": {"android": "https://dc.lft.to/lastmile_qr_scan", "ios": "https://dc.lft.to/lastmile_qr_scan"}}, {"type": "electric_scooter", "name": "7f5e19e34642e17ed72225bd26b45e64", "lat": 38.972356166666664, "fusion_lat": 0.0, "bike_id": "7f5e19e34642e17ed72225bd26b45e64", "is_reserved": 0, "lon": -77.02709033333333, "is_disabled": 0, "fusion_lon": 0.0, "rental_uris": {"android": "https://dc.lft.to/lastmile_qr_scan", "ios": "https://dc.lft.to/lastmile_qr_scan"}}, {"type": "electric_scooter", "name": "b48151f83afc71572b77494d111e9066", "lat": 38.93428683333333, "fusion_lat": 0.0, "bike_id": "b48151f83afc71572b77494d111e9066", "is_reserved": 0, "lon": -77.039999, "is_disabled": 0, "fusion_lon": 0.0, "rental_uris": {"android": "https://dc.lft.to/lastmile_qr_scan", "ios": "https://dc.lft.to/lastmile_qr_scan"}}, {"type": "electric_scooter", "name": "24eae8ff4a3c196a8a02d0a0b139e640", "lat": 38.926871166666665, "fusion_lat": 0.0, "bike_id": "24eae8ff4a3c196a8a02d0a0b139e640", "is_reserved": 0, "lon": -77.03238, "is_disabled": 0, "fusion_lon": 0.0, "rental_uris": {"android": "https://dc.lft.to/lastmile_qr_scan", "ios": "https://dc.lft.to/lastmile_qr_scan"}}, {"type": "electric_scooter", "name": "ccafd593d5c150e9b02a6c1850448268", "lat": 38.901131666666664, "fusion_lat": 0.0, "bike_id": "ccafd593d5c150e9b02a6c1850448268", "is_reserved": 0, "lon": -77.028102, "is_disabled": 0, "fusion_lon": 0.0, "rental_uris": {"android": "https://dc.lft.to/lastmile_qr_scan", "ios": "https://dc.lft.to/lastmile_qr_scan"}}, {"type": "electric_scooter", "name": "ca781e62d21a6caa45818e24ea7ff4eb", "lat": 38.902732666666665, "fusion_lat": 0.0, "bike_id": "ca781e62d21a6caa45818e24ea7ff4eb", "is_reserved": 0, "lon": -77.03839066666667, "is_disabled": 0, "fusion_lon": 0.0, "rental_uris": {"android": "https://dc.lft.to/lastmile_qr_scan", "ios": "https://dc.lft.to/lastmile_qr_scan"}}, {"type": "electric_scooter", "name": "29e13ab04ea4ee42526fced0a075e11c", "lat": 38.900198333333336, "fusion_lat": 0.0, "bike_id": "29e13ab04ea4ee42526fced0a075e11c", "is_reserved": 0, "lon": -77.04408216666667, "is_disabled": 0, "fusion_lon": 0.0, "rental_uris": {"android": "https://dc.lft.to/lastmile_qr_scan", "ios": "https://dc.lft.to/lastmile_qr_scan"}}, {"type": "electric_scooter", "name": "f0c601b0f1e728ddf4d79c26854e5f8c", "lat": 38.87896583333333, "fusion_lat": 0.0, "bike_id": "f0c601b0f1e728ddf4d79c26854e5f8c", "is_reserved": 0, "lon": -77.01371716666667, "is_disabled": 0, "fusion_lon": 0.0, "rental_uris": {"android": "https://dc.lft.to/lastmile_qr_scan", "ios": "https://dc.lft.to/lastmile_qr_scan"}}, {"type": "electric_bike", "name": "190d8bab379c60839bfb6209dbaf9020", "lat": 38.95875683333333, "fusion_lat": 0.0, "bike_id": "190d8bab379c60839bfb6209dbaf9020", "is_reserved": 0, "lon": -76.970545, "is_disabled": 0, "fusion_lon": 0.0, "rental_uris": {"android": "https://dc.lft.to/lastmile_qr_scan", "ios": "https://dc.lft.to/lastmile_qr_scan"}}, {"type": "electric_scooter", "name": "6839ed89e03d29829270b7b869f6237f", "lat": 38.89959566666667, "fusion_lat": 0.0, "bike_id": "6839ed89e03d29829270b7b869f6237f", "is_reserved": 0, "lon": -77.01609533333334, "is_disabled": 0, "fusion_lon": 0.0, "rental_uris": {"android": "https://dc.lft.to/lastmile_qr_scan", "ios": "https://dc.lft.to/lastmile_qr_scan"}}, {"type": "electric_scooter", "name": "e38c53e28be5e7cd5aadb548ef865522", "lat": 38.91267283333333, "fusion_lat": 0.0, "bike_id": "e38c53e28be5e7cd5aadb548ef865522", "is_reserved": 0, "lon": -77.02226033333334, "is_disabled": 0, "fusion_lon": 0.0, "rental_uris": {"android": "https://dc.lft.to/lastmile_qr_scan", "ios": "https://dc.lft.to/lastmile_qr_scan"}}, {"type": "electric_scooter", "name": "41a4f3363e019a720efa217ce70dc875", "lat": 38.9033985, "fusion_lat": 0.0, "bike_id": "41a4f3363e019a720efa217ce70dc875", "is_reserved": 0, "lon": -77.02012483333333, "is_disabled": 0, "fusion_lon": 0.0, "rental_uris": {"android": "https://dc.lft.to/lastmile_qr_scan", "ios": "https://dc.lft.to/lastmile_qr_scan"}}, {"type": "electric_scooter", "name": "0e3b9d8ce6e45e61c4f7cc626bf05459", "lat": 38.9737675, "fusion_lat": 0.0, "bike_id": "0e3b9d8ce6e45e61c4f7cc626bf05459", "is_reserved": 0, "lon": -77.01806683333334, "is_disabled": 0, "fusion_lon": 0.0, "rental_uris": {"android": "https://dc.lft.to/lastmile_qr_scan", "ios": "https://dc.lft.to/lastmile_qr_scan"}}, {"type": "electric_scooter", "name": "ec8aab2f55ce1d9181d0f575a7391fab", "lat": 38.892224666666664, "fusion_lat": 0.0, "bike_id": "ec8aab2f55ce1d9181d0f575a7391fab", "is_reserved": 0, "lon": -77.0437385, "is_disabled": 0, "fusion_lon": 0.0, "rental_uris": {"android": "https://dc.lft.to/lastmile_qr_scan", "ios": "https://dc.lft.to/lastmile_qr_scan"}}, {"type": "electric_scooter", "name": "78db2921a822a57eb30fcaee19daaed8", "lat": 38.902303333333336, "fusion_lat": 0.0, "bike_id": "78db2921a822a57eb30fcaee19daaed8", "is_reserved": 0, "lon": -77.03331316666667, "is_disabled": 0, "fusion_lon": 0.0, "rental_uris": {"android": "https://dc.lft.to/lastmile_qr_scan", "ios": "https://dc.lft.to/lastmile_qr_scan"}}, {"type": "electric_scooter", "name": "12c1cb029f5fa1c89f1ec08ded65b34d", "lat": 38.927859166666664, "fusion_lat": 0.0, "bike_id": "12c1cb029f5fa1c89f1ec08ded65b34d", "is_reserved": 0, "lon": -77.03149333333333, "is_disabled": 0, "fusion_lon": 0.0, "rental_uris": {"android": "https://dc.lft.to/lastmile_qr_scan", "ios": "https://dc.lft.to/lastmile_qr_scan"}}, {"type": "electric_scooter", "name": "9f31124946817f505272d6b49d019204", "lat": 38.8978695, "fusion_lat": 0.0, "bike_id": "9f31124946817f505272d6b49d019204", "is_reserved": 0, "lon": -76.93112533333333, "is_disabled": 0, "fusion_lon": 0.0, "rental_uris": {"android": "https://dc.lft.to/lastmile_qr_scan", "ios": "https://dc.lft.to/lastmile_qr_scan"}}, {"type": "electric_scooter", "name": "a0827b395b7d7d38504b7148a3656fbb", "lat": 38.8946915, "fusion_lat": 0.0, "bike_id": "a0827b395b7d7d38504b7148a3656fbb", "is_reserved": 0, "lon": -77.01750083333333, "is_disabled": 0, "fusion_lon": 0.0, "rental_uris": {"android": "https://dc.lft.to/lastmile_qr_scan", "ios": "https://dc.lft.to/lastmile_qr_scan"}}, {"type": "electric_scooter", "name": "3975f638e0916e992b8bd7b86c3f5b3b", "lat": 38.8983765, "fusion_lat": 0.0, "bike_id": "3975f638e0916e992b8bd7b86c3f5b3b", "is_reserved": 0, "lon": -77.02811266666667, "is_disabled": 0, "fusion_lon": 0.0, "rental_uris": {"android": "https://dc.lft.to/lastmile_qr_scan", "ios": "https://dc.lft.to/lastmile_qr_scan"}}, {"type": "electric_scooter", "name": "3be1c0267edcc7b4de3404f94a2b2827", "lat": 38.91144233333333, "fusion_lat": 0.0, "bike_id": "3be1c0267edcc7b4de3404f94a2b2827", "is_reserved": 0, "lon": -77.02419316666666, "is_disabled": 0, "fusion_lon": 0.0, "rental_uris": {"android": "https://dc.lft.to/lastmile_qr_scan", "ios": "https://dc.lft.to/lastmile_qr_scan"}}, {"type": "electric_scooter", "name": "ce82aa3836b22823f88291ec2b2aae00", "lat": 38.92975916666666, "fusion_lat": 0.0, "bike_id": "ce82aa3836b22823f88291ec2b2aae00", "is_reserved": 0, "lon": -77.05501516666666, "is_disabled": 0, "fusion_lon": 0.0, "rental_uris": {"android": "https://dc.lft.to/lastmile_qr_scan", "ios": "https://dc.lft.to/lastmile_qr_scan"}}, {"type": "electric_scooter", "name": "0b63d15e1e759eb923f86c815b64f42c", "lat": 38.917389666666665, "fusion_lat": 0.0, "bike_id": "0b63d15e1e759eb923f86c815b64f42c", "is_reserved": 0, "lon": -77.02395733333333, "is_disabled": 0, "fusion_lon": 0.0, "rental_uris": {"android": "https://dc.lft.to/lastmile_qr_scan", "ios": "https://dc.lft.to/lastmile_qr_scan"}}, {"type": "electric_scooter", "name": "2fef5faa172a26ece7f88cd3a05b1110", "lat": 38.901377833333335, "fusion_lat": 0.0, "bike_id": "2fef5faa172a26ece7f88cd3a05b1110", "is_reserved": 0, "lon": -77.0385905, "is_disabled": 0, "fusion_lon": 0.0, "rental_uris": {"android": "https://dc.lft.to/lastmile_qr_scan", "ios": "https://dc.lft.to/lastmile_qr_scan"}}, {"type": "electric_scooter", "name": "9a7034eb2db87f9f0a05640800124fbb", "lat": 38.90548066666667, "fusion_lat": 0.0, "bike_id": "9a7034eb2db87f9f0a05640800124fbb", "is_reserved": 0, "lon": -77.04738466666667, "is_disabled": 0, "fusion_lon": 0.0, "rental_uris": {"android": "https://dc.lft.to/lastmile_qr_scan", "ios": "https://dc.lft.to/lastmile_qr_scan"}}, {"type": "electric_scooter", "name": "07bb7644fa22512175d1fa8ac28d625e", "lat": 38.8974185, "fusion_lat": 0.0, "bike_id": "07bb7644fa22512175d1fa8ac28d625e", "is_reserved": 0, "lon": -77.0317375, "is_disabled": 0, "fusion_lon": 0.0, "rental_uris": {"android": "https://dc.lft.to/lastmile_qr_scan", "ios": "https://dc.lft.to/lastmile_qr_scan"}}, {"type": "electric_scooter", "name": "86a0dda9741ca4a4f792155dfa24fb75", "lat": 38.900515, "fusion_lat": 0.0, "bike_id": "86a0dda9741ca4a4f792155dfa24fb75", "is_reserved": 0, "lon": -77.00209133333334, "is_disabled": 0, "fusion_lon": 0.0, "rental_uris": {"android": "https://dc.lft.to/lastmile_qr_scan", "ios": "https://dc.lft.to/lastmile_qr_scan"}}, {"type": "electric_scooter", "name": "532f51f17264483f060e6f14ec668d4b", "lat": 38.8650365, "fusion_lat": 0.0, "bike_id": "532f51f17264483f060e6f14ec668d4b", "is_reserved": 0, "lon": -76.99001133333333, "is_disabled": 0, "fusion_lon": 0.0, "rental_uris": {"android": "https://dc.lft.to/lastmile_qr_scan", "ios": "https://dc.lft.to/lastmile_qr_scan"}}, {"type": "electric_scooter", "name": "538b6c2112b950976f581de63c77c3a4", "lat": 38.902300333333336, "fusion_lat": 0.0, "bike_id": "538b6c2112b950976f581de63c77c3a4", "is_reserved": 0, "lon": -77.043586, "is_disabled": 0, "fusion_lon": 0.0, "rental_uris": {"android": "https://dc.lft.to/lastmile_qr_scan", "ios": "https://dc.lft.to/lastmile_qr_scan"}}, {"type": "electric_scooter", "name": "9927205e42c7e9fd3ae65207594bef5d", "lat": 38.887335, "fusion_lat": 0.0, "bike_id": "9927205e42c7e9fd3ae65207594bef5d", "is_reserved": 0, "lon": -77.00197183333333, "is_disabled": 0, "fusion_lon": 0.0, "rental_uris": {"android": "https://dc.lft.to/lastmile_qr_scan", "ios": "https://dc.lft.to/lastmile_qr_scan"}}, {"type": "electric_scooter", "name": "2188f0b28a61487b1d02622e916a5443", "lat": 38.91095983333334, "fusion_lat": 0.0, "bike_id": "2188f0b28a61487b1d02622e916a5443", "is_reserved": 0, "lon": -76.99806383333333, "is_disabled": 0, "fusion_lon": 0.0, "rental_uris": {"android": "https://dc.lft.to/lastmile_qr_scan", "ios": "https://dc.lft.to/lastmile_qr_scan"}}, {"type": "electric_scooter", "name": "cfd8de26c7be7fbfb30cb0f15070dbc8", "lat": 38.90162433333333, "fusion_lat": 0.0, "bike_id": "cfd8de26c7be7fbfb30cb0f15070dbc8", "is_reserved": 0, "lon": -76.93017166666667, "is_disabled": 0, "fusion_lon": 0.0, "rental_uris": {"android": "https://dc.lft.to/lastmile_qr_scan", "ios": "https://dc.lft.to/lastmile_qr_scan"}}, {"type": "electric_scooter", "name": "0eef265a91a16979f36f96c3b5da4036", "lat": 38.8996185, "fusion_lat": 0.0, "bike_id": "0eef265a91a16979f36f96c3b5da4036", "is_reserved": 0, "lon": -77.01614983333333, "is_disabled": 0, "fusion_lon": 0.0, "rental_uris": {"android": "https://dc.lft.to/lastmile_qr_scan", "ios": "https://dc.lft.to/lastmile_qr_scan"}},