{"data": {"bikes": [{"bike_id": "0a4f9817e7b17a31e58ce7fb0d3f63ee", "is_reserved": 0, "fusion_lon": 0.0, "lat": 38.90211866666667, "is_disabled": 0, "name": "0a4f9817e7b17a31e58ce7fb0d3f63ee", "fusion_lat": 0.0, "rental_uris": {"ios": "https://dc.lft.to/lastmile_qr_scan", "android": "https://dc.lft.to/lastmile_qr_scan"}, "lon": -76.9505705, "type": "electric_bike"}, {"bike_id": "af2a371cd72d42bdee4fde59a45f9708", "is_reserved": 0, "fusion_lon": 0.0, "lat": 38.902917, "is_disabled": 0, "name": "af2a371cd72d42bdee4fde59a45f9708", "fusion_lat": 0.0, "rental_uris": {"ios": "https://dc.lft.to/lastmile_qr_scan", "android": "https://dc.lft.to/lastmile_qr_scan"}, "lon": -77.04258766666666, "type": "electric_scooter"}, {"bike_id": "7c7724e4b0ded827034eb5dc8381ce73", "is_reserved": 0, "fusion_lon": 0.0, "lat": 38.911356833333336, "is_disabled": 0, "name": "7c7724e4b0ded827034eb5dc8381ce73", "fusion_lat": 0.0, "rental_uris": {"ios": "https://dc.lft.to/lastmile_qr_scan", "android": "https://dc.lft.to/lastmile_qr_scan"}, "lon": -77.04892466666666, "type": "electric_bike"}, {"bike_id": "624fd2de51748e4c667e10d1d7880ee6", "is_reserved": 0, "fusion_lon": 0.0, "lat": 38.89557533333333, "is_disabled": 0, "name": "624fd2de51748e4c667e10d1d7880ee6", "fusion_lat": 0.0, "rental_uris": {"ios": "https://dc.lft.to/lastmile_qr_scan", "android": "https://dc.lft.to/lastmile_qr_scan"}, "lon": -77.12741033333333, "type": "electric_bike"}, {"bike_id": "70213e9b0d17f0c597100b882794da9c", "is_reserved": 0, "fusion_lon": 0.0, "lat": 38.90131083333333, "is_disabled": 0, "name": "70213e9b0d17f0c597100b882794da9c", "fusion_lat": 0.0, "rental_uris": {"ios": "https://dc.lft.to/lastmile_qr_scan", "android": "https://dc.lft.to/lastmile_qr_scan"}, "lon": -77.043058, "type": "electric_scooter"}, {"bike_id": "a3001a65bb96063197ed76042d458a80", "is_reserved": 0, "fusion_lon": 0.0, "lat": 38.922500666666664, "is_disabled": 0, "name": "a3001a65bb96063197ed76042d458a80", "fusion_lat": 0.0, "rental_uris": {"ios": "https://dc.lft.to/lastmile_qr_scan", "android": "https://dc.lft.to/lastmile_qr_scan"}, "lon": -77.04154633333333, "type": "electric_scooter"}, {"bike_id": "a26fb6cc92746a848b20b6e4bd3e8934", "is_reserved": 0, "fusion_lon": 0.0, "lat": 38.89827983333333, "is_disabled": 0, "name": "a26fb6cc92746a848b20b6e4bd3e8934", "fusion_lat": 0.0, "rental_uris": {"ios": "https://dc.lft.to/lastmile_qr_scan", "android": "https://dc.lft.to/lastmile_qr_scan"}, "lon": -77.0503105, "type": "electric_scooter"}, {"bike_id": "0e34f48e215f0b30befd3044199921c9", "is_reserved": 0, "fusion_lon": 0.0, "lat": 38.896163333333334, "is_disabled": 0, "name": "0e34f48e215f0b30befd3044199921c9", "fusion_lat": 0.0, "rental_uris": {"ios": "https://dc.lft.to/lastmile_qr_scan", "android": "https://dc.lft.to/lastmile_qr_scan"}, "lon": -76.99574133333333, "type": "electric_scooter"}, {"bike_id": "d2b981f6af3cd9c5001ca5f3795df903", "is_reserved": 0, "fusion_lon": 0.0, "lat": 38.90130166666667, "is_disabled": 0, "name": "d2b981f6af3cd9c5001ca5f3795df903", "fusion_lat": 0.0, "rental_uris": {"ios": "https://dc.lft.to/lastmile_qr_scan", "android": "https://dc.lft.to/lastmile_qr_scan"}, "lon": -77.0437975, "type": "electric_scooter"}, {"bike_id": "249f83b7276f20b7469d4972146e7fbb", "is_reserved": 0, "fusion_lon": 0.0, "lat": 38.903760166666665, "is_disabled": 0, "name": "249f83b7276f20b7469d4972146e7fbb", "fusion_lat": 0.0, "rental_uris": {"ios": "https://dc.lft.to/lastmile_qr_scan", "android": "https://dc.lft.to/lastmile_qr_scan"}, "lon": -77.04181583333333, "type": "electric_scooter"}, {"bike_id": "585782eae80b7d123f808e34635f3f71", "is_reserved": 0, "fusion_lon": 0.0, "lat": 38.86159883333333, "is_disabled": 0, "name": "585782eae80b7d123f808e34635f3f71", "fusion_lat": 0.0, "rental_uris": {"ios": "https://dc.lft.to/lastmile_qr_scan", "android": "https://dc.lft.to/lastmile_qr_scan"}, "lon": -77.1309485, "type": "electric_bike"}, {"bike_id": "3be34e7fc529161efe9d6882fce755a1", "is_reserved": 0, "fusion_lon": 0.0, "lat": 38.91816016666667, "is_disabled": 0, "name": "3be34e7fc529161efe9d6882fce755a1", "fusion_lat": 0.0, "rental_uris": {"ios": "https://dc.lft.to/lastmile_qr_scan", "android": "https://dc.lft.to/lastmile_qr_scan"}, "lon": -77.0269295, "type": "electric_scooter"}, {"bike_id": "8cbddd6b2c40a13b8c83e5530207b12e", "is_reserved": 0, "fusion_lon": 0.0, "lat": 38.94520283333333, "is_disabled": 0, "name": "8cbddd6b2c40a13b8c83e5530207b12e", "fusion_lat": 0.0, "rental_uris": {"ios": "https://dc.lft.to/lastmile_qr_scan", "android": "https://dc.lft.to/lastmile_qr_scan"}, "lon": -77.0298265, "type": "electric_scooter"}, {"bike_id": "8d2a0a430878f0e4e7474488427ffe90", "is_reserved": 0, "fusion_lon": 0.0, "lat": 38.895321833333334, "is_disabled": 0, "name": "8d2a0a430878f0e4e7474488427ffe90", "fusion_lat": 0.0, "rental_uris": {"ios": "https://dc.lft.to/lastmile_qr_scan", "android": "https://dc.lft.to/lastmile_qr_scan"}, "lon": -76.9807085, "type": "electric_scooter"}, {"bike_id": "67605ea1e6a189a784218468749bf78e", "is_reserved": 0, "fusion_lon": 0.0, "lat": 38.9669655, "is_disabled": 0, "name": "67605ea1e6a189a784218468749bf78e", "fusion_lat": 0.0, "rental_uris": {"ios": "https://dc.lft.to/lastmile_qr_scan", "android": "https://dc.lft.to/lastmile_qr_scan"}, "lon": -77.10226716666666, "type": "electric_bike"}, {"bike_id": "7cc0e7f632abea7e89de77b427fecb2a", "is_reserved": 0, "fusion_lon": 0.0, "lat": 38.89945066666667, "is_disabled": 0, "name": "7cc0e7f632abea7e89de77b427fecb2a", "fusion_lat": 0.0, "rental_uris": {"ios": "https://dc.lft.to/lastmile_qr_scan", "android": "https://dc.lft.to/lastmile_qr_scan"}, "lon": -76.99019066666666, "type": "electric_scooter"}, {"bike_id": "0cccbb118e253f9741e38c73083b00a5", "is_reserved": 0, "fusion_lon": 0.0, "lat": 38.91681283333333, "is_disabled": 0, "name": "0cccbb118e253f9741e38c73083b00a5", "fusion_lat": 0.0, "rental_uris": {"ios": "https://dc.lft.to/lastmile_qr_scan", "android": "https://dc.lft.to/lastmile_qr_scan"}, "lon": -77.029617, "type": "electric_scooter"}, {"bike_id": "f9102e4d043ad53ecf9eabc410295d0e", "is_reserved": 0, "fusion_lon": 0.0, "lat": 38.89555566666667, "is_disabled": 0, "name": "f9102e4d043ad53ecf9eabc410295d0e", "fusion_lat": 0.0, "rental_uris": {"ios": "https://dc.lft.to/lastmile_qr_scan", "android": "https://dc.lft.to/lastmile_qr_scan"}, "lon": -76.93081133333334, "type": "electric_scooter"}, {"bike_id": "26f70c4fa939333abda8427a6775b4ba", "is_reserved": 0, "fusion_lon": 0.0, "lat": 38.906462166666664, "is_disabled": 0, "name": "26f70c4fa939333abda8427a6775b4ba", "fusion_lat": 0.0, "rental_uris": {"ios": "https://dc.lft.to/lastmile_qr_scan", "android": "https://dc.lft.to/lastmile_qr_scan"}, "lon": -76.983741, "type": "electric_scooter"}, {"bike_id": "517b57210a8add46b2d60a06235403fd", "is_reserved": 0, "fusion_lon": 0.0, "lat": 38.917341666666665, "is_disabled": 0, "name": "517b57210a8add46b2d60a06235403fd", "fusion_lat": 0.0, "rental_uris": {"ios": "https://dc.lft.to/lastmile_qr_scan", "android": "https://dc.lft.to/lastmile_qr_scan"}, "lon": -77.02312266666667, "type": "electric_scooter"}, {"bike_id": "8c6fe830d5d38d3e888cad488e8aeec0", "is_reserved": 0, "fusion_lon": 0.0, "lat": 38.95288, "is_disabled": 0, "name": "8c6fe830d5d38d3e888cad488e8aeec0", "fusion_lat": 0.0, "rental_uris": {"ios": "https://dc.lft.to/lastmile_qr_scan", "android": "https://dc.lft.to/lastmile_qr_scan"}, "lon": -76.94597916666666, "type": "electric_bike"}, {"bike_id": "51b80204d02c793f4a59da535b646ee4", "is_reserved": 0, "fusion_lon": 0.0, "lat": 38.93956216666667, "is_disabled": 0, "name": "51b80204d02c793f4a59da535b646ee4", "fusion_lat": 0.0, "rental_uris": {"ios": "https://dc.lft.to/lastmile_qr_scan", "android": "https://dc.lft.to/lastmile_qr_scan"}, "lon": -77.36094383333334, "type": "electric_bike"}, {"bike_id": "117f3202cd2559e3d8fb2bb72ea222db", "is_reserved": 0, "fusion_lon": 0.0, "lat": 38.919828, "is_disabled": 0, "name": "117f3202cd2559e3d8fb2bb72ea222db", "fusion_lat": 0.0, "rental_uris": {"ios": "https://dc.lft.to/lastmile_qr_scan", "android": "https://dc.lft.to/lastmile_qr_scan"}, "lon": -77.04165516666667, "type": "electric_scooter"}, {"bike_id": "c1c7dfc251351c4dd43090cfb6829ab9", "is_reserved": 0, "fusion_lon": 0.0, "lat": 38.89832283333333, "is_disabled": 0, "name": "c1c7dfc251351c4dd43090cfb6829ab9", "fusion_lat": 0.0, "rental_uris": {"ios": "https://dc.lft.to/lastmile_qr_scan", "android": "https://dc.lft.to/lastmile_qr_scan"}, "lon": -77.03063016666667, "type": "electric_scooter"}, {"bike_id": "3db48ca62e6a772d19948028ee67c7be", "is_reserved": 0, "fusion_lon": 0.0, "lat": 38.927482166666664, "is_disabled": 0, "name": "3db48ca62e6a772d19948028ee67c7be", "fusion_lat": 0.0, "rental_uris": {"ios": "https://dc.lft.to/lastmile_qr_scan", "android": "https://dc.lft.to/lastmile_qr_scan"}, "lon": -77.02484983333333, "type": "electric_scooter"}, {"bike_id": "b3929d923e700cae37a95e340755e1c8", "is_reserved": 0, "fusion_lon": 0.0, "lat": 38.902683833333334, "is_disabled": 0, "name": "b3929d923e700cae37a95e340755e1c8", "fusion_lat": 0.0, "rental_uris": {"ios": "https://dc.lft.to/lastmile_qr_scan", "android": "https://dc.lft.to/lastmile_qr_scan"}, "lon": -77.03848516666666, "type": "electric_scooter"}, {"bike_id": "396533e4b084ec6317a9a65e338e6c4a", "is_reserved": 0, "fusion_lon": 0.0, "lat": 38.923175, "is_disabled": 0, "name": "396533e4b084ec6317a9a65e338e6c4a", "fusion_lat": 0.0, "rental_uris": {"ios": "https://dc.lft.to/lastmile_qr_scan", "android": "https://dc.lft.to/lastmile_qr_scan"}, "lon": -77.04094666666667, "type": "electric_scooter"}, {"bike_id": "e2a62939ce462b9d566f319a5e5c69f8", "is_reserved": 0, "fusion_lon": 0.0, "lat": 38.9177375, "is_disabled": 0, "name": "e2a62939ce462b9d566f319a5e5c69f8", "fusion_lat": 0.0, "rental_uris": {"ios": "https://dc.lft.to/lastmile_qr_scan", "android": "https://dc.lft.to/lastmile_qr_scan"}, "lon": -77.04061116666666, "type": "electric_bike"}, {"bike_id": "9d30a367c725cea2fd3f7755d8357d20", "is_reserved": 0, "fusion_lon": 0.0, "lat": 38.906168666666666, "is_disabled": 0, "name": "9d30a367c725cea2fd3f7755d8357d20", "fusion_lat": 0.0, "rental_uris": {"ios": "https://dc.lft.to/lastmile_qr_scan", "android": "https://dc.lft.to/lastmile_qr_scan"}, "lon": -76.98615733333334, "type": "electric_bike"}, {"bike_id": "b83ac8f6d064daa5f33d409aa1ece440", "is_reserved": 0, "fusion_lon": 0.0, "lat": 38.906709666666664, "is_disabled": 0, "name": "b83ac8f6d064daa5f33d409aa1ece440", "fusion_lat": 0.0, "rental_uris": {"ios": "https://dc.lft.to/lastmile_qr_scan", "android": "https://dc.lft.to/lastmile_qr_scan"}, "lon": -77.0009465, "type": "electric_scooter"}, {"bike_id": "8cea74526b3c57a019d341da0359fe31", "is_reserved": 0, "fusion_lon": 0.0, "lat": 38.9040695, "is_disabled": 0, "name": "8cea74526b3c57a019d341da0359fe31", "fusion_lat": 0.0, "rental_uris": {"ios": "https://dc.lft.to/lastmile_qr_scan", "android": "https://dc.lft.to/lastmile_qr_scan"}, "lon": -77.02067733333334, "type": "electric_scooter"}, {"bike_id": "66eedd902732414822e8d38f08749586", "is_reserved": 0, "fusion_lon": 0.0, "lat": 38.916820333333334, "is_disabled": 0, "name": "66eedd902732414822e8d38f08749586", "fusion_lat": 0.0, "rental_uris": {"ios": "https://dc.lft.to/lastmile_qr_scan", "android": "https://dc.lft.to/lastmile_qr_scan"}, "lon": -77.02321333333333, "type": "electric_scooter"}, {"bike_id": "9b87fbb5c1cd21e4930d83f74881b7d8", "is_reserved": 0, "fusion_lon": 0.0, "lat": 38.904129833333336, "is_disabled": 0, "name": "9b87fbb5c1cd21e4930d83f74881b7d8", "fusion_lat": 0.0, "rental_uris": {"ios": "https://dc.lft.to/lastmile_qr_scan", "android": "https://dc.lft.to/lastmile_qr_scan"}, "lon": -77.03250033333333, "type": "electric_scooter"}, {"bike_id": "6aafe2eab6fb096333fc5ef9eacdfa65", "is_reserved": 0, "fusion_lon": 0.0, "lat": 38.920188333333336, "is_disabled": 0, "name": "6aafe2eab6fb096333fc5ef9eacdfa65", "fusion_lat": 0.0, "rental_uris": {"ios": "https://dc.lft.to/lastmile_qr_scan", "android": "https://dc.lft.to/lastmile_qr_scan"}, "lon": -77.03119816666667, "type": "electric_scooter"}, {"bike_id": "98d1a72b9a98e4c3a23ce37ad758bdd1", "is_reserved": 0, "fusion_lon": 0.0, "lat": 38.897353833333334, "is_disabled": 0, "name": "98d1a72b9a98e4c3a23ce37ad758bdd1", "fusion_lat": 0.0, "rental_uris": {"ios": "https://dc.lft.to/lastmile_qr_scan", "android": "https://dc.lft.to/lastmile_qr_scan"}, "lon": -77.044995, "type": "electric_scooter"}, {"bike_id": "f5a10c8d2015bf6db514b5db997e72b0", "is_reserved": 0, "fusion_lon": 0.0, "lat": 38.91049366666667, "is_disabled": 0, "name": "f5a10c8d2015bf6db514b5db997e72b0", "fusion_lat": 0.0, "rental_uris": {"ios": "https://dc.lft.to/lastmile_qr_scan", "android": "https://dc.lft.to/lastmile_qr_scan"}, "lon": -77.02207266666667, "type": "electric_scooter"}, {"bike_id": "353d7a5b22457eaf46653638f2178529", "is_reserved": 0, "fusion_lon": 0.0, "lat": 38.92256616666667, "is_disabled": 0, "name": "353d7a5b22457eaf46653638f2178529", "fusion_lat": 0.0, "rental_uris": {"ios": "https://dc.lft.to/lastmile_qr_scan", "android": "https://dc.lft.to/lastmile_qr_scan"}, "lon": -77.04307266666666, "type": "electric_scooter"}, {"bike_id": "8a82a423f9d33d11bfc2a2262fd62ace", "is_reserved": 0, "fusion_lon": 0.0, "lat": 38.897303666666666, "is_disabled": 0, "name": "8a82a423f9d33d11bfc2a2262fd62ace", "fusion_lat": 0.0, "rental_uris": {"ios": "https://dc.lft.to/lastmile_qr_scan", "android": "https://dc.lft.to/lastmile_qr_scan"}, "lon": -77.054772, "type": "electric_scooter"}, {"bike_id": "5e9a3666f1caef6b621c09e7b5ec3511", "is_reserved": 0, "fusion_lon": 0.0, "lat": 38.93535283333333, "is_disabled": 0, "name": "5e9a3666f1caef6b621c09e7b5ec3511", "fusion_lat": 0.0, "rental_uris": {"ios": "https://dc.lft.to/lastmile_qr_scan", "android": "https://dc.lft.to/lastmile_qr_scan"}, "lon": -77.02359183333333, "type": "electric_scooter"}, {"bike_id": "9fd2d117e0757a9931445a76dbba7867", "is_reserved": 0, "fusion_lon": 0.0, "lat": 38.95931183333333, "is_disabled": 0, "name": "9fd2d117e0757a9931445a76dbba7867", "fusion_lat": 0.0, "rental_uris": {"ios": "https://dc.lft.to/lastmile_qr_scan", "android": "https://dc.lft.to/lastmile_qr_scan"}, "lon": -77.03130666666667, "type": "electric_scooter"}, {"bike_id": "b7670f4e501b4afcea2d761c059f9b66", "is_reserved": 0, "fusion_lon": 0.0, "lat": 38.892396, "is_disabled": 0, "name": "b7670f4e501b4afcea2d761c059f9b66", "fusion_lat": 0.0, "rental_uris": {"ios": "https://dc.lft.to/lastmile_qr_scan", "android": "https://dc.lft.to/lastmile_qr_scan"}, "lon": -77.01521583333333, "type": "electric_scooter"}, {"bike_id": "f104623657b455d575cef69700f1ba23", "is_reserved": 0, "fusion_lon": 0.0, "lat": 38.91245966666666, "is_disabled": 0, "name": "f104623657b455d575cef69700f1ba23", "fusion_lat": 0.0, "rental_uris": {"ios": "https://dc.lft.to/lastmile_qr_scan", "android": "https://dc.lft.to/lastmile_qr_scan"}, "lon": -77.02228683333334, "type": "electric_scooter"}, {"bike_id": "6d5dd611ac37c895920baeb6434fd8af", "is_reserved": 0, "fusion_lon": 0.0, "lat": 38.90500683333333, "is_disabled": 0, "name": "6d5dd611ac37c895920baeb6434fd8af", "fusion_lat": 0.0, "rental_uris": {"ios": "https://dc.lft.to/lastmile_qr_scan", "android": "https://dc.lft.to/lastmile_qr_scan"}, "lon": -76.99013866666667, "type": "electric_scooter"}, {"bike_id": "88211d32af3cbb80f61349408e419e0d", "is_reserved": 0, "fusion_lon": 0.0, "lat": 38.90256633333333, "is_disabled": 0, "name": "88211d32af3cbb80f61349408e419e0d", "fusion_lat": 0.0, "rental_uris": {"ios": "https://dc.lft.to/lastmile_qr_scan", "android": "https://dc.lft.to/lastmile_qr_scan"}, "lon": -77.01535466666667, "type": "electric_scooter"}, {"bike_id": "fc294c63ed19f003c58458c28154d1b8", "is_reserved": 0, "fusion_lon": 0.0, "lat": 38.90882116666667, "is_disabled": 0, "name": "fc294c63ed19f003c58458c28154d1b8", "fusion_lat": 0.0, "rental_uris": {"ios": "https://dc.lft.to/lastmile_qr_scan", "android": "https://dc.lft.to/lastmile_qr_scan"}, "lon": -77.04326666666667, "type": "electric_scooter"}, {"bike_id": "134de24141d1dae0c50b322052484719", "is_reserved": 0, "fusion_lon": 0.0, "lat": 38.91549916666666, "is_disabled": 0, "name": "134de24141d1dae0c50b322052484719", "fusion_lat": 0.0, "rental_uris": {"ios": "https://dc.lft.to/lastmile_qr_scan", "android": "https://dc.lft.to/lastmile_qr_scan"}, "lon": -77.03515833333333, "type": "electric_scooter"}, {"bike_id": "84f8dfa031868fe0695de891e951945b", "is_reserved": 0, "fusion_lon": 0.0, "lat": 38.91774433333333, "is_disabled": 0, "name": "84f8dfa031868fe0695de891e951945b", "fusion_lat": 0.0, "rental_uris": {"ios": "https://dc.lft.to/lastmile_qr_scan", "android": "https://dc.lft.to/lastmile_qr_scan"}, "lon": -76.97329633333334, "type": "electric_scooter"}, {"bike_id": "5117322a3951d27ad21423b9d2b5c4ca", "is_reserved": 0, "fusion_lon": 0.0, "lat": 38.91698516666666, "is_disabled": 0, "name": "5117322a3951d27ad21423b9d2b5c4ca", "fusion_lat": 0.0, "rental_uris": {"ios": "https://dc.lft.to/lastmile_qr_scan", "android": "https://dc.lft.to/lastmile_qr_scan"}, "lon": -77.02893583333334, "type": "electric_scooter"}, {"bike_id": "9c7a40cadf481a9648307f9c0a48b828", "is_reserved": 0, "fusion_lon": 0.0, "lat": 38.92240483333333, "is_disabled": 0, "name": "9c7a40cadf481a9648307f9c0a48b828", "fusion_lat": 0.0, "rental_uris": {"ios": "https://dc.lft.to/lastmile_qr_scan", "android": "https://dc.lft.to/lastmile_qr_scan"}, "lon": -77.0426885, "type": "electric_scooter"}, {"bike_id": "59604afa5cce2e25139da5d794014435", "is_reserved": 0, "fusion_lon": 0.0, "lat": 38.90512916666667, "is_disabled": 0, "name": "59604afa5cce2e25139da5d794014435", "fusion_lat": 0.0, "rental_uris": {"ios": "https://dc.lft.to/lastmile_qr_scan", "android": "https://dc.lft.to/lastmile_qr_scan"}, "lon": -77.0653635, "type": "electric_scooter"}, {"bike_id": "662aea826826eb2d9cf8c010c919ddb6", "is_reserved": 0, "fusion_lon": 0.0, "lat": 38.9217585, "is_disabled": 0, "name": "662aea826826eb2d9cf8c010c919ddb6", "fusion_lat": 0.0, "rental_uris": {"ios": "https://dc.lft.to/lastmile_qr_scan", "android": "https://dc.lft.to/lastmile_qr_scan"}, "lon": -77.042376, "type": "electric_scooter"}, {"bike_id": "62a5fcd1a9d34e11b68b54bd75350797", "is_reserved": 0, "fusion_lon": 0.0, "lat": 39.03048583333333, "is_disabled": 0, "name": "62a5fcd1a9d34e11b68b54bd75350797", "fusion_lat": 0.0, "rental_uris": {"ios": "https://dc.lft.to/lastmile_qr_scan", "android": "https://dc.lft.to/lastmile_qr_scan"}, "lon": -77.09485183333334, "type": "electric_bike"}, {"bike_id": "a28e8051ab4deb309ad837fefecba52d", "is_reserved": 0, "fusion_lon": 0.0, "lat": 38.898252166666666, "is_disabled": 0, "name": "a28e8051ab4deb309ad837fefecba52d", "fusion_lat": 0.0, "rental_uris": {"ios": "https://dc.lft.to/lastmile_qr_scan", "android": "https://dc.lft.to/lastmile_qr_scan"}, "lon": -76.9803995, "type": "electric_scooter"}, {"bike_id": "d07cfed21a92599618bb0a3fb121d1e1", "is_reserved": 0, "fusion_lon": 0.0, "lat": 38.887057666666664, "is_disabled": 0, "name": "d07cfed21a92599618bb0a3fb121d1e1", "fusion_lat": 0.0, "rental_uris": {"ios": "https://dc.lft.to/lastmile_qr_scan", "android": "https://dc.lft.to/lastmile_qr_scan"}, "lon": -77.00154666666667, "type": "electric_scooter"}, {"bike_id": "1f07b756a721eeddcb6ee2aca941f82e", "is_reserved": 0, "fusion_lon": 0.0, "lat": 38.90325766666667, "is_disabled": 0, "name": "1f07b756a721eeddcb6ee2aca941f82e", "fusion_lat": 0.0, "rental_uris": {"ios": "https://dc.lft.to/lastmile_qr_scan", "android": "https://dc.lft.to/lastmile_qr_scan"}, "lon": -76.98022, "type": "electric_scooter"}, {"bike_id": "5fa6cf9d727d67252570bf5cff8b3819", "is_reserved": 0, "fusion_lon": 0.0, "lat": 38.923108, "is_disabled": 0, "name": "5fa6cf9d727d67252570bf5cff8b3819", "fusion_lat": 0.0, "rental_uris": {"ios": "https://dc.lft.to/lastmile_qr_scan", "android": "https://dc.lft.to/lastmile_qr_scan"}, "lon": -77.021174, "type": "electric_scooter"}, {"bike_id": "b29184f3f3373f1ff95ef3f924605c17", "is_reserved": 0, "fusion_lon": 0.0, "lat": 38.89615083333333, "is_disabled": 0, "name": "b29184f3f3373f1ff95ef3f924605c17", "fusion_lat": 0.0, "rental_uris": {"ios": "https://dc.lft.to/lastmile_qr_scan", "android": "https://dc.lft.to/lastmile_qr_scan"}, "lon": -77.002667, "type": "electric_scooter"}, {"bike_id": "4c85bec376f7ef54cd5131ccb4331a3b", "is_reserved": 0, "fusion_lon": 0.0, "lat": 38.893559333333336, "is_disabled": 0, "name": "4c85bec376f7ef54cd5131ccb4331a3b", "fusion_lat": 0.0, "rental_uris": {"ios": "https://dc.lft.to/lastmile_qr_scan", "android": "https://dc.lft.to/lastmile_qr_scan"}, "lon": -77.03199033333334, "type": "electric_scooter"}, {"bike_id": "28eb0cf1d32e0bbe83e4a94de44f75ad", "is_reserved": 0, "fusion_lon": 0.0, "lat": 38.9196595, "is_disabled": 0, "name": "28eb0cf1d32e0bbe83e4a94de44f75ad", "fusion_lat": 0.0, "rental_uris": {"ios": "https://dc.lft.to/lastmile_qr_scan", "android": "https://dc.lft.to/lastmile_qr_scan"}, "lon": -77.03209466666667, "type": "electric_scooter"}, {"bike_id": "17211031e62b8ce6f92d179519cb5da5", "is_reserved": 0, "fusion_lon": 0.0, "lat": 38.919479, "is_disabled": 0, "name": "17211031e62b8ce6f92d179519cb5da5", "fusion_lat": 0.0, "rental_uris": {"ios": "https://dc.lft.to/lastmile_qr_scan", "android": "https://dc.lft.to/lastmile_qr_scan"}, "lon": -77.03187316666667, "type": "electric_scooter"}, {"bike_id": "b111a2cd4da5708bd98681b516f6fbb7", "is_reserved": 0, "fusion_lon": 0.0, "lat": 38.94087616666667, "is_disabled": 0, "name": "b111a2cd4da5708bd98681b516f6fbb7", "fusion_lat": 0.0, "rental_uris": {"ios": "https://dc.lft.to/lastmile_qr_scan", "android": "https://dc.lft.to/lastmile_qr_scan"}, "lon": -77.02721433333333, "type": "electric_scooter"}, {"bike_id": "a23aa92ff708b9574fb71920b3a7ad89", "is_reserved": 0, "fusion_lon": 0.0, "lat": 38.9353265, "is_disabled": 0, "name": "a23aa92ff708b9574fb71920b3a7ad89", "fusion_lat": 0.0, "rental_uris": {"ios": "https://dc.lft.to/lastmile_qr_scan", "android": "https://dc.lft.to/lastmile_qr_scan"}, "lon": -77.0235455, "type": "electric_scooter"}, {"bike_id": "3a1910f239cc0c872977454aa468b696", "is_reserved": 0, "fusion_lon": 0.0, "lat": 38.950862, "is_disabled": 0, "name": "3a1910f239cc0c872977454aa468b696", "fusion_lat": 0.0, "rental_uris": {"ios": "https://dc.lft.to/lastmile_qr_scan", "android": "https://dc.lft.to/lastmile_qr_scan"}, "lon": -77.02835916666666, "type": "electric_scooter"}, {"bike_id": "8aada9901a83e89710519506faf2924e", "is_reserved": 0, "fusion_lon": 0.0, "lat": 38.8208365, "is_disabled": 0, "name": "8aada9901a83e89710519506faf2924e", "fusion_lat": 0.0, "rental_uris": {"ios": "https://dc.lft.to/lastmile_qr_scan", "android": "https://dc.lft.to/lastmile_qr_scan"}, "lon": -77.0537395, "type": "electric_bike"}, {"bike_id": "ca76a5cf3ee86a2a8ee7d0d4c128e970", "is_reserved": 0, "fusion_lon": 0.0, "lat": 38.89896433333333, "is_disabled": 0, "name": "ca76a5cf3ee86a2a8ee7d0d4c128e970", "fusion_lat": 0.0, "rental_uris": {"ios": "https://dc.lft.to/lastmile_qr_scan", "android": "https://dc.lft.to/lastmile_qr_scan"}, "lon": -77.007469, "type": "electric_scooter"}, {"bike_id": "5dd1e676cc9eee4af990dea1d874c733", "is_reserved": 0, "fusion_lon": 0.0, "lat": 38.9910345, "is_disabled": 0, "name": "5dd1e676cc9eee4af990dea1d874c733", "fusion_lat": 0.0, "rental_uris": {"ios": "https://dc.lft.to/lastmile_qr_scan", "android": "https://dc.lft.to/lastmile_qr_scan"}, "lon": -76.989026, "type": "electric_bike"}, {"bike_id": "5f0451500546c46dfccc308d403caae5", "is_reserved": 0, "fusion_lon": 0.0, "lat": 38.919187, "is_disabled": 0, "name": "5f0451500546c46dfccc308d403caae5", "fusion_lat": 0.0, "rental_uris": {"ios": "https://dc.lft.to/lastmile_qr_scan", "android": "https://dc.lft.to/lastmile_qr_scan"}, "lon": -77.03195516666666, "type": "electric_scooter"}, {"bike_id": "e89cf97189aa026893bddf0fb5172e0a", "is_reserved": 0, "fusion_lon": 0.0, "lat": 38.926353166666665, "is_disabled": 0, "name": "e89cf97189aa026893bddf0fb5172e0a", "fusion_lat": 0.0, "rental_uris": {"ios": "https://dc.lft.to/lastmile_qr_scan", "android": "https://dc.lft.to/lastmile_qr_scan"}, "lon": -77.0134345, "type": "electric_scooter"}, {"bike_id": "6ee4c313898d569161b33e36e8a48206", "is_reserved": 0, "fusion_lon": 0.0, "lat": 38.91824533333333, "is_disabled": 0, "name": "6ee4c313898d569161b33e36e8a48206", "fusion_lat": 0.0, "rental_uris": {"ios": "https://dc.lft.to/lastmile_qr_scan", "android": "https://dc.lft.to/lastmile_qr_scan"}, "lon": -77.03532333333334, "type": "electric_scooter"}, {"bike_id": "2f2c7b78ff37a70d4bd84296814a7b2b", "is_reserved": 0, "fusion_lon": 0.0, "lat": 38.92187883333333, "is_disabled": 0, "name": "2f2c7b78ff37a70d4bd84296814a7b2b", "fusion_lat": 0.0, "rental_uris": {"ios": "https://dc.lft.to/lastmile_qr_scan", "android": "https://dc.lft.to/lastmile_qr_scan"}, "lon": -77.04265816666667, "type": "electric_scooter"}, {"bike_id": "168ad31eed7719515c066b0492ae1bae", "is_reserved": 0, "fusion_lon": 0.0, "lat": 38.898422, "is_disabled": 0, "name": "168ad31eed7719515c066b0492ae1bae", "fusion_lat": 0.0, "rental_uris": {"ios": "https://dc.lft.to/lastmile_qr_scan", "android": "https://dc.lft.to/lastmile_qr_scan"}, "lon": -77.0434515, "type": "electric_scooter"}, {"bike_id": "6daac8b719e4218a15621a2948b620e2", "is_reserved": 0, "fusion_lon": 0.0, "lat": 38.9034955, "is_disabled": 0, "name": "6daac8b719e4218a15621a2948b620e2", "fusion_lat": 0.0, "rental_uris": {"ios": "https://dc.lft.to/lastmile_qr_scan", "android": "https://dc.lft.to/lastmile_qr_scan"}, "lon": -77.02969, "type": "electric_scooter"}, {"bike_id": "456d055466a2e0cd501cf692eb910645", "is_reserved": 0, "fusion_lon": 0.0, "lat": 38.9078405, "is_disabled": 0, "name": "456d055466a2e0cd501cf692eb910645", "fusion_lat": 0.0, "rental_uris": {"ios": "https://dc.lft.to/lastmile_qr_scan", "android": "https://dc.lft.to/lastmile_qr_scan"}, "lon": -77.032129, "type": "electric_scooter"}, {"bike_id": "9c67dee4f5f422358be015c5ce26d8a9", "is_reserved": 0, "fusion_lon": 0.0, "lat": 38.89826266666667, "is_disabled": 0, "name": "9c67dee4f5f422358be015c5ce26d8a9", "fusion_lat": 0.0, "rental_uris": {"ios": "https://dc.lft.to/lastmile_qr_scan", "android": "https://dc.lft.to/lastmile_qr_scan"}, "lon": -76.946522, "type": "electric_scooter"}, {"bike_id": "19cfa43fac9ef9d8d3579603d1cec0db", "is_reserved": 0, "fusion_lon": 0.0, "lat": 38.937468833333334, "is_disabled": 0, "name": "19cfa43fac9ef9d8d3579603d1cec0db", "fusion_lat": 0.0, "rental_uris": {"ios": "https://dc.lft.to/lastmile_qr_scan", "android": "https://dc.lft.to/lastmile_qr_scan"}, "lon": -77.02488133333334, "type": "electric_scooter"}, {"bike_id": "791f8ae02c66e12c55daa112da682998", "is_reserved": 0, "fusion_lon": 0.0, "lat": 38.881317833333334, "is_disabled": 0, "name": "791f8ae02c66e12c55daa112da682998", "fusion_lat": 0.0, "rental_uris": {"ios": "https://dc.lft.to/lastmile_qr_scan", "android": "https://dc.lft.to/lastmile_qr_scan"}, "lon": -76.98095366666666, "type": "electric_bike"}, {"bike_id": "cd4adbae6a8ce9e0a3c1e26a7c92f7c3", "is_reserved": 0, "fusion_lon": 0.0, "lat": 38.908784833333335, "is_disabled": 0, "name": "cd4adbae6a8ce9e0a3c1e26a7c92f7c3", "fusion_lat": 0.0, "rental_uris": {"ios": "https://dc.lft.to/lastmile_qr_scan", "android": "https://dc.lft.to/lastmile_qr_scan"}, "lon": -77.0435135, "type": "electric_scooter"}, {"bike_id": "1273e9183ef2c346bfe1095630a4fc1a", "is_reserved": 0, "fusion_lon": 0.0, "lat": 38.9078425, "is_disabled": 0, "name": "1273e9183ef2c346bfe1095630a4fc1a", "fusion_lat": 0.0, "rental_uris": {"ios": "https://dc.lft.to/lastmile_qr_scan", "android": "https://dc.lft.to/lastmile_qr_scan"}, "lon": -77.01109066666666, "type": "electric_scooter"}, {"bike_id": "ac9487400837698dcad2ec9fc87503e1", "is_reserved": 0, "fusion_lon": 0.0, "lat": 38.839812, "is_disabled": 0, "name": "ac9487400837698dcad2ec9fc87503e1", "fusion_lat": 0.0, "rental_uris": {"ios": "https://dc.lft.to/lastmile_qr_scan", "android": "https://dc.lft.to/lastmile_qr_scan"}, "lon": -77.00575183333333, "type": "electric_bike"}, {"bike_id": "8a0ee22051a0202922d5be906ff1011f", "is_reserved": 0, "fusion_lon": 0.0, "lat": 38.900406833333335, "is_disabled": 0, "name": "8a0ee22051a0202922d5be906ff1011f", "fusion_lat": 0.0, "rental_uris": {"ios": "https://dc.lft.to/lastmile_qr_scan", "android": "https://dc.lft.to/lastmile_qr_scan"}, "lon": -77.05030933333333, "type": "electric_scooter"}, {"bike_id": "6bcf510886bb7d4a33d129e4a4a71cf8", "is_reserved": 0, "fusion_lon": 0.0, "lat": 38.899862666666664, "is_disabled": 0, "name": "6bcf510886bb7d4a33d129e4a4a71cf8", "fusion_lat": 0.0, "rental_uris": {"ios": "https://dc.lft.to/lastmile_qr_scan", "android": "https://dc.lft.to/lastmile_qr_scan"}, "lon": -77.05246466666667, "type": "electric_scooter"}, {"bike_id": "fe8ded3600d926c38a11c5285b278355", "is_reserved": 0, "fusion_lon": 0.0, "lat": 38.86654883333333, "is_disabled": 0, "name": "fe8ded3600d926c38a11c5285b278355", "fusion_lat": 0.0, "rental_uris": {"ios": "https://dc.lft.to/lastmile_qr_scan", "android": "https://dc.lft.to/lastmile_qr_scan"}, "lon": -76.99020516666667, "type": "electric_scooter"}, {"bike_id": "ffa1bb38b0cf24fd41e4269ccab375da", "is_reserved": 0, "fusion_lon": 0.0, "lat": 38.9254925, "is_disabled": 0, "name": "ffa1bb38b0cf24fd41e4269ccab375da", "fusion_lat": 0.0, "rental_uris": {"ios": "https://dc.lft.to/lastmile_qr_scan", "android": "https://dc.lft.to/lastmile_qr_scan"}, "lon": -77.037952, "type": "electric_scooter"}, {"bike_id": "0e9cbc2aba21e5210550b7e1ef7cd1ca", "is_reserved": 0, "fusion_lon": 0.0, "lat": 38.89186316666667, "is_disabled": 0, "name": "0e9cbc2aba21e5210550b7e1ef7cd1ca", "fusion_lat": 0.0, "rental_uris": {"ios": "https://dc.lft.to/lastmile_qr_scan", "android": "https://dc.lft.to/lastmile_qr_scan"}, "lon": -77.122668, "type": "electric_bike"}, {"bike_id": "28c7172f3f3a5ed6c350c976ac328c39", "is_reserved": 0, "fusion_lon": 0.0, "lat": 38.8981435, "is_disabled": 0, "name": "28c7172f3f3a5ed6c350c976ac328c39", "fusion_lat": 0.0, "rental_uris": {"ios": "https://dc.lft.to/lastmile_qr_scan", "android": "https://dc.lft.to/lastmile_qr_scan"}, "lon": -76.9908325, "type": "electric_bike"}, {"bike_id": "6fe802d958d172ce49add609ab5694da", "is_reserved": 0, "fusion_lon": 0.0, "lat": 38.924792833333335, "is_disabled": 0, "name": "6fe802d958d172ce49add609ab5694da", "fusion_lat": 0.0, "rental_uris": {"ios": "https://dc.lft.to/lastmile_qr_scan", "android": "https://dc.lft.to/lastmile_qr_scan"}, "lon": -77.05216483333334, "type": "electric_scooter"}, {"bike_id": "68a7b8993996e2e63c1677702d18f9ca", "is_reserved": 0, "fusion_lon": 0.0, "lat": 38.8901895, "is_disabled": 0, "name": "68a7b8993996e2e63c1677702d18f9ca", "fusion_lat": 0.0, "rental_uris": {"ios": "https://dc.lft.to/lastmile_qr_scan", "android": "https://dc.lft.to/lastmile_qr_scan"}, "lon": -76.94118216666666, "type": "electric_scooter"}, {"bike_id": "c47bdc2130837f899397ba1b36263c5b", "is_reserved": 0, "fusion_lon": 0.0, "lat": 38.94086766666667, "is_disabled": 0, "name": "c47bdc2130837f899397ba1b36263c5b", "fusion_lat": 0.0, "rental_uris": {"ios": "https://dc.lft.to/lastmile_qr_scan", "android": "https://dc.lft.to/lastmile_qr_scan"}, "lon": -77.02553183333333, "type": "electric_scooter"}, {"bike_id": "2e3d0415505b984f08e6bd3e010021a2", "is_reserved": 0, "fusion_lon": 0.0, "lat": 38.92893, "is_disabled": 0, "name": "2e3d0415505b984f08e6bd3e010021a2", "fusion_lat": 0.0, "rental_uris": {"ios": "https://dc.lft.to/lastmile_qr_scan", "android": "https://dc.lft.to/lastmile_qr_scan"}, "lon": -77.03298683333334, "type": "electric_scooter"}, {"bike_id": "a28bd45241819f6db49aad529e05dfb9", "is_reserved": 0, "fusion_lon": 0.0, "lat": 38.909622, "is_disabled": 0, "name": "a28bd45241819f6db49aad529e05dfb9", "fusion_lat": 0.0, "rental_uris": {"ios": "https://dc.lft.to/lastmile_qr_scan", "android": "https://dc.lft.to/lastmile_qr_scan"}, "lon": -77.04825416666667, "type": "electric_scooter"}, {"bike_id": "68a92d15cbc97ee7a8f84d45d9c676cd", "is_reserved": 0, "fusion_lon": 0.0, "lat": 38.907143166666664, "is_disabled": 0, "name": "68a92d15cbc97ee7a8f84d45d9c676cd", "fusion_lat": 0.0, "rental_uris": {"ios": "https://dc.lft.to/lastmile_qr_scan", "android": "https://dc.lft.to/lastmile_qr_scan"}, "lon": -76.99796266666667, "type": "electric_scooter"}, {"bike_id": "cff6c5245da7b14ac1393a81b467aa73", "is_reserved": 0, "fusion_lon": 0.0, "lat": 38.93600516666667, "is_disabled": 0, "name": "cff6c5245da7b14ac1393a81b467aa73", "fusion_lat": 0.0, "rental_uris": {"ios": "https://dc.lft.to/lastmile_qr_scan", "android": "https://dc.lft.to/lastmile_qr_scan"}, "lon": -77.02334733333333, "type": "electric_scooter"}, {"bike_id": "6c4e8a0dc16555057bb25ffe2f9f7994", "is_reserved": 0, "fusion_lon": 0.0, "lat": 38.88299216666667, "is_disabled": 0, "name": "6c4e8a0dc16555057bb25ffe2f9f7994", "fusion_lat": 0.0, "rental_uris": {"ios": "https://dc.lft.to/lastmile_qr_scan", "android": "https://dc.lft.to/lastmile_qr_scan"}, "lon": -76.99142916666666, "type": "electric_scooter"}, {"bike_id": "36754122b54cf1ad353d3af35bd314df", "is_reserved": 0, "fusion_lon": 0.0, "lat": 38.902821333333335, "is_disabled": 0, "name": "36754122b54cf1ad353d3af35bd314df", "fusion_lat": 0.0, "rental_uris": {"ios": "https://dc.lft.to/lastmile_qr_scan", "android": "https://dc.lft.to/lastmile_qr_scan"}, "lon": -77.04118433333333, "type": "electric_scooter"}, {"bike_id": "5386410bba0f0947ecea9fb32e840a2f", "is_reserved": 0, "fusion_lon": 0.0, "lat": 38.8580985, "is_disabled": 0, "name": "5386410bba0f0947ecea9fb32e840a2f", "fusion_lat": 0.0, "rental_uris": {"ios": "https://dc.lft.to/lastmile_qr_scan", "android": "https://dc.lft.to/lastmile_qr_scan"}, "lon": -76.9865605, "type": "electric_scooter"}, {"bike_id": "8c55dd8099e895302a2b750fdc8495b2", "is_reserved": 0, "fusion_lon": 0.0, "lat": 38.903844666666664, "is_disabled": 0, "name": "8c55dd8099e895302a2b750fdc8495b2", "fusion_lat": 0.0, "rental_uris": {"ios": "https://dc.lft.to/lastmile_qr_scan", "android": "https://dc.lft.to/lastmile_qr_scan"}, "lon": -77.03983383333333, "type": "electric_scooter"}, {"bike_id": "b87db4e99155c9cb61768c88c3144959", "is_reserved": 0, "fusion_lon": 0.0, "lat": 38.917002333333336, "is_disabled": 0, "name": "b87db4e99155c9cb61768c88c3144959", "fusion_lat": 0.0, "rental_uris": {"ios": "https://dc.lft.to/lastmile_qr_scan", "android": "https://dc.lft.to/lastmile_qr_scan"}, "lon": -77.03230983333333, "type": "electric_scooter"}, {"bike_id": "75600c53b327fada8c0784c4cba45f06", "is_reserved": 0, "fusion_lon": 0.0, "lat": 38.925251, "is_disabled": 0, "name": "75600c53b327fada8c0784c4cba45f06", "fusion_lat": 0.0, "rental_uris": {"ios": "https://dc.lft.to/lastmile_qr_scan", "android": "https://dc.lft.to/lastmile_qr_scan"}, "lon": -77.03856983333333, "type": "electric_scooter"}, {"bike_id": "eebf5eeed24e93f32ab50ca4bd65ab32", "is_reserved": 0, "fusion_lon": 0.0, "lat": 38.93020083333333, "is_disabled": 0, "name": "eebf5eeed24e93f32ab50ca4bd65ab32", "fusion_lat": 0.0, "rental_uris": {"ios": "https://dc.lft.to/lastmile_qr_scan", "android": "https://dc.lft.to/lastmile_qr_scan"}, "lon": -77.03679183333334, "type": "electric_bike"}, {"bike_id": "44c6d44495de52a75facbb06ee2e90bc", "is_reserved": 0, "fusion_lon": 0.0, "lat": 38.89604633333333, "is_disabled": 0, "name": "44c6d44495de52a75facbb06ee2e90bc", "fusion_lat": 0.0, "rental_uris": {"ios": "https://dc.lft.to/lastmile_qr_scan", "android": "https://dc.lft.to/lastmile_qr_scan"}, "lon": -77.03170483333334, "type": "electric_scooter"}, {"bike_id": "3d0a72b0598532ed2986313e310da232", "is_reserved": 0, "fusion_lon": 0.0, "lat": 38.885092, "is_disabled": 0, "name": "3d0a72b0598532ed2986313e310da232", "fusion_lat": 0.0, "rental_uris": {"ios": "https://dc.lft.to/lastmile_qr_scan", "android": "https://dc.lft.to/lastmile_qr_scan"}, "lon": -77.0057335, "type": "electric_scooter"}, {"bike_id": "225d89242c32e6717ed09ed0531952aa", "is_reserved": 0, "fusion_lon": 0.0, "lat": 38.91028, "is_disabled": 0, "name": "225d89242c32e6717ed09ed0531952aa", "fusion_lat": 0.0, "rental_uris": {"ios": "https://dc.lft.to/lastmile_qr_scan", "android": "https://dc.lft.to/lastmile_qr_scan"}, "lon": -77.038426, "type": "electric_scooter"}, {"bike_id": "3af8d9b31e79e12ffa00594fd1ec27f6", "is_reserved": 0, "fusion_lon": 0.0, "lat": 38.893658, "is_disabled": 0, "name": "3af8d9b31e79e12ffa00594fd1ec27f6", "fusion_lat": 0.0, "rental_uris": {"ios": "https://dc.lft.to/lastmile_qr_scan", "android": "https://dc.lft.to/lastmile_qr_scan"}, "lon": -77.03156033333333, "type": "electric_scooter"}, {"bike_id": "1930f30c4a2354b25ab65acbf041e503", "is_reserved": 0, "fusion_lon": 0.0, "lat": 38.90579433333333, "is_disabled": 0, "name": "1930f30c4a2354b25ab65acbf041e503", "fusion_lat": 0.0, "rental_uris": {"ios": "https://dc.lft.to/lastmile_qr_scan", "android": "https://dc.lft.to/lastmile_qr_scan"}, "lon": -77.02691483333334, "type": "electric_scooter"}, {"bike_id": "e92e72a98ffe449411eff596921f3b97", "is_reserved": 0, "fusion_lon": 0.0, "lat": 38.896243166666665, "is_disabled": 0, "name": "e92e72a98ffe449411eff596921f3b97", "fusion_lat": 0.0, "rental_uris": {"ios": "https://dc.lft.to/lastmile_qr_scan", "android": "https://dc.lft.to/lastmile_qr_scan"}, "lon": -76.99848933333334, "type": "electric_scooter"}, {"bike_id": "329461a58e5889b820bae728842f70c0", "is_reserved": 0, "fusion_lon": 0.0, "lat": 38.92360566666667, "is_disabled": 0, "name": "329461a58e5889b820bae728842f70c0", "fusion_lat": 0.0, "rental_uris": {"ios": "https://dc.lft.to/lastmile_qr_scan", "android": "https://dc.lft.to/lastmile_qr_scan"}, "lon": -77.04114716666666, "type": "electric_scooter"}, {"bike_id": "784178816566002b9d11131492d1be32", "is_reserved": 0, "fusion_lon": 0.0, "lat": 39.05631316666667, "is_disabled": 0, "name": "784178816566002b9d11131492d1be32", "fusion_lat": 0.0, "rental_uris": {"ios": "https://dc.lft.to/lastmile_qr_scan", "android": "https://dc.lft.to/lastmile_qr_scan"}, "lon": -77.12529833333333, "type": "electric_bike"}, {"bike_id": "5d142ef88b7e24fcbb0b54569e2d345b", "is_reserved": 0, "fusion_lon": 0.0, "lat": 38.87084883333333, "is_disabled": 0, "name": "5d142ef88b7e24fcbb0b54569e2d345b", "fusion_lat": 0.0, "rental_uris": {"ios": "https://dc.lft.to/lastmile_qr_scan", "android": "https://dc.lft.to/lastmile_qr_scan"}, "lon": -77.0120725, "type": "electric_scooter"}, {"bike_id": "4fb195284dd28a825f9ee9153e063df5", "is_reserved": 0, "fusion_lon": 0.0, "lat": 38.853213333333336, "is_disabled": 0, "name": "4fb195284dd28a825f9ee9153e063df5", "fusion_lat": 0.0, "rental_uris": {"ios": "https://dc.lft.to/lastmile_qr_scan", "android": "https://dc.lft.to/lastmile_qr_scan"}, "lon": -76.98001666666667, "type": "electric_scooter"}, {"bike_id": "574b4b8311cf7e0ba910ea994e4f1c16", "is_reserved": 0, "fusion_lon": 0.0, "lat": 38.91476766666667, "is_disabled": 0, "name": "574b4b8311cf7e0ba910ea994e4f1c16", "fusion_lat": 0.0, "rental_uris": {"ios": "https://dc.lft.to/lastmile_qr_scan", "android": "https://dc.lft.to/lastmile_qr_scan"}, "lon": -77.00950283333333, "type": "electric_scooter"}, {"bike_id": "1f6a0bb98a70c6688883e18cb5d03c2a", "is_reserved": 0, "fusion_lon": 0.0, "lat": 38.937143666666664, "is_disabled": 0, "name": "1f6a0bb98a70c6688883e18cb5d03c2a", "fusion_lat": 0.0, "rental_uris": {"ios": "https://dc.lft.to/lastmile_qr_scan", "android": "https://dc.lft.to/lastmile_qr_scan"}, "lon": -77.02458, "type": "electric_scooter"}, {"bike_id": "9ad5dc23d019594fdbd6fdf15132fe6b", "is_reserved": 0, "fusion_lon": 0.0, "lat": 38.896044, "is_disabled": 0, "name": "9ad5dc23d019594fdbd6fdf15132fe6b", "fusion_lat": 0.0, "rental_uris": {"ios": "https://dc.lft.to/lastmile_qr_scan", "android": "https://dc.lft.to/lastmile_qr_scan"}, "lon": -77.04238633333334, "type": "electric_scooter"}, {"bike_id": "cf6118953a0e25c56804e7fa8b46fc9a", "is_reserved": 0, "fusion_lon": 0.0, "lat": 38.918116166666664, "is_disabled": 0, "name": "cf6118953a0e25c56804e7fa8b46fc9a", "fusion_lat": 0.0, "rental_uris": {"ios": "https://dc.lft.to/lastmile_qr_scan", "android": "https://dc.lft.to/lastmile_qr_scan"}, "lon": -77.024823, "type": "electric_scooter"}, {"bike_id": "6158b43f723641563dd0f25df4faf337", "is_reserved": 0, "fusion_lon": 0.0, "lat": 38.922958333333334, "is_disabled": 0, "name": "6158b43f723641563dd0f25df4faf337", "fusion_lat": 0.0, "rental_uris": {"ios": "https://dc.lft.to/lastmile_qr_scan", "android": "https://dc.lft.to/lastmile_qr_scan"}, "lon": -77.04239983333333, "type": "electric_scooter"}, {"bike_id": "54dbf5b6d48afa633685a6f0850f38a9", "is_reserved": 0, "fusion_lon": 0.0, "lat": 38.899030833333335, "is_disabled": 0, "name": "54dbf5b6d48afa633685a6f0850f38a9", "fusion_lat": 0.0, "rental_uris": {"ios": "https://dc.lft.to/lastmile_qr_scan", "android": "https://dc.lft.to/lastmile_qr_scan"}, "lon": -77.00363616666667, "type": "electric_scooter"}, {"bike_id": "0d927e67c17656260a48e6f8c883626a", "is_reserved": 0, "fusion_lon": 0.0, "lat": 38.933957, "is_disabled": 0, "name": "0d927e67c17656260a48e6f8c883626a", "fusion_lat": 0.0, "rental_uris": {"ios": "https://dc.lft.to/lastmile_qr_scan", "android": "https://dc.lft.to/lastmile_qr_scan"}, "lon": -77.0206435, "type": "electric_scooter"}, {"bike_id": "f4211880b5485090051ffa27b8f89695", "is_reserved": 0, "fusion_lon": 0.0, "lat": 38.961495, "is_disabled": 0, "name": "f4211880b5485090051ffa27b8f89695", "fusion_lat": 0.0, "rental_uris": {"ios": "https://dc.lft.to/lastmile_qr_scan", "android": "https://dc.lft.to/lastmile_qr_scan"}, "lon": -76.9977195, "type": "electric_scooter"}, {"bike_id": "a317cc945ffb7d43c0c5e7e141b7d62f", "is_reserved": 0, "fusion_lon": 0.0, "lat": 38.92219816666667, "is_disabled": 0, "name": "a317cc945ffb7d43c0c5e7e141b7d62f", "fusion_lat": 0.0, "rental_uris": {"ios": "https://dc.lft.to/lastmile_qr_scan", "android": "https://dc.lft.to/lastmile_qr_scan"}, "lon": -77.04313716666667, "type": "electric_scooter"}, {"bike_id": "361b9a11e69112055bab3dd2d0160baa", "is_reserved": 0, "fusion_lon": 0.0, "lat": 38.940438666666665, "is_disabled": 0, "name": "361b9a11e69112055bab3dd2d0160baa", "fusion_lat": 0.0, "rental_uris": {"ios": "https://dc.lft.to/lastmile_qr_scan", "android": "https://dc.lft.to/lastmile_qr_scan"}, "lon": -77.02983216666667, "type": "electric_scooter"}, {"bike_id": "46ef24c3fc45db433530dc245a84478e", "is_reserved": 0, "fusion_lon": 0.0, "lat": 38.9823805, "is_disabled": 0, "name": "46ef24c3fc45db433530dc245a84478e", "fusion_lat": 0.0, "rental_uris": {"ios": "https://dc.lft.to/lastmile_qr_scan", "android": "https://dc.lft.to/lastmile_qr_scan"}, "lon": -77.092035, "type": "electric_bike"}, {"bike_id": "44ca52cf98341a75728ea48d1e77d718", "is_reserved": 0, "fusion_lon": 0.0, "lat": 38.90846633333334, "is_disabled": 0, "name": "44ca52cf98341a75728ea48d1e77d718", "fusion_lat": 0.0, "rental_uris": {"ios": "https://dc.lft.to/lastmile_qr_scan", "android": "https://dc.lft.to/lastmile_qr_scan"}, "lon": -77.04477316666667, "type": "electric_scooter"}, {"bike_id": "a24c1534b7f4dce856b5743cdc64e67d", "is_reserved": 0, "fusion_lon": 0.0, "lat": 38.9224835, "is_disabled": 0, "name": "a24c1534b7f4dce856b5743cdc64e67d", "fusion_lat": 0.0, "rental_uris": {"ios": "https://dc.lft.to/lastmile_qr_scan", "android": "https://dc.lft.to/lastmile_qr_scan"}, "lon": -77.041377, "type": "electric_scooter"}, {"bike_id": "b1ba437d2160a1eb8af63231ac90f37d", "is_reserved": 0, "fusion_lon": 0.0, "lat": 38.845903666666665, "is_disabled": 0, "name": "b1ba437d2160a1eb8af63231ac90f37d", "fusion_lat": 0.0, "rental_uris": {"ios": "https://dc.lft.to/lastmile_qr_scan", "android": "https://dc.lft.to/lastmile_qr_scan"}, "lon": -77.07682733333333, "type": "electric_bike"}, {"bike_id": "d450114faf5debac300992c1e6131cfd", "is_reserved": 0, "fusion_lon": 0.0, "lat": 38.94752783333333, "is_disabled": 0, "name": "d450114faf5debac300992c1e6131cfd", "fusion_lat": 0.0, "rental_uris": {"ios": "https://dc.lft.to/lastmile_qr_scan", "android": "https://dc.lft.to/lastmile_qr_scan"}, "lon": -77.07970683333333, "type": "electric_scooter"}, {"bike_id": "e2f4c9f17f3df225636500e6117b948a", "is_reserved": 0, "fusion_lon": 0.0, "lat": 38.89218666666667, "is_disabled": 0, "name": "e2f4c9f17f3df225636500e6117b948a", "fusion_lat": 0.0, "rental_uris": {"ios": "https://dc.lft.to/lastmile_qr_scan", "android": "https://dc.lft.to/lastmile_qr_scan"}, "lon": -77.04196716666667, "type": "electric_scooter"}, {"bike_id": "af0adbddedacb11e5ee399a164079118", "is_reserved": 0, "fusion_lon": 0.0, "lat": 38.895479, "is_disabled": 0, "name": "af0adbddedacb11e5ee399a164079118", "fusion_lat": 0.0, "rental_uris": {"ios": "https://dc.lft.to/lastmile_qr_scan", "android": "https://dc.lft.to/lastmile_qr_scan"}, "lon": -77.00920633333334, "type": "electric_scooter"}, {"bike_id": "19c09ba04d8dc186f2576828718884f0", "is_reserved": 0, "fusion_lon": 0.0, "lat": 38.94037016666667, "is_disabled": 0, "name": "19c09ba04d8dc186f2576828718884f0", "fusion_lat": 0.0, "rental_uris": {"ios": "https://dc.lft.to/lastmile_qr_scan", "android": "https://dc.lft.to/lastmile_qr_scan"}, "lon": -77.0290895, "type": "electric_scooter"}, {"bike_id": "4fed1c74facd00e2efb2b34c25eea050", "is_reserved": 0, "fusion_lon": 0.0, "lat": 38.866215833333335, "is_disabled": 0, "name": "4fed1c74facd00e2efb2b34c25eea050", "fusion_lat": 0.0, "rental_uris": {"ios": "https://dc.lft.to/lastmile_qr_scan", "android": "https://dc.lft.to/lastmile_qr_scan"}, "lon": -76.986642, "type": "electric_scooter"}, {"bike_id": "771b850db027569dc3173975c118c03c", "is_reserved": 0, "fusion_lon": 0.0, "lat": 38.907834, "is_disabled": 0, "name": "771b850db027569dc3173975c118c03c", "fusion_lat": 0.0, "rental_uris": {"ios": "https://dc.lft.to/lastmile_qr_scan", "android": "https://dc.lft.to/lastmile_qr_scan"}, "lon": -77.0429705, "type": "electric_scooter"}, {"bike_id": "72c142ad5aaa63c6f8597182802a8cb2", "is_reserved": 0, "fusion_lon": 0.0, "lat": 38.900341833333336, "is_disabled": 0, "name": "72c142ad5aaa63c6f8597182802a8cb2", "fusion_lat": 0.0, "rental_uris": {"ios": "https://dc.lft.to/lastmile_qr_scan", "android": "https://dc.lft.to/lastmile_qr_scan"}, "lon": -77.043576, "type": "electric_scooter"}, {"bike_id": "b162cfd42290ef4fb4c569a824fa95d6", "is_reserved": 0, "fusion_lon": 0.0, "lat": 38.928187333333334, "is_disabled": 0, "name": "b162cfd42290ef4fb4c569a824fa95d6", "fusion_lat": 0.0, "rental_uris": {"ios": "https://dc.lft.to/lastmile_qr_scan", "android": "https://dc.lft.to/lastmile_qr_scan"}, "lon": -77.03702016666666, "type": "electric_scooter"}, {"bike_id": "c151eb808f82a5ae558d0023e2219499", "is_reserved": 0, "fusion_lon": 0.0, "lat": 38.902878333333334, "is_disabled": 0, "name": "c151eb808f82a5ae558d0023e2219499", "fusion_lat": 0.0, "rental_uris": {"ios": "https://dc.lft.to/lastmile_qr_scan", "android": "https://dc.lft.to/lastmile_qr_scan"}, "lon": -77.03457133333333, "type": "electric_scooter"}, {"bike_id": "099e505846d00e1d5dff526c2cc681fa", "is_reserved": 0, "fusion_lon": 0.0, "lat": 38.93470416666667, "is_disabled": 0, "name": "099e505846d00e1d5dff526c2cc681fa", "fusion_lat": 0.0, "rental_uris": {"ios": "https://dc.lft.to/lastmile_qr_scan", "android": "https://dc.lft.to/lastmile_qr_scan"}, "lon": -77.01928316666667, "type": "electric_scooter"}, {"bike_id": "c2d12c0bcc8911cb21eef47df4f1a46a", "is_reserved": 0, "fusion_lon": 0.0, "lat": 38.9225545, "is_disabled": 0, "name": "c2d12c0bcc8911cb21eef47df4f1a46a", "fusion_lat": 0.0, "rental_uris": {"ios": "https://dc.lft.to/lastmile_qr_scan", "android": "https://dc.lft.to/lastmile_qr_scan"}, "lon": -77.03196083333333, "type": "electric_scooter"}, {"bike_id": "91def459ea39985ee419a4a73abf2d58", "is_reserved": 0, "fusion_lon": 0.0, "lat": 38.91730316666667, "is_disabled": 0, "name": "91def459ea39985ee419a4a73abf2d58", "fusion_lat": 0.0, "rental_uris": {"ios": "https://dc.lft.to/lastmile_qr_scan", "android": "https://dc.lft.to/lastmile_qr_scan"}, "lon": -77.00801866666667, "type": "electric_scooter"}, {"bike_id": "8fdf2a2b621c3b8f6e5e5b405be18c98", "is_reserved": 0, "fusion_lon": 0.0, "lat": 38.92128983333333, "is_disabled": 0, "name": "8fdf2a2b621c3b8f6e5e5b405be18c98", "fusion_lat": 0.0, "rental_uris": {"ios": "https://dc.lft.to/lastmile_qr_scan", "android": "https://dc.lft.to/lastmile_qr_scan"}, "lon": -77.041269, "type": "electric_scooter"}, {"bike_id": "6e8d27919dde224bc4910265a5802e8a", "is_reserved": 0, "fusion_lon": 0.0, "lat": 38.88504983333333, "is_disabled": 0, "name": "6e8d27919dde224bc4910265a5802e8a", "fusion_lat": 0.0, "rental_uris": {"ios": "https://dc.lft.to/lastmile_qr_scan", "android": "https://dc.lft.to/lastmile_qr_scan"}, "lon": -77.00565716666667, "type": "electric_scooter"}, {"bike_id": "450a8d7f9cdab091ba5e8e75ed38e9bf", "is_reserved": 0, "fusion_lon": 0.0, "lat": 38.9004715, "is_disabled": 0, "name": "450a8d7f9cdab091ba5e8e75ed38e9bf", "fusion_lat": 0.0, "rental_uris": {"ios": "https://dc.lft.to/lastmile_qr_scan", "android": "https://dc.lft.to/lastmile_qr_scan"}, "lon": -77.00073083333334, "type": "electric_scooter"}, {"bike_id": "89d1cf8a7ca2a18d00b973c0857fd8e6", "is_reserved": 0, "fusion_lon": 0.0, "lat": 38.89343566666667, "is_disabled": 0, "name": "89d1cf8a7ca2a18d00b973c0857fd8e6", "fusion_lat": 0.0, "rental_uris": {"ios": "https://dc.lft.to/lastmile_qr_scan", "android": "https://dc.lft.to/lastmile_qr_scan"}, "lon": -76.9493865, "type": "electric_scooter"}, {"bike_id": "02079e564a10ba0b1e961099e85f5982", "is_reserved": 0, "fusion_lon": 0.0, "lat": 38.90265683333333, "is_disabled": 0, "name": "02079e564a10ba0b1e961099e85f5982", "fusion_lat": 0.0, "rental_uris": {"ios": "https://dc.lft.to/lastmile_qr_scan", "android": "https://dc.lft.to/lastmile_qr_scan"}, "lon": -77.03841966666667, "type": "electric_scooter"}, {"bike_id": "6566056042569147c85440fd70b73a76", "is_reserved": 0, "fusion_lon": 0.0, "lat": 38.919448333333335, "is_disabled": 0, "name": "6566056042569147c85440fd70b73a76", "fusion_lat": 0.0, "rental_uris": {"ios": "https://dc.lft.to/lastmile_qr_scan", "android": "https://dc.lft.to/lastmile_qr_scan"}, "lon": -77.04152483333333, "type": "electric_scooter"}, {"bike_id": "d804e459ec17b92bae087cce2701e984", "is_reserved": 0, "fusion_lon": 0.0, "lat": 38.921093666666664, "is_disabled": 0, "name": "d804e459ec17b92bae087cce2701e984", "fusion_lat": 0.0, "rental_uris": {"ios": "https://dc.lft.to/lastmile_qr_scan", "android": "https://dc.lft.to/lastmile_qr_scan"}, "lon": -77.0438415, "type": "electric_scooter"}, {"bike_id": "c044b54f216a54145001a13b23045651", "is_reserved": 0, "fusion_lon": 0.0, "lat": 38.881200166666666, "is_disabled": 0, "name": "c044b54f216a54145001a13b23045651", "fusion_lat": 0.0, "rental_uris": {"ios": "https://dc.lft.to/lastmile_qr_scan", "android": "https://dc.lft.to/lastmile_qr_scan"}, "lon": -77.0010245, "type": "electric_scooter"}, {"bike_id": "fb73f9009d621e7bb0a805e315923d15", "is_reserved": 0, "fusion_lon": 0.0, "lat": 38.878582, "is_disabled": 0, "name": "fb73f9009d621e7bb0a805e315923d15", "fusion_lat": 0.0, "rental_uris": {"ios": "https://dc.lft.to/lastmile_qr_scan", "android": "https://dc.lft.to/lastmile_qr_scan"}, "lon": -76.98995933333333, "type": "electric_scooter"}, {"bike_id": "820204170c9abce96fe0058be3944141", "is_reserved": 0, "fusion_lon": 0.0, "lat": 38.87371533333334, "is_disabled": 0, "name": "820204170c9abce96fe0058be3944141", "fusion_lat": 0.0, "rental_uris": {"ios": "https://dc.lft.to/lastmile_qr_scan", "android": "https://dc.lft.to/lastmile_qr_scan"}, "lon": -77.11805016666666, "type": "electric_bike"}, {"bike_id": "b3f4bdb552fe7226cc891e5643b7d83d", "is_reserved": 0, "fusion_lon": 0.0, "lat": 38.9656245, "is_disabled": 0, "name": "b3f4bdb552fe7226cc891e5643b7d83d", "fusion_lat": 0.0, "rental_uris": {"ios": "https://dc.lft.to/lastmile_qr_scan", "android": "https://dc.lft.to/lastmile_qr_scan"}, "lon": -77.02297783333333, "type": "electric_bike"}, {"bike_id": "885cd40c28d0703730056ce11ee7ea44", "is_reserved": 0, "fusion_lon": 0.0, "lat": 38.944363, "is_disabled": 0, "name": "885cd40c28d0703730056ce11ee7ea44", "fusion_lat": 0.0, "rental_uris": {"ios": "https://dc.lft.to/lastmile_qr_scan", "android": "https://dc.lft.to/lastmile_qr_scan"}, "lon": -76.99207516666667, "type": "electric_scooter"}, {"bike_id": "9affa76b52053e324ea7b06858671803", "is_reserved": 0, "fusion_lon": 0.0, "lat": 38.90599983333333, "is_disabled": 0, "name": "9affa76b52053e324ea7b06858671803", "fusion_lat": 0.0, "rental_uris": {"ios": "https://dc.lft.to/lastmile_qr_scan", "android": "https://dc.lft.to/lastmile_qr_scan"}, "lon": -77.041252, "type": "electric_scooter"}, {"bike_id": "8ca7111d8c6c5533309f5a971cc84645", "is_reserved": 0, "fusion_lon": 0.0, "lat": 38.8922255, "is_disabled": 0, "name": "8ca7111d8c6c5533309f5a971cc84645", "fusion_lat": 0.0, "rental_uris": {"ios": "https://dc.lft.to/lastmile_qr_scan", "android": "https://dc.lft.to/lastmile_qr_scan"}, "lon": -77.03224466666667, "type": "electric_scooter"}, {"bike_id": "4f02fcb010170f45c77013a73d5c0e11", "is_reserved": 0, "fusion_lon": 0.0, "lat": 38.921173333333336, "is_disabled": 0, "name": "4f02fcb010170f45c77013a73d5c0e11", "fusion_lat": 0.0, "rental_uris": {"ios": "https://dc.lft.to/lastmile_qr_scan", "android": "https://dc.lft.to/lastmile_qr_scan"}, "lon": -77.031938, "type": "electric_scooter"}, {"bike_id": "67ce45e0e5730d48427748a456497212", "is_reserved": 0, "fusion_lon": 0.0, "lat": 38.923609166666665, "is_disabled": 0, "name": "67ce45e0e5730d48427748a456497212", "fusion_lat": 0.0, "rental_uris": {"ios": "https://dc.lft.to/lastmile_qr_scan", "android": "https://dc.lft.to/lastmile_qr_scan"}, "lon": -77.05047633333334, "type": "electric_scooter"}, {"bike_id": "ca73d5a1f39163209890d270fa7bc431", "is_reserved": 0, "fusion_lon": 0.0, "lat": 38.92078266666667, "is_disabled": 0, "name": "ca73d5a1f39163209890d270fa7bc431", "fusion_lat": 0.0, "rental_uris": {"ios": "https://dc.lft.to/lastmile_qr_scan", "android": "https://dc.lft.to/lastmile_qr_scan"}, "lon": -77.031631, "type": "electric_scooter"}, {"bike_id": "c511d746e8c5419884fea65c8c577731", "is_reserved": 0, "fusion_lon": 0.0, "lat": 38.90279916666667, "is_disabled": 0, "name": "c511d746e8c5419884fea65c8c577731", "fusion_lat": 0.0, "rental_uris": {"ios": "https://dc.lft.to/lastmile_qr_scan", "android": "https://dc.lft.to/lastmile_qr_scan"}, "lon": -77.036582, "type": "electric_scooter"}, {"bike_id": "b0799b280202fde7a74769fb2fe245f6", "is_reserved": 0, "fusion_lon": 0.0, "lat": 38.933431666666664, "is_disabled": 0, "name": "b0799b280202fde7a74769fb2fe245f6", "fusion_lat": 0.0, "rental_uris": {"ios": "https://dc.lft.to/lastmile_qr_scan", "android": "https://dc.lft.to/lastmile_qr_scan"}, "lon": -77.05868233333334, "type": "electric_scooter"}, {"bike_id": "d6b223e301a621383d3717e86e819393", "is_reserved": 0, "fusion_lon": 0.0, "lat": 38.913258666666664, "is_disabled": 0, "name": "d6b223e301a621383d3717e86e819393", "fusion_lat": 0.0, "rental_uris": {"ios": "https://dc.lft.to/lastmile_qr_scan", "android": "https://dc.lft.to/lastmile_qr_scan"}, "lon": -77.048171, "type": "electric_scooter"}, {"bike_id": "565962ef2cee2385d354a5140e027419", "is_reserved": 0, "fusion_lon": 0.0, "lat": 38.923104333333335, "is_disabled": 0, "name": "565962ef2cee2385d354a5140e027419", "fusion_lat": 0.0, "rental_uris": {"ios": "https://dc.lft.to/lastmile_qr_scan", "android": "https://dc.lft.to/lastmile_qr_scan"}, "lon": -77.0413295, "type": "electric_scooter"}, {"bike_id": "4a072ea370be974bb821e9bb01b9cb67", "is_reserved": 0, "fusion_lon": 0.0, "lat": 38.89244766666667, "is_disabled": 0, "name": "4a072ea370be974bb821e9bb01b9cb67", "fusion_lat": 0.0, "rental_uris": {"ios": "https://dc.lft.to/lastmile_qr_scan", "android": "https://dc.lft.to/lastmile_qr_scan"}, "lon": -77.03959733333333, "type": "electric_scooter"}, {"bike_id": "87539733d97f9a9a427f0f2cb6f021f7", "is_reserved": 0, "fusion_lon": 0.0, "lat": 38.900491833333334, "is_disabled": 0, "name": "87539733d97f9a9a427f0f2cb6f021f7", "fusion_lat": 0.0, "rental_uris": {"ios": "https://dc.lft.to/lastmile_qr_scan", "android": "https://dc.lft.to/lastmile_qr_scan"}, "lon": -77.00230566666667, "type": "electric_scooter"}, {"bike_id": "92c06c0c5b69accf893845c6d9ecbddf", "is_reserved": 0, "fusion_lon": 0.0, "lat": 38.87920116666667, "is_disabled": 0, "name": "92c06c0c5b69accf893845c6d9ecbddf", "fusion_lat": 0.0, "rental_uris": {"ios": "https://dc.lft.to/lastmile_qr_scan", "android": "https://dc.lft.to/lastmile_qr_scan"}, "lon": -76.99256816666667, "type": "electric_scooter"}, {"bike_id": "7764e21a7df44a27cd6a287ed3517d6e", "is_reserved": 0, "fusion_lon": 0.0, "lat": 38.9169015, "is_disabled": 0, "name": "7764e21a7df44a27cd6a287ed3517d6e", "fusion_lat": 0.0, "rental_uris": {"ios": "https://dc.lft.to/lastmile_qr_scan", "android": "https://dc.lft.to/lastmile_qr_scan"}, "lon": -77.01234916666667, "type": "electric_scooter"}, {"bike_id": "9c953cfc287700b639131eb70cce2638", "is_reserved": 0, "fusion_lon": 0.0, "lat": 38.944365, "is_disabled": 0, "name": "9c953cfc287700b639131eb70cce2638", "fusion_lat": 0.0, "rental_uris": {"ios": "https://dc.lft.to/lastmile_qr_scan", "android": "https://dc.lft.to/lastmile_qr_scan"}, "lon": -77.06350033333334, "type": "electric_scooter"}, {"bike_id": "39f25113df5ed594bf9bbc1ce73a3e98", "is_reserved": 0, "fusion_lon": 0.0, "lat": 38.91300733333333, "is_disabled": 0, "name": "39f25113df5ed594bf9bbc1ce73a3e98", "fusion_lat": 0.0, "rental_uris": {"ios": "https://dc.lft.to/lastmile_qr_scan", "android": "https://dc.lft.to/lastmile_qr_scan"}, "lon": -77.08295866666667, "type": "electric_bike"}, {"bike_id": "19f46fd0f5afe4531f2ffe4a97302138", "is_reserved": 0, "fusion_lon": 0.0, "lat": 38.922827833333336, "is_disabled": 0, "name": "19f46fd0f5afe4531f2ffe4a97302138", "fusion_lat": 0.0, "rental_uris": {"ios": "https://dc.lft.to/lastmile_qr_scan", "android": "https://dc.lft.to/lastmile_qr_scan"}, "lon": -77.04150966666667, "type": "electric_scooter"}, {"bike_id": "b79c6a28ab2d8b50dfc20fb77a105292", "is_reserved": 0, "fusion_lon": 0.0, "lat": 38.912490166666664, "is_disabled": 0, "name": "b79c6a28ab2d8b50dfc20fb77a105292", "fusion_lat": 0.0, "rental_uris": {"ios": "https://dc.lft.to/lastmile_qr_scan", "android": "https://dc.lft.to/lastmile_qr_scan"}, "lon": -77.02225866666667, "type": "electric_scooter"}, {"bike_id": "540e61269ba80c87a289eec8439f7648", "is_reserved": 0, "fusion_lon": 0.0, "lat": 38.901341333333335, "is_disabled": 0, "name": "540e61269ba80c87a289eec8439f7648", "fusion_lat": 0.0, "rental_uris": {"ios": "https://dc.lft.to/lastmile_qr_scan", "android": "https://dc.lft.to/lastmile_qr_scan"}, "lon": -77.04464483333334, "type": "electric_scooter"}, {"bike_id": "38d415e4501b4b587f1ba123416a1aab", "is_reserved": 0, "fusion_lon": 0.0, "lat": 38.94471033333333, "is_disabled": 0, "name": "38d415e4501b4b587f1ba123416a1aab", "fusion_lat": 0.0, "rental_uris": {"ios": "https://dc.lft.to/lastmile_qr_scan", "android": "https://dc.lft.to/lastmile_qr_scan"}, "lon": -77.02294666666667, "type": "electric_bike"}, {"bike_id": "eff4e177dbe76497ef2d432b1aeeae74", "is_reserved": 0, "fusion_lon": 0.0, "lat": 38.912573333333334, "is_disabled": 0, "name": "eff4e177dbe76497ef2d432b1aeeae74", "fusion_lat": 0.0, "rental_uris": {"ios": "https://dc.lft.to/lastmile_qr_scan", "android": "https://dc.lft.to/lastmile_qr_scan"}, "lon": -77.04440616666666, "type": "electric_scooter"}, {"bike_id": "f3c454cadcaab8795386f4d385749b59", "is_reserved": 0, "fusion_lon": 0.0, "lat": 38.92381733333333, "is_disabled": 0, "name": "f3c454cadcaab8795386f4d385749b59", "fusion_lat": 0.0, "rental_uris": {"ios": "https://dc.lft.to/lastmile_qr_scan", "android": "https://dc.lft.to/lastmile_qr_scan"}, "lon": -77.03545416666667, "type": "electric_scooter"}, {"bike_id": "f430fe043d63ee663093e365cf0eeb62", "is_reserved": 0, "fusion_lon": 0.0, "lat": 38.92846683333333, "is_disabled": 0, "name": "f430fe043d63ee663093e365cf0eeb62", "fusion_lat": 0.0, "rental_uris": {"ios": "https://dc.lft.to/lastmile_qr_scan", "android": "https://dc.lft.to/lastmile_qr_scan"}, "lon": -77.05429266666667, "type": "electric_scooter"}, {"bike_id": "32045654ed4a549ffa691b3f5621eb2c", "is_reserved": 0, "fusion_lon": 0.0, "lat": 38.924391666666665, "is_disabled": 0, "name": "32045654ed4a549ffa691b3f5621eb2c", "fusion_lat": 0.0, "rental_uris": {"ios": "https://dc.lft.to/lastmile_qr_scan", "android": "https://dc.lft.to/lastmile_qr_scan"}, "lon": -77.04111466666667, "type": "electric_scooter"}, {"bike_id": "801f2f38f67d2bc7fd6f9b447d63b911", "is_reserved": 0, "fusion_lon": 0.0, "lat": 38.88492433333333, "is_disabled": 0, "name": "801f2f38f67d2bc7fd6f9b447d63b911", "fusion_lat": 0.0, "rental_uris": {"ios": "https://dc.lft.to/lastmile_qr_scan", "android": "https://dc.lft.to/lastmile_qr_scan"}, "lon": -77.00898933333333, "type": "electric_scooter"}, {"bike_id": "dc8a1d49c1b2511db83ca2189cef6954", "is_reserved": 0, "fusion_lon": 0.0, "lat": 38.8924365, "is_disabled": 0, "name": "dc8a1d49c1b2511db83ca2189cef6954", "fusion_lat": 0.0, "rental_uris": {"ios": "https://dc.lft.to/lastmile_qr_scan", "android": "https://dc.lft.to/lastmile_qr_scan"}, "lon": -77.03963383333334, "type": "electric_scooter"}, {"bike_id": "6441ab9a518f20d08414d61974f9105b", "is_reserved": 0, "fusion_lon": 0.0, "lat": 38.92309516666667, "is_disabled": 0, "name": "6441ab9a518f20d08414d61974f9105b", "fusion_lat": 0.0, "rental_uris": {"ios": "https://dc.lft.to/lastmile_qr_scan", "android": "https://dc.lft.to/lastmile_qr_scan"}, "lon": -77.04764733333333, "type": "electric_scooter"}, {"bike_id": "9d320d0d5078e75fd93e423376d6d919", "is_reserved": 0, "fusion_lon": 0.0, "lat": 38.8961195, "is_disabled": 0, "name": "9d320d0d5078e75fd93e423376d6d919", "fusion_lat": 0.0, "rental_uris": {"ios": "https://dc.lft.to/lastmile_qr_scan", "android": "https://dc.lft.to/lastmile_qr_scan"}, "lon": -77.047928, "type": "electric_scooter"}, {"bike_id": "cece094620932b30062503d0a8e9b614", "is_reserved": 0, "fusion_lon": 0.0, "lat": 38.86166, "is_disabled": 0, "name": "cece094620932b30062503d0a8e9b614", "fusion_lat": 0.0, "rental_uris": {"ios": "https://dc.lft.to/lastmile_qr_scan", "android": "https://dc.lft.to/lastmile_qr_scan"}, "lon": -76.950686, "type": "electric_bike"}, {"bike_id": "6b545df280577a75229d7bffee11a69d", "is_reserved": 0, "fusion_lon": 0.0, "lat": 38.9126605, "is_disabled": 0, "name": "6b545df280577a75229d7bffee11a69d", "fusion_lat": 0.0, "rental_uris": {"ios": "https://dc.lft.to/lastmile_qr_scan", "android": "https://dc.lft.to/lastmile_qr_scan"}, "lon": -77.022762, "type": "electric_scooter"}, {"bike_id": "b7cce8082056b8fa99fbf8f93082a9ff", "is_reserved": 0, "fusion_lon": 0.0, "lat": 38.89219716666667, "is_disabled": 0, "name": "b7cce8082056b8fa99fbf8f93082a9ff", "fusion_lat": 0.0, "rental_uris": {"ios": "https://dc.lft.to/lastmile_qr_scan", "android": "https://dc.lft.to/lastmile_qr_scan"}, "lon": -77.04193533333333, "type": "electric_scooter"}, {"bike_id": "9597bdc0ab140c096b603617bc42d53e", "is_reserved": 0, "fusion_lon": 0.0, "lat": 38.916821166666665, "is_disabled": 0, "name": "9597bdc0ab140c096b603617bc42d53e", "fusion_lat": 0.0, "rental_uris": {"ios": "https://dc.lft.to/lastmile_qr_scan", "android": "https://dc.lft.to/lastmile_qr_scan"}, "lon": -77.02714433333334, "type": "electric_scooter"}, {"bike_id": "f6dfc9d8315f9cb0e424b1ef316c5c16", "is_reserved": 0, "fusion_lon": 0.0, "lat": 38.905254, "is_disabled": 0, "name": "f6dfc9d8315f9cb0e424b1ef316c5c16", "fusion_lat": 0.0, "rental_uris": {"ios": "https://dc.lft.to/lastmile_qr_scan", "android": "https://dc.lft.to/lastmile_qr_scan"}, "lon": -77.06123033333333, "type": "electric_scooter"}, {"bike_id": "e7a9f47d6e211edc648c4f92ca82a89d", "is_reserved": 0, "fusion_lon": 0.0, "lat": 38.89812766666667, "is_disabled": 0, "name": "e7a9f47d6e211edc648c4f92ca82a89d", "fusion_lat": 0.0, "rental_uris": {"ios": "https://dc.lft.to/lastmile_qr_scan", "android": "https://dc.lft.to/lastmile_qr_scan"}, "lon": -77.03300066666667, "type": "electric_scooter"}, {"bike_id": "ff9764881eb52765f140abaf539ae6d4", "is_reserved": 0, "fusion_lon": 0.0, "lat": 38.896202, "is_disabled": 0, "name": "ff9764881eb52765f140abaf539ae6d4", "fusion_lat": 0.0, "rental_uris": {"ios": "https://dc.lft.to/lastmile_qr_scan", "android": "https://dc.lft.to/lastmile_qr_scan"}, "lon": -76.99850533333333, "type": "electric_scooter"}, {"bike_id": "26176299dbbcc38a62b1eae1c917846a", "is_reserved": 0, "fusion_lon": 0.0, "lat": 38.90568583333334, "is_disabled": 0, "name": "26176299dbbcc38a62b1eae1c917846a", "fusion_lat": 0.0, "rental_uris": {"ios": "https://dc.lft.to/lastmile_qr_scan", "android": "https://dc.lft.to/lastmile_qr_scan"}, "lon": -77.0306955, "type": "electric_scooter"}, {"bike_id": "afa1a82fd077eb08dff34b0d19bb23d6", "is_reserved": 0, "fusion_lon": 0.0, "lat": 38.928880666666664, "is_disabled": 0, "name": "afa1a82fd077eb08dff34b0d19bb23d6", "fusion_lat": 0.0, "rental_uris": {"ios": "https://dc.lft.to/lastmile_qr_scan", "android": "https://dc.lft.to/lastmile_qr_scan"}, "lon": -77.03133866666667, "type": "electric_scooter"}, {"bike_id": "c8b093fbd32017990ee754cb030be639", "is_reserved": 0, "fusion_lon": 0.0, "lat": 38.94147, "is_disabled": 0, "name": "c8b093fbd32017990ee754cb030be639", "fusion_lat": 0.0, "rental_uris": {"ios": "https://dc.lft.to/lastmile_qr_scan", "android": "https://dc.lft.to/lastmile_qr_scan"}, "lon": -77.0299115, "type": "electric_scooter"}, {"bike_id": "a0781710e144c91c972c51d123f1cbbe", "is_reserved": 0, "fusion_lon": 0.0, "lat": 38.92396383333333, "is_disabled": 0, "name": "a0781710e144c91c972c51d123f1cbbe", "fusion_lat": 0.0, "rental_uris": {"ios": "https://dc.lft.to/lastmile_qr_scan", "android": "https://dc.lft.to/lastmile_qr_scan"}, "lon": -77.0364865, "type": "electric_scooter"}, {"bike_id": "ccf29b1961738b76400010655a28446e", "is_reserved": 0, "fusion_lon": 0.0, "lat": 38.89368833333333, "is_disabled": 0, "name": "ccf29b1961738b76400010655a28446e", "fusion_lat": 0.0, "rental_uris": {"ios": "https://dc.lft.to/lastmile_qr_scan", "android": "https://dc.lft.to/lastmile_qr_scan"}, "lon": -76.94964383333334, "type": "electric_scooter"}, {"bike_id": "7d3ea45ad29e8cf9b81386445851a623", "is_reserved": 0, "fusion_lon": 0.0, "lat": 38.93242466666667, "is_disabled": 0, "name": "7d3ea45ad29e8cf9b81386445851a623", "fusion_lat": 0.0, "rental_uris": {"ios": "https://dc.lft.to/lastmile_qr_scan", "android": "https://dc.lft.to/lastmile_qr_scan"}, "lon": -77.03113916666666, "type": "electric_scooter"}, {"bike_id": "acb65779b34ac2ec60812e7c0584af68", "is_reserved": 0, "fusion_lon": 0.0, "lat": 38.89220916666667, "is_disabled": 0, "name": "acb65779b34ac2ec60812e7c0584af68", "fusion_lat": 0.0, "rental_uris": {"ios": "https://dc.lft.to/lastmile_qr_scan", "android": "https://dc.lft.to/lastmile_qr_scan"}, "lon": -77.043692, "type": "electric_scooter"}, {"bike_id": "385235a955d373150088d49474e192dc", "is_reserved": 0, "fusion_lon": 0.0, "lat": 38.92842866666667, "is_disabled": 0, "name": "385235a955d373150088d49474e192dc", "fusion_lat": 0.0, "rental_uris": {"ios": "https://dc.lft.to/lastmile_qr_scan", "android": "https://dc.lft.to/lastmile_qr_scan"}, "lon": -77.05438116666667, "type": "electric_scooter"}, {"bike_id": "f7670b8530fafe521301f4fac5e66816", "is_reserved": 0, "fusion_lon": 0.0, "lat": 38.869007833333335, "is_disabled": 0, "name": "f7670b8530fafe521301f4fac5e66816", "fusion_lat": 0.0, "rental_uris": {"ios": "https://dc.lft.to/lastmile_qr_scan", "android": "https://dc.lft.to/lastmile_qr_scan"}, "lon": -77.13186833333333, "type": "electric_bike"}, {"bike_id": "201e3beead25b1c4c9b4baed9bdd4c69", "is_reserved": 0, "fusion_lon": 0.0, "lat": 38.903249333333335, "is_disabled": 0, "name": "201e3beead25b1c4c9b4baed9bdd4c69", "fusion_lat": 0.0, "rental_uris": {"ios": "https://dc.lft.to/lastmile_qr_scan", "android": "https://dc.lft.to/lastmile_qr_scan"}, "lon": -77.03328333333333, "type": "electric_scooter"}, {"bike_id": "e10bb05841d556ab817f09ef48bc0bf7", "is_reserved": 0, "fusion_lon": 0.0, "lat": 38.916219, "is_disabled": 0, "name": "e10bb05841d556ab817f09ef48bc0bf7", "fusion_lat": 0.0, "rental_uris": {"ios": "https://dc.lft.to/lastmile_qr_scan", "android": "https://dc.lft.to/lastmile_qr_scan"}, "lon": -77.027163, "type": "electric_scooter"}, {"bike_id": "971204991d25492172af98d46a7f2f04", "is_reserved": 0, "fusion_lon": 0.0, "lat": 38.897307833333336, "is_disabled": 0, "name": "971204991d25492172af98d46a7f2f04", "fusion_lat": 0.0, "rental_uris": {"ios": "https://dc.lft.to/lastmile_qr_scan", "android": "https://dc.lft.to/lastmile_qr_scan"}, "lon": -77.05571516666667, "type": "electric_scooter"}, {"bike_id": "38aeb90a5041177f58b05bc077a816cb", "is_reserved": 0, "fusion_lon": 0.0, "lat": 38.9155685, "is_disabled": 0, "name": "38aeb90a5041177f58b05bc077a816cb", "fusion_lat": 0.0, "rental_uris": {"ios": "https://dc.lft.to/lastmile_qr_scan", "android": "https://dc.lft.to/lastmile_qr_scan"}, "lon": -77.053158, "type": "electric_scooter"}, {"bike_id": "a29b0ae937fd8f1725eb99fa479b092a", "is_reserved": 0, "fusion_lon": 0.0, "lat": 38.858068333333335, "is_disabled": 0, "name": "a29b0ae937fd8f1725eb99fa479b092a", "fusion_lat": 0.0, "rental_uris": {"ios": "https://dc.lft.to/lastmile_qr_scan", "android": "https://dc.lft.to/lastmile_qr_scan"}, "lon": -76.98657383333334, "type": "electric_scooter"}, {"bike_id": "be5b06e969ac978475c42302d53a93c3", "is_reserved": 0, "fusion_lon": 0.0, "lat": 38.94433733333334, "is_disabled": 0, "name": "be5b06e969ac978475c42302d53a93c3", "fusion_lat": 0.0, "rental_uris": {"ios": "https://dc.lft.to/lastmile_qr_scan", "android": "https://dc.lft.to/lastmile_qr_scan"}, "lon": -77.06359833333333, "type": "electric_scooter"}, {"bike_id": "4110c8b0a743f9663ccfa73b40c84364", "is_reserved": 0, "fusion_lon": 0.0, "lat": 38.892268, "is_disabled": 0, "name": "4110c8b0a743f9663ccfa73b40c84364", "fusion_lat": 0.0, "rental_uris": {"ios": "https://dc.lft.to/lastmile_qr_scan", "android": "https://dc.lft.to/lastmile_qr_scan"}, "lon": -77.02444433333334, "type": "electric_scooter"}, {"bike_id": "a932c6685cc83d2163081c40375780c7", "is_reserved": 0, "fusion_lon": 0.0, "lat": 38.9010755, "is_disabled": 0, "name": "a932c6685cc83d2163081c40375780c7", "fusion_lat": 0.0, "rental_uris": {"ios": "https://dc.lft.to/lastmile_qr_scan", "android": "https://dc.lft.to/lastmile_qr_scan"}, "lon": -77.049901, "type": "electric_scooter"}, {"bike_id": "974ca607f356b0c5bb596aac71ac6ca7", "is_reserved": 0, "fusion_lon": 0.0, "lat": 38.942254, "is_disabled": 0, "name": "974ca607f356b0c5bb596aac71ac6ca7", "fusion_lat": 0.0, "rental_uris": {"ios": "https://dc.lft.to/lastmile_qr_scan", "android": "https://dc.lft.to/lastmile_qr_scan"}, "lon": -77.0153575, "type": "electric_scooter"}, {"bike_id": "3ac25ed4507ad44cd55ab505d659c50a", "is_reserved": 0, "fusion_lon": 0.0, "lat": 38.90489633333333, "is_disabled": 0, "name": "3ac25ed4507ad44cd55ab505d659c50a", "fusion_lat": 0.0, "rental_uris": {"ios": "https://dc.lft.to/lastmile_qr_scan", "android": "https://dc.lft.to/lastmile_qr_scan"}, "lon": -77.0601875, "type": "electric_scooter"}, {"bike_id": "baf7c1395c0ed6de4d48d94f76a19e85", "is_reserved": 0, "fusion_lon": 0.0, "lat": 39.038789333333334, "is_disabled": 0, "name": "baf7c1395c0ed6de4d48d94f76a19e85", "fusion_lat": 0.0, "rental_uris": {"ios": "https://dc.lft.to/lastmile_qr_scan", "android": "https://dc.lft.to/lastmile_qr_scan"}, "lon": -76.9904735, "type": "electric_bike"}, {"bike_id": "7d885707b50dcc3639b409df677ec21c", "is_reserved": 0, "fusion_lon": 0.0, "lat": 38.89761283333333, "is_disabled": 0, "name": "7d885707b50dcc3639b409df677ec21c", "fusion_lat": 0.0, "rental_uris": {"ios": "https://dc.lft.to/lastmile_qr_scan", "android": "https://dc.lft.to/lastmile_qr_scan"}, "lon": -76.98551483333334, "type": "electric_scooter"}, {"bike_id": "59cf4a0316804cca4066518ee18c5db2", "is_reserved": 0, "fusion_lon": 0.0, "lat": 38.921685, "is_disabled": 0, "name": "59cf4a0316804cca4066518ee18c5db2", "fusion_lat": 0.0, "rental_uris": {"ios": "https://dc.lft.to/lastmile_qr_scan", "android": "https://dc.lft.to/lastmile_qr_scan"}, "lon": -77.05137983333333, "type": "electric_scooter"}, {"bike_id": "81f6e54cc5d7131ac46d4fc1e61cd5c4", "is_reserved": 0, "fusion_lon": 0.0, "lat": 38.917745833333335, "is_disabled": 0, "name": "81f6e54cc5d7131ac46d4fc1e61cd5c4", "fusion_lat": 0.0, "rental_uris": {"ios": "https://dc.lft.to/lastmile_qr_scan", "android": "https://dc.lft.to/lastmile_qr_scan"}, "lon": -77.02289116666667, "type": "electric_scooter"}, {"bike_id": "63148d4cc8547d504533bfea763fdc79", "is_reserved": 0, "fusion_lon": 0.0, "lat": 38.902795833333336, "is_disabled": 0, "name": "63148d4cc8547d504533bfea763fdc79", "fusion_lat": 0.0, "rental_uris": {"ios": "https://dc.lft.to/lastmile_qr_scan", "android": "https://dc.lft.to/lastmile_qr_scan"}, "lon": -77.04065916666667, "type": "electric_scooter"}, {"bike_id": "4e10d8a11f13478a1828498a4ced5208", "is_reserved": 0, "fusion_lon": 0.0, "lat": 38.9388145, "is_disabled": 0, "name": "4e10d8a11f13478a1828498a4ced5208", "fusion_lat": 0.0, "rental_uris": {"ios": "https://dc.lft.to/lastmile_qr_scan", "android": "https://dc.lft.to/lastmile_qr_scan"}, "lon": -77.03294316666667, "type": "electric_scooter"}, {"bike_id": "5bbd0ab9bf5052da38cec967978d2ee6", "is_reserved": 0, "fusion_lon": 0.0, "lat": 38.903672, "is_disabled": 0, "name": "5bbd0ab9bf5052da38cec967978d2ee6", "fusion_lat": 0.0, "rental_uris": {"ios": "https://dc.lft.to/lastmile_qr_scan", "android": "https://dc.lft.to/lastmile_qr_scan"}, "lon": -77.044486, "type": "electric_scooter"}, {"bike_id": "d521017ee9a349638176d796d3eac57d", "is_reserved": 0, "fusion_lon": 0.0, "lat": 38.900443, "is_disabled": 0, "name": "d521017ee9a349638176d796d3eac57d", "fusion_lat": 0.0, "rental_uris": {"ios": "https://dc.lft.to/lastmile_qr_scan", "android": "https://dc.lft.to/lastmile_qr_scan"}, "lon": -77.00773916666667, "type": "electric_scooter"}, {"bike_id": "be31af516023888d04ee5a1e73f5e5f0", "is_reserved": 0, "fusion_lon": 0.0, "lat": 38.92109766666667, "is_disabled": 0, "name": "be31af516023888d04ee5a1e73f5e5f0", "fusion_lat": 0.0, "rental_uris": {"ios": "https://dc.lft.to/lastmile_qr_scan", "android": "https://dc.lft.to/lastmile_qr_scan"}, "lon": -77.0420925, "type": "electric_scooter"}, {"bike_id": "b316896f03fbdf7ec2d5efed5cab01cd", "is_reserved": 0, "fusion_lon": 0.0, "lat": 38.984632, "is_disabled": 0, "name": "b316896f03fbdf7ec2d5efed5cab01cd", "fusion_lat": 0.0, "rental_uris": {"ios": "https://dc.lft.to/lastmile_qr_scan", "android": "https://dc.lft.to/lastmile_qr_scan"}, "lon": -76.95524833333333, "type": "electric_bike"}, {"bike_id": "8771e6bb6dff0a9c8d47998efb583fcc", "is_reserved": 0, "fusion_lon": 0.0, "lat": 38.91966333333333, "is_disabled": 0, "name": "8771e6bb6dff0a9c8d47998efb583fcc", "fusion_lat": 0.0, "rental_uris": {"ios": "https://dc.lft.to/lastmile_qr_scan", "android": "https://dc.lft.to/lastmile_qr_scan"}, "lon": -77.04209566666667, "type": "electric_scooter"}, {"bike_id": "b21f162baf065b72c8121a80c811f8d7", "is_reserved": 0, "fusion_lon": 0.0, "lat": 38.852158333333335, "is_disabled": 0, "name": "b21f162baf065b72c8121a80c811f8d7", "fusion_lat": 0.0, "rental_uris": {"ios": "https://dc.lft.to/lastmile_qr_scan", "android": "https://dc.lft.to/lastmile_qr_scan"}, "lon": -77.12955883333333, "type": "electric_bike"}, {"bike_id": "cf37a371b6db4167770980a32ff1a8e0", "is_reserved": 0, "fusion_lon": 0.0, "lat": 38.92282066666667, "is_disabled": 0, "name": "cf37a371b6db4167770980a32ff1a8e0", "fusion_lat": 0.0, "rental_uris": {"ios": "https://dc.lft.to/lastmile_qr_scan", "android": "https://dc.lft.to/lastmile_qr_scan"}, "lon": -77.04215916666666, "type": "electric_scooter"}, {"bike_id": "a3ed30737779164790a7bead696d2438", "is_reserved": 0, "fusion_lon": 0.0, "lat": 38.865919833333336, "is_disabled": 0, "name": "a3ed30737779164790a7bead696d2438", "fusion_lat": 0.0, "rental_uris": {"ios": "https://dc.lft.to/lastmile_qr_scan", "android": "https://dc.lft.to/lastmile_qr_scan"}, "lon": -76.93227816666666, "type": "electric_bike"}, {"bike_id": "808504143bea34a1a53667e8c83896ab", "is_reserved": 0, "fusion_lon": 0.0, "lat": 38.92783766666667, "is_disabled": 0, "name": "808504143bea34a1a53667e8c83896ab", "fusion_lat": 0.0, "rental_uris": {"ios": "https://dc.lft.to/lastmile_qr_scan", "android": "https://dc.lft.to/lastmile_qr_scan"}, "lon": -77.0315195, "type": "electric_scooter"}, {"bike_id": "7ec101a90caf09d947e6c2b6b8d8e336", "is_reserved": 0, "fusion_lon": 0.0, "lat": 38.89221083333333, "is_disabled": 0, "name": "7ec101a90caf09d947e6c2b6b8d8e336", "fusion_lat": 0.0, "rental_uris": {"ios": "https://dc.lft.to/lastmile_qr_scan", "android": "https://dc.lft.to/lastmile_qr_scan"}, "lon": -77.04658183333333, "type": "electric_scooter"}, {"bike_id": "6db03bbd048c900995dbbf92c97e21dd", "is_reserved": 0, "fusion_lon": 0.0, "lat": 38.896169666666665, "is_disabled": 0, "name": "6db03bbd048c900995dbbf92c97e21dd", "fusion_lat": 0.0, "rental_uris": {"ios": "https://dc.lft.to/lastmile_qr_scan", "android": "https://dc.lft.to/lastmile_qr_scan"}, "lon": -76.99066833333333, "type": "electric_scooter"}, {"bike_id": "f3e187828d21aea78989ad8ab63f502f", "is_reserved": 0, "fusion_lon": 0.0, "lat": 38.92126733333333, "is_disabled": 0, "name": "f3e187828d21aea78989ad8ab63f502f", "fusion_lat": 0.0, "rental_uris": {"ios": "https://dc.lft.to/lastmile_qr_scan", "android": "https://dc.lft.to/lastmile_qr_scan"}, "lon": -77.01802416666666, "type": "electric_scooter"}, {"bike_id": "df802a5bf2090c80669ccf05ae16335f", "is_reserved": 0, "fusion_lon": 0.0, "lat": 38.985899833333335, "is_disabled": 0, "name": "df802a5bf2090c80669ccf05ae16335f", "fusion_lat": 0.0, "rental_uris": {"ios": "https://dc.lft.to/lastmile_qr_scan", "android": "https://dc.lft.to/lastmile_qr_scan"}, "lon": -77.037583, "type": "electric_bike"}, {"bike_id": "1a1f68b7433a55044b300e2de6a8ce49", "is_reserved": 0, "fusion_lon": 0.0, "lat": 38.89627983333333, "is_disabled": 0, "name": "1a1f68b7433a55044b300e2de6a8ce49", "fusion_lat": 0.0, "rental_uris": {"ios": "https://dc.lft.to/lastmile_qr_scan", "android": "https://dc.lft.to/lastmile_qr_scan"}, "lon": -76.98497816666666, "type": "electric_scooter"}, {"bike_id": "515ddc51979e876c6e7829412950f0df", "is_reserved": 0, "fusion_lon": 0.0, "lat": 38.84422816666667, "is_disabled": 0, "name": "515ddc51979e876c6e7829412950f0df", "fusion_lat": 0.0, "rental_uris": {"ios": "https://dc.lft.to/lastmile_qr_scan", "android": "https://dc.lft.to/lastmile_qr_scan"}, "lon": -76.997866, "type": "electric_scooter"}, {"bike_id": "1ef2aaa146819fda4f016690ff19013a", "is_reserved": 0, "fusion_lon": 0.0, "lat": 38.903892666666664, "is_disabled": 0, "name": "1ef2aaa146819fda4f016690ff19013a", "fusion_lat": 0.0, "rental_uris": {"ios": "https://dc.lft.to/lastmile_qr_scan", "android": "https://dc.lft.to/lastmile_qr_scan"}, "lon": -77.04184916666667, "type": "electric_scooter"}, {"bike_id": "400c955e87e83ecf98a1244d713b03c6", "is_reserved": 0, "fusion_lon": 0.0, "lat": 38.911914833333334, "is_disabled": 0, "name": "400c955e87e83ecf98a1244d713b03c6", "fusion_lat": 0.0, "rental_uris": {"ios": "https://dc.lft.to/lastmile_qr_scan", "android": "https://dc.lft.to/lastmile_qr_scan"}, "lon": -77.0609875, "type": "electric_scooter"}, {"bike_id": "45d877cc625edffce2b64438ab3a597a", "is_reserved": 0, "fusion_lon": 0.0, "lat": 38.90386766666666, "is_disabled": 0, "name": "45d877cc625edffce2b64438ab3a597a", "fusion_lat": 0.0, "rental_uris": {"ios": "https://dc.lft.to/lastmile_qr_scan", "android": "https://dc.lft.to/lastmile_qr_scan"}, "lon": -77.0438545, "type": "electric_scooter"}, {"bike_id": "dc924374e851af556c7ccb722033dc86", "is_reserved": 0, "fusion_lon": 0.0, "lat": 38.928315, "is_disabled": 0, "name": "dc924374e851af556c7ccb722033dc86", "fusion_lat": 0.0, "rental_uris": {"ios": "https://dc.lft.to/lastmile_qr_scan", "android": "https://dc.lft.to/lastmile_qr_scan"}, "lon": -77.01331933333333, "type": "electric_scooter"}, {"bike_id": "e7bc4e10f1bbfae494a8a769058746b2", "is_reserved": 0, "fusion_lon": 0.0, "lat": 38.8717895, "is_disabled": 0, "name": "e7bc4e10f1bbfae494a8a769058746b2", "fusion_lat": 0.0, "rental_uris": {"ios": "https://dc.lft.to/lastmile_qr_scan", "android": "https://dc.lft.to/lastmile_qr_scan"}, "lon": -77.00611233333333, "type": "electric_scooter"}, {"bike_id": "e48fa562b0ec7c31942f629d68986c14", "is_reserved": 0, "fusion_lon": 0.0, "lat": 38.9125925, "is_disabled": 0, "name": "e48fa562b0ec7c31942f629d68986c14", "fusion_lat": 0.0, "rental_uris": {"ios": "https://dc.lft.to/lastmile_qr_scan", "android": "https://dc.lft.to/lastmile_qr_scan"}, "lon": -77.0319995, "type": "electric_scooter"}, {"bike_id": "074870d4758d1b62b7981e772a651382", "is_reserved": 0, "fusion_lon": 0.0, "lat": 38.8606125, "is_disabled": 0, "name": "074870d4758d1b62b7981e772a651382", "fusion_lat": 0.0, "rental_uris": {"ios": "https://dc.lft.to/lastmile_qr_scan", "android": "https://dc.lft.to/lastmile_qr_scan"}, "lon": -77.05656966666666, "type": "electric_bike"}, {"bike_id": "fd2bc520270392147e1c12c5b6d30b49", "is_reserved": 0, "fusion_lon": 0.0, "lat": 38.90279, "is_disabled": 0, "name": "fd2bc520270392147e1c12c5b6d30b49", "fusion_lat": 0.0, "rental_uris": {"ios": "https://dc.lft.to/lastmile_qr_scan", "android": "https://dc.lft.to/lastmile_qr_scan"}, "lon": -77.03339016666666, "type": "electric_scooter"}, {"bike_id": "7a46ba943b51992267827dbe30b5eaaf", "is_reserved": 0, "fusion_lon": 0.0, "lat": 38.959541, "is_disabled": 0, "name": "7a46ba943b51992267827dbe30b5eaaf", "fusion_lat": 0.0, "rental_uris": {"ios": "https://dc.lft.to/lastmile_qr_scan", "android": "https://dc.lft.to/lastmile_qr_scan"}, "lon": -77.1009285, "type": "electric_bike"}, {"bike_id": "556bf781635b6f887b5b51db0ef28a8a", "is_reserved": 0, "fusion_lon": 0.0, "lat": 38.87948683333333, "is_disabled": 0, "name": "556bf781635b6f887b5b51db0ef28a8a", "fusion_lat": 0.0, "rental_uris": {"ios": "https://dc.lft.to/lastmile_qr_scan", "android": "https://dc.lft.to/lastmile_qr_scan"}, "lon": -77.005032, "type": "electric_scooter"}, {"bike_id": "a7610b97aa7379ff9273828050ec7316", "is_reserved": 0, "fusion_lon": 0.0, "lat": 38.916808833333334, "is_disabled": 0, "name": "a7610b97aa7379ff9273828050ec7316", "fusion_lat": 0.0, "rental_uris": {"ios": "https://dc.lft.to/lastmile_qr_scan", "android": "https://dc.lft.to/lastmile_qr_scan"}, "lon": -77.02539016666667, "type": "electric_scooter"}, {"bike_id": "765c672eca0d749f0ff333cd1cb61561", "is_reserved": 0, "fusion_lon": 0.0, "lat": 38.884007833333335, "is_disabled": 0, "name": "765c672eca0d749f0ff333cd1cb61561", "fusion_lat": 0.0, "rental_uris": {"ios": "https://dc.lft.to/lastmile_qr_scan", "android": "https://dc.lft.to/lastmile_qr_scan"}, "lon": -77.0302735, "type": "electric_scooter"}, {"bike_id": "75a074ad3670c2321b596fa606102172", "is_reserved": 0, "fusion_lon": 0.0, "lat": 38.909433166666666, "is_disabled": 0, "name": "75a074ad3670c2321b596fa606102172", "fusion_lat": 0.0, "rental_uris": {"ios": "https://dc.lft.to/lastmile_qr_scan", "android": "https://dc.lft.to/lastmile_qr_scan"}, "lon": -77.04874, "type": "electric_scooter"}, {"bike_id": "b2b02833058967731ab4d0dfcdef9cbf", "is_reserved": 0, "fusion_lon": 0.0, "lat": 38.93097083333333, "is_disabled": 0, "name": "b2b02833058967731ab4d0dfcdef9cbf", "fusion_lat": 0.0, "rental_uris": {"ios": "https://dc.lft.to/lastmile_qr_scan", "android": "https://dc.lft.to/lastmile_qr_scan"}, "lon": -77.0395245, "type": "electric_bike"}, {"bike_id": "444cc0b7c35434c38e746fb11a187133", "is_reserved": 0, "fusion_lon": 0.0, "lat": 39.088556833333335, "is_disabled": 0, "name": "444cc0b7c35434c38e746fb11a187133", "fusion_lat": 0.0, "rental_uris": {"ios": "https://dc.lft.to/lastmile_qr_scan", "android": "https://dc.lft.to/lastmile_qr_scan"}, "lon": -77.17844233333334, "type": "electric_bike"}, {"bike_id": "acda6b18c5b345e067f62ef5f8d0530e", "is_reserved": 0, "fusion_lon": 0.0, "lat": 38.915345333333335, "is_disabled": 0, "name": "acda6b18c5b345e067f62ef5f8d0530e", "fusion_lat": 0.0, "rental_uris": {"ios": "https://dc.lft.to/lastmile_qr_scan", "android": "https://dc.lft.to/lastmile_qr_scan"}, "lon": -77.02202366666667, "type": "electric_scooter"}, {"bike_id": "3a0537ebde064852f6ad0989a37e0943", "is_reserved": 0, "fusion_lon": 0.0, "lat": 38.91699966666667, "is_disabled": 0, "name": "3a0537ebde064852f6ad0989a37e0943", "fusion_lat": 0.0, "rental_uris": {"ios": "https://dc.lft.to/lastmile_qr_scan", "android": "https://dc.lft.to/lastmile_qr_scan"}, "lon": -77.02307833333333, "type": "electric_scooter"}, {"bike_id": "ae3d3430be28125196cf130f7febfcff", "is_reserved": 0, "fusion_lon": 0.0, "lat": 38.904960833333334, "is_disabled": 0, "name": "ae3d3430be28125196cf130f7febfcff", "fusion_lat": 0.0, "rental_uris": {"ios": "https://dc.lft.to/lastmile_qr_scan", "android": "https://dc.lft.to/lastmile_qr_scan"}, "lon": -77.04338416666667, "type": "electric_scooter"}, {"bike_id": "3b52e509ad39afdaa2fbe00222f5fd4e", "is_reserved": 0, "fusion_lon": 0.0, "lat": 38.940524833333335, "is_disabled": 0, "name": "3b52e509ad39afdaa2fbe00222f5fd4e", "fusion_lat": 0.0, "rental_uris": {"ios": "https://dc.lft.to/lastmile_qr_scan", "android": "https://dc.lft.to/lastmile_qr_scan"}, "lon": -76.95387033333333, "type": "electric_bike"}, {"bike_id": "3305f9bdf9ac537961bfb6fe585a0882", "is_reserved": 0, "fusion_lon": 0.0, "lat": 38.956521333333335, "is_disabled": 0, "name": "3305f9bdf9ac537961bfb6fe585a0882", "fusion_lat": 0.0, "rental_uris": {"ios": "https://dc.lft.to/lastmile_qr_scan", "android": "https://dc.lft.to/lastmile_qr_scan"}, "lon": -77.0196925, "type": "electric_scooter"}, {"bike_id": "64e1b62b2e2e1930d5830b3b35ffcdac", "is_reserved": 0, "fusion_lon": 0.0, "lat": 38.90155033333333, "is_disabled": 0, "name": "64e1b62b2e2e1930d5830b3b35ffcdac", "fusion_lat": 0.0, "rental_uris": {"ios": "https://dc.lft.to/lastmile_qr_scan", "android": "https://dc.lft.to/lastmile_qr_scan"}, "lon": -76.97633116666667, "type": "electric_scooter"}, {"bike_id": "cf7aea30720da4a2842d752b2fbe6ef4", "is_reserved": 0, "fusion_lon": 0.0, "lat": 38.928577833333335, "is_disabled": 0, "name": "cf7aea30720da4a2842d752b2fbe6ef4", "fusion_lat": 0.0, "rental_uris": {"ios": "https://dc.lft.to/lastmile_qr_scan", "android": "https://dc.lft.to/lastmile_qr_scan"}, "lon": -77.22226033333334, "type": "electric_bike"}, {"bike_id": "d87ed372b4833d50b30adfd6438afab2", "is_reserved": 0, "fusion_lon": 0.0, "lat": 38.880658833333335, "is_disabled": 0, "name": "d87ed372b4833d50b30adfd6438afab2", "fusion_lat": 0.0, "rental_uris": {"ios": "https://dc.lft.to/lastmile_qr_scan", "android": "https://dc.lft.to/lastmile_qr_scan"}, "lon": -76.9949635, "type": "electric_bike"}, {"bike_id": "a9cdc1e445d1b06a2fd929e8138324e2", "is_reserved": 0, "fusion_lon": 0.0, "lat": 38.898736666666665, "is_disabled": 0, "name": "a9cdc1e445d1b06a2fd929e8138324e2", "fusion_lat": 0.0, "rental_uris": {"ios": "https://dc.lft.to/lastmile_qr_scan", "android": "https://dc.lft.to/lastmile_qr_scan"}, "lon": -76.93186166666666, "type": "electric_scooter"}, {"bike_id": "19015aae297c18b2a4ec017ca9ece4c3", "is_reserved": 0, "fusion_lon": 0.0, "lat": 38.970906666666664, "is_disabled": 0, "name": "19015aae297c18b2a4ec017ca9ece4c3", "fusion_lat": 0.0, "rental_uris": {"ios": "https://dc.lft.to/lastmile_qr_scan", "android": "https://dc.lft.to/lastmile_qr_scan"}, "lon": -77.06969283333333, "type": "electric_bike"}, {"bike_id": "847e8d55eb3a303712ab9feb41774f8d", "is_reserved": 0, "fusion_lon": 0.0, "lat": 38.92581033333333, "is_disabled": 0, "name": "847e8d55eb3a303712ab9feb41774f8d", "fusion_lat": 0.0, "rental_uris": {"ios": "https://dc.lft.to/lastmile_qr_scan", "android": "https://dc.lft.to/lastmile_qr_scan"}, "lon": -77.0048175, "type": "electric_scooter"}, {"bike_id": "c52c0a1989faa50557747035f32947ed", "is_reserved": 0, "fusion_lon": 0.0, "lat": 38.925038666666666, "is_disabled": 0, "name": "c52c0a1989faa50557747035f32947ed", "fusion_lat": 0.0, "rental_uris": {"ios": "https://dc.lft.to/lastmile_qr_scan", "android": "https://dc.lft.to/lastmile_qr_scan"}, "lon": -77.03886933333334, "type": "electric_scooter"}, {"bike_id": "8fa1c136a422af3a4a305d42f473b5ae", "is_reserved": 0, "fusion_lon": 0.0, "lat": 38.895807833333336, "is_disabled": 0, "name": "8fa1c136a422af3a4a305d42f473b5ae", "fusion_lat": 0.0, "rental_uris": {"ios": "https://dc.lft.to/lastmile_qr_scan", "android": "https://dc.lft.to/lastmile_qr_scan"}, "lon": -77.02578533333333, "type": "electric_scooter"}, {"bike_id": "92d5299a376854a581a751fb2e59cd63", "is_reserved": 0, "fusion_lon": 0.0, "lat": 38.90048616666667, "is_disabled": 0, "name": "92d5299a376854a581a751fb2e59cd63", "fusion_lat": 0.0, "rental_uris": {"ios": "https://dc.lft.to/lastmile_qr_scan", "android": "https://dc.lft.to/lastmile_qr_scan"}, "lon": -77.00220383333334, "type": "electric_scooter"}, {"bike_id": "16e97dba8572d50d31f08c56273c8c43", "is_reserved": 0, "fusion_lon": 0.0, "lat": 38.87963583333333, "is_disabled": 0, "name": "16e97dba8572d50d31f08c56273c8c43", "fusion_lat": 0.0, "rental_uris": {"ios": "https://dc.lft.to/lastmile_qr_scan", "android": "https://dc.lft.to/lastmile_qr_scan"}, "lon": -77.01015966666667, "type": "electric_bike"}, {"bike_id": "44bd5c36600f9822e7bab6450e4b07a8", "is_reserved": 0, "fusion_lon": 0.0, "lat": 38.856987833333335, "is_disabled": 0, "name": "44bd5c36600f9822e7bab6450e4b07a8", "fusion_lat": 0.0, "rental_uris": {"ios": "https://dc.lft.to/lastmile_qr_scan", "android": "https://dc.lft.to/lastmile_qr_scan"}, "lon": -76.98961216666666, "type": "electric_scooter"}, {"bike_id": "8eb926957a9e293b36a47fffbb4ac777", "is_reserved": 0, "fusion_lon": 0.0, "lat": 38.90308866666667, "is_disabled": 0, "name": "8eb926957a9e293b36a47fffbb4ac777", "fusion_lat": 0.0, "rental_uris": {"ios": "https://dc.lft.to/lastmile_qr_scan", "android": "https://dc.lft.to/lastmile_qr_scan"}, "lon": -76.97811633333333, "type": "electric_scooter"}, {"bike_id": "3c29f9beba34ab908d2509d9150741a7", "is_reserved": 0, "fusion_lon": 0.0, "lat": 38.9132695, "is_disabled": 0, "name": "3c29f9beba34ab908d2509d9150741a7", "fusion_lat": 0.0, "rental_uris": {"ios": "https://dc.lft.to/lastmile_qr_scan", "android": "https://dc.lft.to/lastmile_qr_scan"}, "lon": -77.04872466666667, "type": "electric_scooter"}, {"bike_id": "0b734a879390e41d56334c21c0d94bb6", "is_reserved": 0, "fusion_lon": 0.0, "lat": 38.88499016666667, "is_disabled": 0, "name": "0b734a879390e41d56334c21c0d94bb6", "fusion_lat": 0.0, "rental_uris": {"ios": "https://dc.lft.to/lastmile_qr_scan", "android": "https://dc.lft.to/lastmile_qr_scan"}, "lon": -77.01557416666667, "type": "electric_scooter"}, {"bike_id": "a257b5368c72a788aa2167b6c78958ae", "is_reserved": 0, "fusion_lon": 0.0, "lat": 38.893416333333334, "is_disabled": 0, "name": "a257b5368c72a788aa2167b6c78958ae", "fusion_lat": 0.0, "rental_uris": {"ios": "https://dc.lft.to/lastmile_qr_scan", "android": "https://dc.lft.to/lastmile_qr_scan"}, "lon": -76.9845245, "type": "electric_scooter"}, {"bike_id": "a68098b28086ae977316776993df6541", "is_reserved": 0, "fusion_lon": 0.0, "lat": 38.90271966666667, "is_disabled": 0, "name": "a68098b28086ae977316776993df6541", "fusion_lat": 0.0, "rental_uris": {"ios": "https://dc.lft.to/lastmile_qr_scan", "android": "https://dc.lft.to/lastmile_qr_scan"}, "lon": -77.039828, "type": "electric_scooter"}, {"bike_id": "bec9e4e6d0f85d1268a32a1dd16afbb4", "is_reserved": 0, "fusion_lon": 0.0, "lat": 38.91602283333334, "is_disabled": 0, "name": "bec9e4e6d0f85d1268a32a1dd16afbb4", "fusion_lat": 0.0, "rental_uris": {"ios": "https://dc.lft.to/lastmile_qr_scan", "android": "https://dc.lft.to/lastmile_qr_scan"}, "lon": -77.0457235, "type": "electric_scooter"}, {"bike_id": "cc49399c657e4ccd2b04b83c689ae887", "is_reserved": 0, "fusion_lon": 0.0, "lat": 38.8925685, "is_disabled": 0, "name": "cc49399c657e4ccd2b04b83c689ae887", "fusion_lat": 0.0, "rental_uris": {"ios": "https://dc.lft.to/lastmile_qr_scan", "android": "https://dc.lft.to/lastmile_qr_scan"}, "lon": -77.026017, "type": "electric_scooter"}, {"bike_id": "8f69e2f20cb777e975610894df223226", "is_reserved": 0, "fusion_lon": 0.0, "lat": 38.897261, "is_disabled": 0, "name": "8f69e2f20cb777e975610894df223226", "fusion_lat": 0.0, "rental_uris": {"ios": "https://dc.lft.to/lastmile_qr_scan", "android": "https://dc.lft.to/lastmile_qr_scan"}, "lon": -77.04624166666666, "type": "electric_scooter"}, {"bike_id": "a5e3c4d1bc64de2e0c12de06d4703dab", "is_reserved": 0, "fusion_lon": 0.0, "lat": 38.8971405, "is_disabled": 0, "name": "a5e3c4d1bc64de2e0c12de06d4703dab", "fusion_lat": 0.0, "rental_uris": {"ios": "https://dc.lft.to/lastmile_qr_scan", "android": "https://dc.lft.to/lastmile_qr_scan"}, "lon": -77.007985, "type": "electric_scooter"}, {"bike_id": "5d63333256e3d34f1a128ac7a7e7539e", "is_reserved": 0, "fusion_lon": 0.0, "lat": 38.861784666666665, "is_disabled": 0, "name": "5d63333256e3d34f1a128ac7a7e7539e", "fusion_lat": 0.0, "rental_uris": {"ios": "https://dc.lft.to/lastmile_qr_scan", "android": "https://dc.lft.to/lastmile_qr_scan"}, "lon": -76.99431566666667, "type": "electric_scooter"}, {"bike_id": "aba6bdb142a3747214caab018cab009c", "is_reserved": 0, "fusion_lon": 0.0, "lat": 38.8652005, "is_disabled": 0, "name": "aba6bdb142a3747214caab018cab009c", "fusion_lat": 0.0, "rental_uris": {"ios": "https://dc.lft.to/lastmile_qr_scan", "android": "https://dc.lft.to/lastmile_qr_scan"}, "lon": -76.99037683333333, "type": "electric_scooter"}, {"bike_id": "0c519b0217fc9f3759149e4906759425", "is_reserved": 0, "fusion_lon": 0.0, "lat": 38.905372166666666, "is_disabled": 0, "name": "0c519b0217fc9f3759149e4906759425", "fusion_lat": 0.0, "rental_uris": {"ios": "https://dc.lft.to/lastmile_qr_scan", "android": "https://dc.lft.to/lastmile_qr_scan"}, "lon": -77.04695266666667, "type": "electric_scooter"}, {"bike_id": "0633197937baa2e99a07286eea1c522d", "is_reserved": 0, "fusion_lon": 0.0, "lat": 38.93937733333333, "is_disabled": 0, "name": "0633197937baa2e99a07286eea1c522d", "fusion_lat": 0.0, "rental_uris": {"ios": "https://dc.lft.to/lastmile_qr_scan", "android": "https://dc.lft.to/lastmile_qr_scan"}, "lon": -77.06109716666667, "type": "electric_scooter"}, {"bike_id": "7163553f0466e80c07e6da51c8d3d143", "is_reserved": 0, "fusion_lon": 0.0, "lat": 38.8921935, "is_disabled": 0, "name": "7163553f0466e80c07e6da51c8d3d143", "fusion_lat": 0.0, "rental_uris": {"ios": "https://dc.lft.to/lastmile_qr_scan", "android": "https://dc.lft.to/lastmile_qr_scan"}, "lon": -77.04872433333334, "type": "electric_scooter"}, {"bike_id": "ed1bbb952746f57ad5fc71fc2eafe570", "is_reserved": 0, "fusion_lon": 0.0, "lat": 38.890947833333335, "is_disabled": 0, "name": "ed1bbb952746f57ad5fc71fc2eafe570", "fusion_lat": 0.0, "rental_uris": {"ios": "https://dc.lft.to/lastmile_qr_scan", "android": "https://dc.lft.to/lastmile_qr_scan"}, "lon": -76.94393083333334, "type": "electric_scooter"}, {"bike_id": "17e6f73f456cb1d84bb034ba36f8613f", "is_reserved": 0, "fusion_lon": 0.0, "lat": 38.922184333333334, "is_disabled": 0, "name": "17e6f73f456cb1d84bb034ba36f8613f", "fusion_lat": 0.0, "rental_uris": {"ios": "https://dc.lft.to/lastmile_qr_scan", "android": "https://dc.lft.to/lastmile_qr_scan"}, "lon": -77.04246566666667, "type": "electric_scooter"}, {"bike_id": "cb6bb97fef69eedb980ee5982527fe94", "is_reserved": 0, "fusion_lon": 0.0, "lat": 38.9087245, "is_disabled": 0, "name": "cb6bb97fef69eedb980ee5982527fe94", "fusion_lat": 0.0, "rental_uris": {"ios": "https://dc.lft.to/lastmile_qr_scan", "android": "https://dc.lft.to/lastmile_qr_scan"}, "lon": -76.99811016666666, "type": "electric_scooter"}, {"bike_id": "a4fe5565c3bd62ada79b53d6162711a4", "is_reserved": 0, "fusion_lon": 0.0, "lat": 38.88883783333333, "is_disabled": 0, "name": "a4fe5565c3bd62ada79b53d6162711a4", "fusion_lat": 0.0, "rental_uris": {"ios": "https://dc.lft.to/lastmile_qr_scan", "android": "https://dc.lft.to/lastmile_qr_scan"}, "lon": -76.93158966666667, "type": "electric_scooter"}, {"bike_id": "361d051b5d76db20dd17145755570dd0", "is_reserved": 0, "fusion_lon": 0.0, "lat": 38.8954355, "is_disabled": 0, "name": "361d051b5d76db20dd17145755570dd0", "fusion_lat": 0.0, "rental_uris": {"ios": "https://dc.lft.to/lastmile_qr_scan", "android": "https://dc.lft.to/lastmile_qr_scan"}, "lon": -77.02176466666667, "type": "electric_scooter"}, {"bike_id": "dd376dc391e1b79b57508e7563263541", "is_reserved": 0, "fusion_lon": 0.0, "lat": 38.8979155, "is_disabled": 0, "name": "dd376dc391e1b79b57508e7563263541", "fusion_lat": 0.0, "rental_uris": {"ios": "https://dc.lft.to/lastmile_qr_scan", "android": "https://dc.lft.to/lastmile_qr_scan"}, "lon": -76.94691416666667, "type": "electric_scooter"}, {"bike_id": "01c6eb999c7fda280eb4c0912a4c8d76", "is_reserved": 0, "fusion_lon": 0.0, "lat": 38.91536633333333, "is_disabled": 0, "name": "01c6eb999c7fda280eb4c0912a4c8d76", "fusion_lat": 0.0, "rental_uris": {"ios": "https://dc.lft.to/lastmile_qr_scan", "android": "https://dc.lft.to/lastmile_qr_scan"}, "lon": -77.02007783333333, "type": "electric_scooter"}, {"bike_id": "8b40b55701e4de9c2e165ebfed2c6996", "is_reserved": 0, "fusion_lon": 0.0, "lat": 38.9247325, "is_disabled": 0, "name": "8b40b55701e4de9c2e165ebfed2c6996", "fusion_lat": 0.0, "rental_uris": {"ios": "https://dc.lft.to/lastmile_qr_scan", "android": "https://dc.lft.to/lastmile_qr_scan"}, "lon": -77.052232, "type": "electric_scooter"}, {"bike_id": "231e4b8a1e2ffcebd05c493d31eef413", "is_reserved": 0, "fusion_lon": 0.0, "lat": 38.9050345, "is_disabled": 0, "name": "231e4b8a1e2ffcebd05c493d31eef413", "fusion_lat": 0.0, "rental_uris": {"ios": "https://dc.lft.to/lastmile_qr_scan", "android": "https://dc.lft.to/lastmile_qr_scan"}, "lon": -77.06771016666667, "type": "electric_bike"}, {"bike_id": "6633e97258bd37e206e873d949603a51", "is_reserved": 0, "fusion_lon": 0.0, "lat": 38.923676, "is_disabled": 0, "name": "6633e97258bd37e206e873d949603a51", "fusion_lat": 0.0, "rental_uris": {"ios": "https://dc.lft.to/lastmile_qr_scan", "android": "https://dc.lft.to/lastmile_qr_scan"}, "lon": -77.019211, "type": "electric_scooter"}, {"bike_id": "020c02c11841bfab8b98a46abe242048", "is_reserved": 0, "fusion_lon": 0.0, "lat": 38.880152, "is_disabled": 0, "name": "020c02c11841bfab8b98a46abe242048", "fusion_lat": 0.0, "rental_uris": {"ios": "https://dc.lft.to/lastmile_qr_scan", "android": "https://dc.lft.to/lastmile_qr_scan"}, "lon": -77.01755333333334, "type": "electric_scooter"}, {"bike_id": "d5975aec0e295b2856b6d799e0cbbb96", "is_reserved": 0, "fusion_lon": 0.0, "lat": 38.92121233333334, "is_disabled": 0, "name": "d5975aec0e295b2856b6d799e0cbbb96", "fusion_lat": 0.0, "rental_uris": {"ios": "https://dc.lft.to/lastmile_qr_scan", "android": "https://dc.lft.to/lastmile_qr_scan"}, "lon": -77.04124433333334, "type": "electric_scooter"}, {"bike_id": "6c031a6e106b3a4dd25db6ec43d9bd56", "is_reserved": 0, "fusion_lon": 0.0, "lat": 38.885082, "is_disabled": 0, "name": "6c031a6e106b3a4dd25db6ec43d9bd56", "fusion_lat": 0.0, "rental_uris": {"ios": "https://dc.lft.to/lastmile_qr_scan", "android": "https://dc.lft.to/lastmile_qr_scan"}, "lon": -77.0235045, "type": "electric_scooter"}, {"bike_id": "6f46457ac5414fdb787b5281e18933f7", "is_reserved": 0, "fusion_lon": 0.0, "lat": 38.9110665, "is_disabled": 0, "name": "6f46457ac5414fdb787b5281e18933f7", "fusion_lat": 0.0, "rental_uris": {"ios": "https://dc.lft.to/lastmile_qr_scan", "android": "https://dc.lft.to/lastmile_qr_scan"}, "lon": -77.03838316666666, "type": "electric_scooter"}, {"bike_id": "ceef0eea11bbfb951707b8eda44bb3b2", "is_reserved": 0, "fusion_lon": 0.0, "lat": 38.924706, "is_disabled": 0, "name": "ceef0eea11bbfb951707b8eda44bb3b2", "fusion_lat": 0.0, "rental_uris": {"ios": "https://dc.lft.to/lastmile_qr_scan", "android": "https://dc.lft.to/lastmile_qr_scan"}, "lon": -77.03387633333334, "type": "electric_scooter"}, {"bike_id": "9276f669bf74ff0e8fdf5c6370d930cd", "is_reserved": 0, "fusion_lon": 0.0, "lat": 38.896040166666666, "is_disabled": 0, "name": "9276f669bf74ff0e8fdf5c6370d930cd", "fusion_lat": 0.0, "rental_uris": {"ios": "https://dc.lft.to/lastmile_qr_scan", "android": "https://dc.lft.to/lastmile_qr_scan"}, "lon": -76.95521066666667, "type": "electric_scooter"},