{"data": {"bikes": [{"bike_id": "09ff00bd87f890b8f96254403adc3971", "is_reserved": 0, "fusion_lon": 0.0, "lat": 38.91667783333333, "is_disabled": 0, "name": "09ff00bd87f890b8f96254403adc3971", "fusion_lat": 0.0, "rental_uris": {"ios": "https://dc.lft.to/lastmile_qr_scan", "android": "https://dc.lft.to/lastmile_qr_scan"}, "lon": -77.02971616666666, "type": "electric_scooter"}, {"bike_id": "64815894cdb3266ab45ffe5216ce4295", "is_reserved": 0, "fusion_lon": 0.0, "lat": 38.90139966666667, "is_disabled": 0, "name": "64815894cdb3266ab45ffe5216ce4295", "fusion_lat": 0.0, "rental_uris": {"ios": "https://dc.lft.to/lastmile_qr_scan", "android": "https://dc.lft.to/lastmile_qr_scan"}, "lon": -77.02813966666666, "type": "electric_scooter"}, {"bike_id": "3fd75f93d230eaf1e3da18061f203c06", "is_reserved": 0, "fusion_lon": 0.0, "lat": 38.930803166666664, "is_disabled": 0, "name": "3fd75f93d230eaf1e3da18061f203c06", "fusion_lat": 0.0, "rental_uris": {"ios": "https://dc.lft.to/lastmile_qr_scan", "android": "https://dc.lft.to/lastmile_qr_scan"}, "lon": -77.027961, "type": "electric_scooter"}, {"bike_id": "42b0745decd37f4acb2edf2bab15ce33", "is_reserved": 0, "fusion_lon": 0.0, "lat": 38.902750833333336, "is_disabled": 0, "name": "42b0745decd37f4acb2edf2bab15ce33", "fusion_lat": 0.0, "rental_uris": {"ios": "https://dc.lft.to/lastmile_qr_scan", "android": "https://dc.lft.to/lastmile_qr_scan"}, "lon": -77.039159, "type": "electric_scooter"}, {"bike_id": "64a10df7c7cfa287f2057d3d4417b9d8", "is_reserved": 0, "fusion_lon": 0.0, "lat": 38.86658366666666, "is_disabled": 0, "name": "64a10df7c7cfa287f2057d3d4417b9d8", "fusion_lat": 0.0, "rental_uris": {"ios": "https://dc.lft.to/lastmile_qr_scan", "android": "https://dc.lft.to/lastmile_qr_scan"}, "lon": -76.99016, "type": "electric_scooter"}, {"bike_id": "eba3ce61c1c8cb7005ecd4ca62e483c8", "is_reserved": 0, "fusion_lon": 0.0, "lat": 38.900703, "is_disabled": 0, "name": "eba3ce61c1c8cb7005ecd4ca62e483c8", "fusion_lat": 0.0, "rental_uris": {"ios": "https://dc.lft.to/lastmile_qr_scan", "android": "https://dc.lft.to/lastmile_qr_scan"}, "lon": -77.0501095, "type": "electric_scooter"}, {"bike_id": "2ab060f11ab099ede01ea390983953c4", "is_reserved": 0, "fusion_lon": 0.0, "lat": 38.904954333333336, "is_disabled": 0, "name": "2ab060f11ab099ede01ea390983953c4", "fusion_lat": 0.0, "rental_uris": {"ios": "https://dc.lft.to/lastmile_qr_scan", "android": "https://dc.lft.to/lastmile_qr_scan"}, "lon": -77.05748233333334, "type": "electric_scooter"}, {"bike_id": "555b36c4c60b54c0be2322ad2cf68052", "is_reserved": 0, "fusion_lon": 0.0, "lat": 38.9142565, "is_disabled": 0, "name": "555b36c4c60b54c0be2322ad2cf68052", "fusion_lat": 0.0, "rental_uris": {"ios": "https://dc.lft.to/lastmile_qr_scan", "android": "https://dc.lft.to/lastmile_qr_scan"}, "lon": -77.04163716666666, "type": "electric_scooter"}, {"bike_id": "a1be55b639458647e98325db511d7160", "is_reserved": 0, "fusion_lon": 0.0, "lat": 38.839843, "is_disabled": 0, "name": "a1be55b639458647e98325db511d7160", "fusion_lat": 0.0, "rental_uris": {"ios": "https://dc.lft.to/lastmile_qr_scan", "android": "https://dc.lft.to/lastmile_qr_scan"}, "lon": -77.00567833333334, "type": "electric_bike"}, {"bike_id": "199eec7380331325f2b68ab7187b5aa7", "is_reserved": 0, "fusion_lon": 0.0, "lat": 38.89823966666667, "is_disabled": 0, "name": "199eec7380331325f2b68ab7187b5aa7", "fusion_lat": 0.0, "rental_uris": {"ios": "https://dc.lft.to/lastmile_qr_scan", "android": "https://dc.lft.to/lastmile_qr_scan"}, "lon": -76.94649566666666, "type": "electric_scooter"}, {"bike_id": "21d1b01bba93560ee8b60b24b355a036", "is_reserved": 0, "fusion_lon": 0.0, "lat": 38.8813405, "is_disabled": 0, "name": "21d1b01bba93560ee8b60b24b355a036", "fusion_lat": 0.0, "rental_uris": {"ios": "https://dc.lft.to/lastmile_qr_scan", "android": "https://dc.lft.to/lastmile_qr_scan"}, "lon": -76.98088733333333, "type": "electric_bike"}, {"bike_id": "90126d9a63cc52b59e9fabf86fd53050", "is_reserved": 0, "fusion_lon": 0.0, "lat": 38.900535166666664, "is_disabled": 0, "name": "90126d9a63cc52b59e9fabf86fd53050", "fusion_lat": 0.0, "rental_uris": {"ios": "https://dc.lft.to/lastmile_qr_scan", "android": "https://dc.lft.to/lastmile_qr_scan"}, "lon": -77.05143716666667, "type": "electric_scooter"}, {"bike_id": "86480cd29327b1861dc10bf944d04a0b", "is_reserved": 0, "fusion_lon": 0.0, "lat": 38.89479633333333, "is_disabled": 0, "name": "86480cd29327b1861dc10bf944d04a0b", "fusion_lat": 0.0, "rental_uris": {"ios": "https://dc.lft.to/lastmile_qr_scan", "android": "https://dc.lft.to/lastmile_qr_scan"}, "lon": -77.0228995, "type": "electric_scooter"}, {"bike_id": "3c935608652c2ac95d8b66c44cc7267d", "is_reserved": 0, "fusion_lon": 0.0, "lat": 38.914159833333336, "is_disabled": 0, "name": "3c935608652c2ac95d8b66c44cc7267d", "fusion_lat": 0.0, "rental_uris": {"ios": "https://dc.lft.to/lastmile_qr_scan", "android": "https://dc.lft.to/lastmile_qr_scan"}, "lon": -77.038125, "type": "electric_scooter"}, {"bike_id": "5a15687796435f448d8734c080088a48", "is_reserved": 0, "fusion_lon": 0.0, "lat": 38.9014905, "is_disabled": 0, "name": "5a15687796435f448d8734c080088a48", "fusion_lat": 0.0, "rental_uris": {"ios": "https://dc.lft.to/lastmile_qr_scan", "android": "https://dc.lft.to/lastmile_qr_scan"}, "lon": -77.022781, "type": "electric_scooter"}, {"bike_id": "e153f0f7e4ad9a493e1c4955948e2915", "is_reserved": 0, "fusion_lon": 0.0, "lat": 39.09457316666666, "is_disabled": 0, "name": "e153f0f7e4ad9a493e1c4955948e2915", "fusion_lat": 0.0, "rental_uris": {"ios": "https://dc.lft.to/lastmile_qr_scan", "android": "https://dc.lft.to/lastmile_qr_scan"}, "lon": -77.149913, "type": "electric_bike"}, {"bike_id": "ed45ef655f71ce011a8436ab76f503b4", "is_reserved": 0, "fusion_lon": 0.0, "lat": 38.827895, "is_disabled": 0, "name": "ed45ef655f71ce011a8436ab76f503b4", "fusion_lat": 0.0, "rental_uris": {"ios": "https://dc.lft.to/lastmile_qr_scan", "android": "https://dc.lft.to/lastmile_qr_scan"}, "lon": -77.00908116666666, "type": "electric_bike"}, {"bike_id": "dc5ae8d2ac7b9bc46aab994539faec73", "is_reserved": 0, "fusion_lon": 0.0, "lat": 38.9215035, "is_disabled": 0, "name": "dc5ae8d2ac7b9bc46aab994539faec73", "fusion_lat": 0.0, "rental_uris": {"ios": "https://dc.lft.to/lastmile_qr_scan", "android": "https://dc.lft.to/lastmile_qr_scan"}, "lon": -77.03534833333333, "type": "electric_scooter"}, {"bike_id": "f7494f07ab224ac0b84776f440d0b5d1", "is_reserved": 0, "fusion_lon": 0.0, "lat": 38.900019, "is_disabled": 0, "name": "f7494f07ab224ac0b84776f440d0b5d1", "fusion_lat": 0.0, "rental_uris": {"ios": "https://dc.lft.to/lastmile_qr_scan", "android": "https://dc.lft.to/lastmile_qr_scan"}, "lon": -76.99785466666667, "type": "electric_scooter"}, {"bike_id": "36ede7e1b53affc90d6e05573994e3b8", "is_reserved": 0, "fusion_lon": 0.0, "lat": 38.87258883333333, "is_disabled": 0, "name": "36ede7e1b53affc90d6e05573994e3b8", "fusion_lat": 0.0, "rental_uris": {"ios": "https://dc.lft.to/lastmile_qr_scan", "android": "https://dc.lft.to/lastmile_qr_scan"}, "lon": -76.97909466666667, "type": "electric_bike"}, {"bike_id": "1dea2c827a90b637d9d60012b050a7a9", "is_reserved": 0, "fusion_lon": 0.0, "lat": 38.90373966666667, "is_disabled": 0, "name": "1dea2c827a90b637d9d60012b050a7a9", "fusion_lat": 0.0, "rental_uris": {"ios": "https://dc.lft.to/lastmile_qr_scan", "android": "https://dc.lft.to/lastmile_qr_scan"}, "lon": -77.0453935, "type": "electric_scooter"}, {"bike_id": "043c92f3528c709830219b7c62581af4", "is_reserved": 0, "fusion_lon": 0.0, "lat": 38.89845066666667, "is_disabled": 0, "name": "043c92f3528c709830219b7c62581af4", "fusion_lat": 0.0, "rental_uris": {"ios": "https://dc.lft.to/lastmile_qr_scan", "android": "https://dc.lft.to/lastmile_qr_scan"}, "lon": -76.94474916666667, "type": "electric_scooter"}, {"bike_id": "a7104209e2c6ec97007d4dac6ab06c6c", "is_reserved": 0, "fusion_lon": 0.0, "lat": 38.86287433333333, "is_disabled": 0, "name": "a7104209e2c6ec97007d4dac6ab06c6c", "fusion_lat": 0.0, "rental_uris": {"ios": "https://dc.lft.to/lastmile_qr_scan", "android": "https://dc.lft.to/lastmile_qr_scan"}, "lon": -76.99232933333333, "type": "electric_scooter"}, {"bike_id": "7a92e3d9ae8b1079ba91425aa5f2244b", "is_reserved": 0, "fusion_lon": 0.0, "lat": 38.8405495, "is_disabled": 0, "name": "7a92e3d9ae8b1079ba91425aa5f2244b", "fusion_lat": 0.0, "rental_uris": {"ios": "https://dc.lft.to/lastmile_qr_scan", "android": "https://dc.lft.to/lastmile_qr_scan"}, "lon": -77.06402933333334, "type": "electric_bike"}, {"bike_id": "732257dc46f612c8a2aa70c5a8866873", "is_reserved": 0, "fusion_lon": 0.0, "lat": 38.89481216666667, "is_disabled": 0, "name": "732257dc46f612c8a2aa70c5a8866873", "fusion_lat": 0.0, "rental_uris": {"ios": "https://dc.lft.to/lastmile_qr_scan", "android": "https://dc.lft.to/lastmile_qr_scan"}, "lon": -76.9486995, "type": "electric_scooter"}, {"bike_id": "041fd4734d8a5837faa5c33ae91055ae", "is_reserved": 0, "fusion_lon": 0.0, "lat": 38.892211833333334, "is_disabled": 0, "name": "041fd4734d8a5837faa5c33ae91055ae", "fusion_lat": 0.0, "rental_uris": {"ios": "https://dc.lft.to/lastmile_qr_scan", "android": "https://dc.lft.to/lastmile_qr_scan"}, "lon": -77.04370133333333, "type": "electric_scooter"}, {"bike_id": "4b67c7dbfaa4ae11977886c1e6f7ac97", "is_reserved": 0, "fusion_lon": 0.0, "lat": 38.898311, "is_disabled": 0, "name": "4b67c7dbfaa4ae11977886c1e6f7ac97", "fusion_lat": 0.0, "rental_uris": {"ios": "https://dc.lft.to/lastmile_qr_scan", "android": "https://dc.lft.to/lastmile_qr_scan"}, "lon": -76.98046916666667, "type": "electric_scooter"}, {"bike_id": "0ad57b369c81b01c2fed430ffe5fa99d", "is_reserved": 0, "fusion_lon": 0.0, "lat": 38.881098, "is_disabled": 0, "name": "0ad57b369c81b01c2fed430ffe5fa99d", "fusion_lat": 0.0, "rental_uris": {"ios": "https://dc.lft.to/lastmile_qr_scan", "android": "https://dc.lft.to/lastmile_qr_scan"}, "lon": -77.01680766666666, "type": "electric_bike"}, {"bike_id": "57c6ba126f116f99d9834798dd5a8743", "is_reserved": 0, "fusion_lon": 0.0, "lat": 38.906689166666666, "is_disabled": 0, "name": "57c6ba126f116f99d9834798dd5a8743", "fusion_lat": 0.0, "rental_uris": {"ios": "https://dc.lft.to/lastmile_qr_scan", "android": "https://dc.lft.to/lastmile_qr_scan"}, "lon": -76.98783033333333, "type": "electric_scooter"}, {"bike_id": "e402ceaf29e9e5b7e94078fee8fb9d42", "is_reserved": 0, "fusion_lon": 0.0, "lat": 38.90267866666667, "is_disabled": 0, "name": "e402ceaf29e9e5b7e94078fee8fb9d42", "fusion_lat": 0.0, "rental_uris": {"ios": "https://dc.lft.to/lastmile_qr_scan", "android": "https://dc.lft.to/lastmile_qr_scan"}, "lon": -77.03268983333334, "type": "electric_scooter"}, {"bike_id": "6f7de0ec477464d7118771acd4f5ad55", "is_reserved": 0, "fusion_lon": 0.0, "lat": 38.9256765, "is_disabled": 0, "name": "6f7de0ec477464d7118771acd4f5ad55", "fusion_lat": 0.0, "rental_uris": {"ios": "https://dc.lft.to/lastmile_qr_scan", "android": "https://dc.lft.to/lastmile_qr_scan"}, "lon": -77.031029, "type": "electric_scooter"}, {"bike_id": "27ca24688b41aabf126dfc3bddfaf13b", "is_reserved": 0, "fusion_lon": 0.0, "lat": 38.95892966666667, "is_disabled": 0, "name": "27ca24688b41aabf126dfc3bddfaf13b", "fusion_lat": 0.0, "rental_uris": {"ios": "https://dc.lft.to/lastmile_qr_scan", "android": "https://dc.lft.to/lastmile_qr_scan"}, "lon": -76.9247835, "type": "electric_bike"}, {"bike_id": "1d0f92af725f3c87e63fe1bb7d512aac", "is_reserved": 0, "fusion_lon": 0.0, "lat": 38.9183235, "is_disabled": 0, "name": "1d0f92af725f3c87e63fe1bb7d512aac", "fusion_lat": 0.0, "rental_uris": {"ios": "https://dc.lft.to/lastmile_qr_scan", "android": "https://dc.lft.to/lastmile_qr_scan"}, "lon": -77.02285483333333, "type": "electric_scooter"}, {"bike_id": "7f9b1973904011b7a5924838071b78f3", "is_reserved": 0, "fusion_lon": 0.0, "lat": 38.918971166666665, "is_disabled": 0, "name": "7f9b1973904011b7a5924838071b78f3", "fusion_lat": 0.0, "rental_uris": {"ios": "https://dc.lft.to/lastmile_qr_scan", "android": "https://dc.lft.to/lastmile_qr_scan"}, "lon": -77.03187583333333, "type": "electric_scooter"}, {"bike_id": "b4a224eb88312cbd8a7aca9ce4e661cd", "is_reserved": 0, "fusion_lon": 0.0, "lat": 38.87548816666666, "is_disabled": 0, "name": "b4a224eb88312cbd8a7aca9ce4e661cd", "fusion_lat": 0.0, "rental_uris": {"ios": "https://dc.lft.to/lastmile_qr_scan", "android": "https://dc.lft.to/lastmile_qr_scan"}, "lon": -76.96494366666667, "type": "electric_scooter"}, {"bike_id": "689088d9f483c7b56bfeff2002fc8c1f", "is_reserved": 0, "fusion_lon": 0.0, "lat": 38.9103575, "is_disabled": 0, "name": "689088d9f483c7b56bfeff2002fc8c1f", "fusion_lat": 0.0, "rental_uris": {"ios": "https://dc.lft.to/lastmile_qr_scan", "android": "https://dc.lft.to/lastmile_qr_scan"}, "lon": -77.04386566666666, "type": "electric_scooter"}, {"bike_id": "ca12188692cf77f162a9fefb2fb4f43a", "is_reserved": 0, "fusion_lon": 0.0, "lat": 38.888604666666666, "is_disabled": 0, "name": "ca12188692cf77f162a9fefb2fb4f43a", "fusion_lat": 0.0, "rental_uris": {"ios": "https://dc.lft.to/lastmile_qr_scan", "android": "https://dc.lft.to/lastmile_qr_scan"}, "lon": -76.994822, "type": "electric_bike"}, {"bike_id": "ad216a0dc3ad89d634b84bd08a464f99", "is_reserved": 0, "fusion_lon": 0.0, "lat": 38.89524566666667, "is_disabled": 0, "name": "ad216a0dc3ad89d634b84bd08a464f99", "fusion_lat": 0.0, "rental_uris": {"ios": "https://dc.lft.to/lastmile_qr_scan", "android": "https://dc.lft.to/lastmile_qr_scan"}, "lon": -77.04834483333333, "type": "electric_scooter"}, {"bike_id": "6e6d1bc451baac22668d639b64db99d9", "is_reserved": 0, "fusion_lon": 0.0, "lat": 38.862019833333335, "is_disabled": 0, "name": "6e6d1bc451baac22668d639b64db99d9", "fusion_lat": 0.0, "rental_uris": {"ios": "https://dc.lft.to/lastmile_qr_scan", "android": "https://dc.lft.to/lastmile_qr_scan"}, "lon": -76.99461383333333, "type": "electric_scooter"}, {"bike_id": "e3da39a52f633697895987298b14fff0", "is_reserved": 0, "fusion_lon": 0.0, "lat": 38.899548, "is_disabled": 0, "name": "e3da39a52f633697895987298b14fff0", "fusion_lat": 0.0, "rental_uris": {"ios": "https://dc.lft.to/lastmile_qr_scan", "android": "https://dc.lft.to/lastmile_qr_scan"}, "lon": -76.97550516666666, "type": "electric_scooter"}, {"bike_id": "f3d4cde15a258a762fc47ad98a9827a4", "is_reserved": 0, "fusion_lon": 0.0, "lat": 38.8999985, "is_disabled": 0, "name": "f3d4cde15a258a762fc47ad98a9827a4", "fusion_lat": 0.0, "rental_uris": {"ios": "https://dc.lft.to/lastmile_qr_scan", "android": "https://dc.lft.to/lastmile_qr_scan"}, "lon": -77.05228416666667, "type": "electric_scooter"}, {"bike_id": "dda2d208a16cac57416a6448178dc3f0", "is_reserved": 0, "fusion_lon": 0.0, "lat": 38.911009, "is_disabled": 0, "name": "dda2d208a16cac57416a6448178dc3f0", "fusion_lat": 0.0, "rental_uris": {"ios": "https://dc.lft.to/lastmile_qr_scan", "android": "https://dc.lft.to/lastmile_qr_scan"}, "lon": -77.04841933333333, "type": "electric_scooter"}, {"bike_id": "799c780390aea43cb0b37f0c7c6391c0", "is_reserved": 0, "fusion_lon": 0.0, "lat": 38.900316333333336, "is_disabled": 0, "name": "799c780390aea43cb0b37f0c7c6391c0", "fusion_lat": 0.0, "rental_uris": {"ios": "https://dc.lft.to/lastmile_qr_scan", "android": "https://dc.lft.to/lastmile_qr_scan"}, "lon": -76.99538516666667, "type": "electric_scooter"}, {"bike_id": "d6b1e3dc2a6bf98ea9a131b66d274e5a", "is_reserved": 0, "fusion_lon": 0.0, "lat": 38.94085716666667, "is_disabled": 0, "name": "d6b1e3dc2a6bf98ea9a131b66d274e5a", "fusion_lat": 0.0, "rental_uris": {"ios": "https://dc.lft.to/lastmile_qr_scan", "android": "https://dc.lft.to/lastmile_qr_scan"}, "lon": -77.06193033333334, "type": "electric_scooter"}, {"bike_id": "7025a7e74f929730ea518071bff4c0b4", "is_reserved": 0, "fusion_lon": 0.0, "lat": 38.91612383333333, "is_disabled": 0, "name": "7025a7e74f929730ea518071bff4c0b4", "fusion_lat": 0.0, "rental_uris": {"ios": "https://dc.lft.to/lastmile_qr_scan", "android": "https://dc.lft.to/lastmile_qr_scan"}, "lon": -77.04574333333333, "type": "electric_scooter"}, {"bike_id": "242586b94caf8323cbae1ce08853f214", "is_reserved": 0, "fusion_lon": 0.0, "lat": 38.897334, "is_disabled": 0, "name": "242586b94caf8323cbae1ce08853f214", "fusion_lat": 0.0, "rental_uris": {"ios": "https://dc.lft.to/lastmile_qr_scan", "android": "https://dc.lft.to/lastmile_qr_scan"}, "lon": -77.0462695, "type": "electric_scooter"}, {"bike_id": "b017fcfd311c8f3ded78692fab96c567", "is_reserved": 0, "fusion_lon": 0.0, "lat": 38.892641166666664, "is_disabled": 0, "name": "b017fcfd311c8f3ded78692fab96c567", "fusion_lat": 0.0, "rental_uris": {"ios": "https://dc.lft.to/lastmile_qr_scan", "android": "https://dc.lft.to/lastmile_qr_scan"}, "lon": -77.02583683333333, "type": "electric_scooter"}, {"bike_id": "d5eb9b00a60f3bd3761f0e62e32d3eed", "is_reserved": 0, "fusion_lon": 0.0, "lat": 38.85177783333334, "is_disabled": 0, "name": "d5eb9b00a60f3bd3761f0e62e32d3eed", "fusion_lat": 0.0, "rental_uris": {"ios": "https://dc.lft.to/lastmile_qr_scan", "android": "https://dc.lft.to/lastmile_qr_scan"}, "lon": -76.9957835, "type": "electric_scooter"}, {"bike_id": "2f7e5c1bac4573df3b5936d28a7d879e", "is_reserved": 0, "fusion_lon": 0.0, "lat": 38.8651495, "is_disabled": 0, "name": "2f7e5c1bac4573df3b5936d28a7d879e", "fusion_lat": 0.0, "rental_uris": {"ios": "https://dc.lft.to/lastmile_qr_scan", "android": "https://dc.lft.to/lastmile_qr_scan"}, "lon": -76.99031033333333, "type": "electric_scooter"}, {"bike_id": "1bd4552399057b914606209330267034", "is_reserved": 0, "fusion_lon": 0.0, "lat": 38.9017825, "is_disabled": 0, "name": "1bd4552399057b914606209330267034", "fusion_lat": 0.0, "rental_uris": {"ios": "https://dc.lft.to/lastmile_qr_scan", "android": "https://dc.lft.to/lastmile_qr_scan"}, "lon": -77.02210183333334, "type": "electric_scooter"}, {"bike_id": "ee450b0f93fefb4bbe50589d864043b4", "is_reserved": 0, "fusion_lon": 0.0, "lat": 38.90472483333333, "is_disabled": 0, "name": "ee450b0f93fefb4bbe50589d864043b4", "fusion_lat": 0.0, "rental_uris": {"ios": "https://dc.lft.to/lastmile_qr_scan", "android": "https://dc.lft.to/lastmile_qr_scan"}, "lon": -77.04649483333333, "type": "electric_scooter"}, {"bike_id": "005d6d88cbf56cd934a162e183d12c35", "is_reserved": 0, "fusion_lon": 0.0, "lat": 38.91691816666667, "is_disabled": 0, "name": "005d6d88cbf56cd934a162e183d12c35", "fusion_lat": 0.0, "rental_uris": {"ios": "https://dc.lft.to/lastmile_qr_scan", "android": "https://dc.lft.to/lastmile_qr_scan"}, "lon": -77.036452, "type": "electric_scooter"}, {"bike_id": "9a02d4e40af8f596007707ee8a05ce21", "is_reserved": 0, "fusion_lon": 0.0, "lat": 38.884098333333334, "is_disabled": 0, "name": "9a02d4e40af8f596007707ee8a05ce21", "fusion_lat": 0.0, "rental_uris": {"ios": "https://dc.lft.to/lastmile_qr_scan", "android": "https://dc.lft.to/lastmile_qr_scan"}, "lon": -77.0153325, "type": "electric_scooter"}, {"bike_id": "8b4dbeeaff6f487b473165de622c12f6", "is_reserved": 0, "fusion_lon": 0.0, "lat": 38.90195883333333, "is_disabled": 0, "name": "8b4dbeeaff6f487b473165de622c12f6", "fusion_lat": 0.0, "rental_uris": {"ios": "https://dc.lft.to/lastmile_qr_scan", "android": "https://dc.lft.to/lastmile_qr_scan"}, "lon": -77.021696, "type": "electric_scooter"}, {"bike_id": "d964494eefde632071600b3625471a6e", "is_reserved": 0, "fusion_lon": 0.0, "lat": 38.919704833333334, "is_disabled": 0, "name": "d964494eefde632071600b3625471a6e", "fusion_lat": 0.0, "rental_uris": {"ios": "https://dc.lft.to/lastmile_qr_scan", "android": "https://dc.lft.to/lastmile_qr_scan"}, "lon": -77.023702, "type": "electric_scooter"}, {"bike_id": "7d87f6a370789792b8b17c9291f7ff10", "is_reserved": 0, "fusion_lon": 0.0, "lat": 38.9908735, "is_disabled": 0, "name": "7d87f6a370789792b8b17c9291f7ff10", "fusion_lat": 0.0, "rental_uris": {"ios": "https://dc.lft.to/lastmile_qr_scan", "android": "https://dc.lft.to/lastmile_qr_scan"}, "lon": -76.8749325, "type": "electric_bike"}, {"bike_id": "c098182e882709a821bdde15f4c13fd6", "is_reserved": 0, "fusion_lon": 0.0, "lat": 38.919918, "is_disabled": 0, "name": "c098182e882709a821bdde15f4c13fd6", "fusion_lat": 0.0, "rental_uris": {"ios": "https://dc.lft.to/lastmile_qr_scan", "android": "https://dc.lft.to/lastmile_qr_scan"}, "lon": -77.032255, "type": "electric_scooter"}, {"bike_id": "15ca82f4e86bac7befd8b8b91394d1fe", "is_reserved": 0, "fusion_lon": 0.0, "lat": 38.828702666666665, "is_disabled": 0, "name": "15ca82f4e86bac7befd8b8b91394d1fe", "fusion_lat": 0.0, "rental_uris": {"ios": "https://dc.lft.to/lastmile_qr_scan", "android": "https://dc.lft.to/lastmile_qr_scan"}, "lon": -77.1121875, "type": "electric_bike"}, {"bike_id": "8134f6e05cb0075a1da2be933b27083a", "is_reserved": 0, "fusion_lon": 0.0, "lat": 38.936068666666664, "is_disabled": 0, "name": "8134f6e05cb0075a1da2be933b27083a", "fusion_lat": 0.0, "rental_uris": {"ios": "https://dc.lft.to/lastmile_qr_scan", "android": "https://dc.lft.to/lastmile_qr_scan"}, "lon": -77.05856533333333, "type": "electric_scooter"}, {"bike_id": "4b500265d5b3244476325ce2650c26b0", "is_reserved": 0, "fusion_lon": 0.0, "lat": 38.900998, "is_disabled": 0, "name": "4b500265d5b3244476325ce2650c26b0", "fusion_lat": 0.0, "rental_uris": {"ios": "https://dc.lft.to/lastmile_qr_scan", "android": "https://dc.lft.to/lastmile_qr_scan"}, "lon": -77.04868766666667, "type": "electric_scooter"}, {"bike_id": "cf00864e16546e9621348dc280cead4f", "is_reserved": 0, "fusion_lon": 0.0, "lat": 38.917970833333335, "is_disabled": 0, "name": "cf00864e16546e9621348dc280cead4f", "fusion_lat": 0.0, "rental_uris": {"ios": "https://dc.lft.to/lastmile_qr_scan", "android": "https://dc.lft.to/lastmile_qr_scan"}, "lon": -77.0343705, "type": "electric_scooter"}, {"bike_id": "ce29c61098f8c55f1bf78cce0fbb0e1c", "is_reserved": 0, "fusion_lon": 0.0, "lat": 38.89527533333333, "is_disabled": 0, "name": "ce29c61098f8c55f1bf78cce0fbb0e1c", "fusion_lat": 0.0, "rental_uris": {"ios": "https://dc.lft.to/lastmile_qr_scan", "android": "https://dc.lft.to/lastmile_qr_scan"}, "lon": -76.9488875, "type": "electric_scooter"}, {"bike_id": "9c2475eea6c28562c574e85c46d48f6e", "is_reserved": 0, "fusion_lon": 0.0, "lat": 38.90663883333333, "is_disabled": 0, "name": "9c2475eea6c28562c574e85c46d48f6e", "fusion_lat": 0.0, "rental_uris": {"ios": "https://dc.lft.to/lastmile_qr_scan", "android": "https://dc.lft.to/lastmile_qr_scan"}, "lon": -77.02709733333333, "type": "electric_scooter"}, {"bike_id": "62c2050065340dbc771bccde7876a320", "is_reserved": 0, "fusion_lon": 0.0, "lat": 38.92497516666667, "is_disabled": 0, "name": "62c2050065340dbc771bccde7876a320", "fusion_lat": 0.0, "rental_uris": {"ios": "https://dc.lft.to/lastmile_qr_scan", "android": "https://dc.lft.to/lastmile_qr_scan"}, "lon": -77.00893183333334, "type": "electric_scooter"}, {"bike_id": "691daaf3028bd26e059e7565c13309d6", "is_reserved": 0, "fusion_lon": 0.0, "lat": 38.907763833333334, "is_disabled": 0, "name": "691daaf3028bd26e059e7565c13309d6", "fusion_lat": 0.0, "rental_uris": {"ios": "https://dc.lft.to/lastmile_qr_scan", "android": "https://dc.lft.to/lastmile_qr_scan"}, "lon": -77.03836266666667, "type": "electric_scooter"}, {"bike_id": "cb980a9ca28aa4f9922b81d8e785a283", "is_reserved": 0, "fusion_lon": 0.0, "lat": 38.893635, "is_disabled": 0, "name": "cb980a9ca28aa4f9922b81d8e785a283", "fusion_lat": 0.0, "rental_uris": {"ios": "https://dc.lft.to/lastmile_qr_scan", "android": "https://dc.lft.to/lastmile_qr_scan"}, "lon": -76.98512433333333, "type": "electric_bike"}, {"bike_id": "b190d26320f684032c711a768b0589aa", "is_reserved": 0, "fusion_lon": 0.0, "lat": 38.950748, "is_disabled": 0, "name": "b190d26320f684032c711a768b0589aa", "fusion_lat": 0.0, "rental_uris": {"ios": "https://dc.lft.to/lastmile_qr_scan", "android": "https://dc.lft.to/lastmile_qr_scan"}, "lon": -77.01196483333334, "type": "electric_bike"}, {"bike_id": "88c6254c8f06b813a36b7e29f77d6c91", "is_reserved": 0, "fusion_lon": 0.0, "lat": 38.89880333333333, "is_disabled": 0, "name": "88c6254c8f06b813a36b7e29f77d6c91", "fusion_lat": 0.0, "rental_uris": {"ios": "https://dc.lft.to/lastmile_qr_scan", "android": "https://dc.lft.to/lastmile_qr_scan"}, "lon": -76.93163016666666, "type": "electric_scooter"}, {"bike_id": "cf3702b0512886a89a10e3cc871c6e4b", "is_reserved": 0, "fusion_lon": 0.0, "lat": 38.93432683333333, "is_disabled": 0, "name": "cf3702b0512886a89a10e3cc871c6e4b", "fusion_lat": 0.0, "rental_uris": {"ios": "https://dc.lft.to/lastmile_qr_scan", "android": "https://dc.lft.to/lastmile_qr_scan"}, "lon": -77.03438933333334, "type": "electric_scooter"}, {"bike_id": "2eab57de57d2d362ae0e4c29c88f8cf4", "is_reserved": 0, "fusion_lon": 0.0, "lat": 38.89957, "is_disabled": 0, "name": "2eab57de57d2d362ae0e4c29c88f8cf4", "fusion_lat": 0.0, "rental_uris": {"ios": "https://dc.lft.to/lastmile_qr_scan", "android": "https://dc.lft.to/lastmile_qr_scan"}, "lon": -77.03348233333334, "type": "electric_scooter"}, {"bike_id": "a5267e2eaf993b2c9518a3c3666f2b4a", "is_reserved": 0, "fusion_lon": 0.0, "lat": 38.95908883333333, "is_disabled": 0, "name": "a5267e2eaf993b2c9518a3c3666f2b4a", "fusion_lat": 0.0, "rental_uris": {"ios": "https://dc.lft.to/lastmile_qr_scan", "android": "https://dc.lft.to/lastmile_qr_scan"}, "lon": -77.00155266666667, "type": "electric_bike"}, {"bike_id": "bd4171f373f71129c5492a1eb2f46412", "is_reserved": 0, "fusion_lon": 0.0, "lat": 38.909644666666665, "is_disabled": 0, "name": "bd4171f373f71129c5492a1eb2f46412", "fusion_lat": 0.0, "rental_uris": {"ios": "https://dc.lft.to/lastmile_qr_scan", "android": "https://dc.lft.to/lastmile_qr_scan"}, "lon": -77.02717033333333, "type": "electric_scooter"}, {"bike_id": "cb64487d0d74ecc37f08288ceb592865", "is_reserved": 0, "fusion_lon": 0.0, "lat": 38.8873665, "is_disabled": 0, "name": "cb64487d0d74ecc37f08288ceb592865", "fusion_lat": 0.0, "rental_uris": {"ios": "https://dc.lft.to/lastmile_qr_scan", "android": "https://dc.lft.to/lastmile_qr_scan"}, "lon": -77.01533433333333, "type": "electric_scooter"}, {"bike_id": "0593954b05872041e0d9c4a9ef596621", "is_reserved": 0, "fusion_lon": 0.0, "lat": 38.87456783333333, "is_disabled": 0, "name": "0593954b05872041e0d9c4a9ef596621", "fusion_lat": 0.0, "rental_uris": {"ios": "https://dc.lft.to/lastmile_qr_scan", "android": "https://dc.lft.to/lastmile_qr_scan"}, "lon": -77.005423, "type": "electric_scooter"}, {"bike_id": "8fc9960bd0173c8312886322de80fa80", "is_reserved": 0, "fusion_lon": 0.0, "lat": 38.897868833333334, "is_disabled": 0, "name": "8fc9960bd0173c8312886322de80fa80", "fusion_lat": 0.0, "rental_uris": {"ios": "https://dc.lft.to/lastmile_qr_scan", "android": "https://dc.lft.to/lastmile_qr_scan"}, "lon": -77.00725283333334, "type": "electric_scooter"}, {"bike_id": "854578cb38782a60baae61b1a0320751", "is_reserved": 0, "fusion_lon": 0.0, "lat": 38.9060885, "is_disabled": 0, "name": "854578cb38782a60baae61b1a0320751", "fusion_lat": 0.0, "rental_uris": {"ios": "https://dc.lft.to/lastmile_qr_scan", "android": "https://dc.lft.to/lastmile_qr_scan"}, "lon": -77.0395385, "type": "electric_scooter"}, {"bike_id": "7c0c6b7d54ddb7c05c0e990cee8e3995", "is_reserved": 0, "fusion_lon": 0.0, "lat": 38.92319333333333, "is_disabled": 0, "name": "7c0c6b7d54ddb7c05c0e990cee8e3995", "fusion_lat": 0.0, "rental_uris": {"ios": "https://dc.lft.to/lastmile_qr_scan", "android": "https://dc.lft.to/lastmile_qr_scan"}, "lon": -77.036687, "type": "electric_scooter"}, {"bike_id": "a71a473a8157ddce2f1aeb8345f2a61b", "is_reserved": 0, "fusion_lon": 0.0, "lat": 38.903209, "is_disabled": 0, "name": "a71a473a8157ddce2f1aeb8345f2a61b", "fusion_lat": 0.0, "rental_uris": {"ios": "https://dc.lft.to/lastmile_qr_scan", "android": "https://dc.lft.to/lastmile_qr_scan"}, "lon": -77.03788166666666, "type": "electric_scooter"}, {"bike_id": "af6571c40bbbc20815aa28d180ea41be", "is_reserved": 0, "fusion_lon": 0.0, "lat": 38.93890416666667, "is_disabled": 0, "name": "af6571c40bbbc20815aa28d180ea41be", "fusion_lat": 0.0, "rental_uris": {"ios": "https://dc.lft.to/lastmile_qr_scan", "android": "https://dc.lft.to/lastmile_qr_scan"}, "lon": -77.03320483333333, "type": "electric_scooter"}, {"bike_id": "115fd218b332fc60e2458d4e43633593", "is_reserved": 0, "fusion_lon": 0.0, "lat": 38.92146433333333, "is_disabled": 0, "name": "115fd218b332fc60e2458d4e43633593", "fusion_lat": 0.0, "rental_uris": {"ios": "https://dc.lft.to/lastmile_qr_scan", "android": "https://dc.lft.to/lastmile_qr_scan"}, "lon": -77.03529466666667, "type": "electric_scooter"}, {"bike_id": "64d9a76fb25aeff1e2f8d3b6f3b6c8a2", "is_reserved": 0, "fusion_lon": 0.0, "lat": 38.885086333333334, "is_disabled": 0, "name": "64d9a76fb25aeff1e2f8d3b6f3b6c8a2", "fusion_lat": 0.0, "rental_uris": {"ios": "https://dc.lft.to/lastmile_qr_scan", "android": "https://dc.lft.to/lastmile_qr_scan"}, "lon": -77.0056635, "type": "electric_scooter"}, {"bike_id": "4ef9aca9413456783aa2c357902f1b8d", "is_reserved": 0, "fusion_lon": 0.0, "lat": 38.928804666666665, "is_disabled": 0, "name": "4ef9aca9413456783aa2c357902f1b8d", "fusion_lat": 0.0, "rental_uris": {"ios": "https://dc.lft.to/lastmile_qr_scan", "android": "https://dc.lft.to/lastmile_qr_scan"}, "lon": -77.037606, "type": "electric_scooter"}, {"bike_id": "7a1b4b6c428a735b01c6499edc1b6e54", "is_reserved": 0, "fusion_lon": 0.0, "lat": 38.92039483333333, "is_disabled": 0, "name": "7a1b4b6c428a735b01c6499edc1b6e54", "fusion_lat": 0.0, "rental_uris": {"ios": "https://dc.lft.to/lastmile_qr_scan", "android": "https://dc.lft.to/lastmile_qr_scan"}, "lon": -76.97906933333333, "type": "electric_scooter"}, {"bike_id": "094669541ac237003199ab2535ac25cf", "is_reserved": 0, "fusion_lon": 0.0, "lat": 38.9183745, "is_disabled": 0, "name": "094669541ac237003199ab2535ac25cf", "fusion_lat": 0.0, "rental_uris": {"ios": "https://dc.lft.to/lastmile_qr_scan", "android": "https://dc.lft.to/lastmile_qr_scan"}, "lon": -77.02295033333333, "type": "electric_scooter"}, {"bike_id": "c5ab1e09f58f84581e6504591b98ee48", "is_reserved": 0, "fusion_lon": 0.0, "lat": 38.936634166666664, "is_disabled": 0, "name": "c5ab1e09f58f84581e6504591b98ee48", "fusion_lat": 0.0, "rental_uris": {"ios": "https://dc.lft.to/lastmile_qr_scan", "android": "https://dc.lft.to/lastmile_qr_scan"}, "lon": -77.03632766666666, "type": "electric_scooter"}, {"bike_id": "9289ce14df205d1bca966f2c305f1d24", "is_reserved": 0, "fusion_lon": 0.0, "lat": 38.903909166666665, "is_disabled": 0, "name": "9289ce14df205d1bca966f2c305f1d24", "fusion_lat": 0.0, "rental_uris": {"ios": "https://dc.lft.to/lastmile_qr_scan", "android": "https://dc.lft.to/lastmile_qr_scan"}, "lon": -77.03975583333333, "type": "electric_scooter"}, {"bike_id": "9deb6268bb493c62da714da7b74d9666", "is_reserved": 0, "fusion_lon": 0.0, "lat": 38.86924166666667, "is_disabled": 0, "name": "9deb6268bb493c62da714da7b74d9666", "fusion_lat": 0.0, "rental_uris": {"ios": "https://dc.lft.to/lastmile_qr_scan", "android": "https://dc.lft.to/lastmile_qr_scan"}, "lon": -76.9831015, "type": "electric_scooter"}, {"bike_id": "3d14191ea54f367a56bce0b50aac9ca2", "is_reserved": 0, "fusion_lon": 0.0, "lat": 38.904137666666664, "is_disabled": 0, "name": "3d14191ea54f367a56bce0b50aac9ca2", "fusion_lat": 0.0, "rental_uris": {"ios": "https://dc.lft.to/lastmile_qr_scan", "android": "https://dc.lft.to/lastmile_qr_scan"}, "lon": -77.0361485, "type": "electric_scooter"}, {"bike_id": "52fcfeae19cd2ef29e38038e74025518", "is_reserved": 0, "fusion_lon": 0.0, "lat": 38.888700666666665, "is_disabled": 0, "name": "52fcfeae19cd2ef29e38038e74025518", "fusion_lat": 0.0, "rental_uris": {"ios": "https://dc.lft.to/lastmile_qr_scan", "android": "https://dc.lft.to/lastmile_qr_scan"}, "lon": -76.99032683333333, "type": "electric_scooter"}, {"bike_id": "1affcbeb9ba06513eab410953aed86f4", "is_reserved": 0, "fusion_lon": 0.0, "lat": 38.87214483333333, "is_disabled": 0, "name": "1affcbeb9ba06513eab410953aed86f4", "fusion_lat": 0.0, "rental_uris": {"ios": "https://dc.lft.to/lastmile_qr_scan", "android": "https://dc.lft.to/lastmile_qr_scan"}, "lon": -77.00573116666666, "type": "electric_scooter"}, {"bike_id": "f07cf14f02090938de69d52811c2bf16", "is_reserved": 0, "fusion_lon": 0.0, "lat": 38.91770133333333, "is_disabled": 0, "name": "f07cf14f02090938de69d52811c2bf16", "fusion_lat": 0.0, "rental_uris": {"ios": "https://dc.lft.to/lastmile_qr_scan", "android": "https://dc.lft.to/lastmile_qr_scan"}, "lon": -77.04056033333333, "type": "electric_scooter"}, {"bike_id": "1c618d56e056cdc0713666d358870bde", "is_reserved": 0, "fusion_lon": 0.0, "lat": 38.893012166666665, "is_disabled": 0, "name": "1c618d56e056cdc0713666d358870bde", "fusion_lat": 0.0, "rental_uris": {"ios": "https://dc.lft.to/lastmile_qr_scan", "android": "https://dc.lft.to/lastmile_qr_scan"}, "lon": -77.01236083333333, "type": "electric_scooter"}, {"bike_id": "8217487759533824a4a6353b31789a26", "is_reserved": 0, "fusion_lon": 0.0, "lat": 38.921169, "is_disabled": 0, "name": "8217487759533824a4a6353b31789a26", "fusion_lat": 0.0, "rental_uris": {"ios": "https://dc.lft.to/lastmile_qr_scan", "android": "https://dc.lft.to/lastmile_qr_scan"}, "lon": -77.04582783333333, "type": "electric_scooter"}, {"bike_id": "52df622c116510c1618b5f611fad3f5c", "is_reserved": 0, "fusion_lon": 0.0, "lat": 38.84423483333333, "is_disabled": 0, "name": "52df622c116510c1618b5f611fad3f5c", "fusion_lat": 0.0, "rental_uris": {"ios": "https://dc.lft.to/lastmile_qr_scan", "android": "https://dc.lft.to/lastmile_qr_scan"}, "lon": -76.99777, "type": "electric_scooter"}, {"bike_id": "b532ced56beedd203dfe90282d434530", "is_reserved": 0, "fusion_lon": 0.0, "lat": 38.917812, "is_disabled": 0, "name": "b532ced56beedd203dfe90282d434530", "fusion_lat": 0.0, "rental_uris": {"ios": "https://dc.lft.to/lastmile_qr_scan", "android": "https://dc.lft.to/lastmile_qr_scan"}, "lon": -77.02698716666667, "type": "electric_scooter"}, {"bike_id": "fdcdd54343ea82fd6fca90ab89e793c8", "is_reserved": 0, "fusion_lon": 0.0, "lat": 38.9155225, "is_disabled": 0, "name": "fdcdd54343ea82fd6fca90ab89e793c8", "fusion_lat": 0.0, "rental_uris": {"ios": "https://dc.lft.to/lastmile_qr_scan", "android": "https://dc.lft.to/lastmile_qr_scan"}, "lon": -77.01416383333333, "type": "electric_scooter"}, {"bike_id": "e729cf6ec9c99bd9464f5fa19274831e", "is_reserved": 0, "fusion_lon": 0.0, "lat": 38.92246933333333, "is_disabled": 0, "name": "e729cf6ec9c99bd9464f5fa19274831e", "fusion_lat": 0.0, "rental_uris": {"ios": "https://dc.lft.to/lastmile_qr_scan", "android": "https://dc.lft.to/lastmile_qr_scan"}, "lon": -77.03080133333333, "type": "electric_scooter"}, {"bike_id": "bb1a7bed311b0ec8f048c6a4276c8610", "is_reserved": 0, "fusion_lon": 0.0, "lat": 38.925038666666666, "is_disabled": 0, "name": "bb1a7bed311b0ec8f048c6a4276c8610", "fusion_lat": 0.0, "rental_uris": {"ios": "https://dc.lft.to/lastmile_qr_scan", "android": "https://dc.lft.to/lastmile_qr_scan"}, "lon": -77.02165533333333, "type": "electric_scooter"}, {"bike_id": "438baf09734d60a2d5e014dc4bfe6fc4", "is_reserved": 0, "fusion_lon": 0.0, "lat": 38.900276833333336, "is_disabled": 0, "name": "438baf09734d60a2d5e014dc4bfe6fc4", "fusion_lat": 0.0, "rental_uris": {"ios": "https://dc.lft.to/lastmile_qr_scan", "android": "https://dc.lft.to/lastmile_qr_scan"}, "lon": -76.98697316666667, "type": "electric_scooter"}, {"bike_id": "3607138fec42a8a4b188b81202e8717b", "is_reserved": 0, "fusion_lon": 0.0, "lat": 38.93164266666667, "is_disabled": 0, "name": "3607138fec42a8a4b188b81202e8717b", "fusion_lat": 0.0, "rental_uris": {"ios": "https://dc.lft.to/lastmile_qr_scan", "android": "https://dc.lft.to/lastmile_qr_scan"}, "lon": -77.03634116666667, "type": "electric_scooter"}, {"bike_id": "d2a74b9c36943fc5562b70e581cd52f0", "is_reserved": 0, "fusion_lon": 0.0, "lat": 38.91806066666667, "is_disabled": 0, "name": "d2a74b9c36943fc5562b70e581cd52f0", "fusion_lat": 0.0, "rental_uris": {"ios": "https://dc.lft.to/lastmile_qr_scan", "android": "https://dc.lft.to/lastmile_qr_scan"}, "lon": -77.03561233333333, "type": "electric_scooter"}, {"bike_id": "495231d1fd39cc324f879ed5d2cfdef1", "is_reserved": 0, "fusion_lon": 0.0, "lat": 38.896804833333334, "is_disabled": 0, "name": "495231d1fd39cc324f879ed5d2cfdef1", "fusion_lat": 0.0, "rental_uris": {"ios": "https://dc.lft.to/lastmile_qr_scan", "android": "https://dc.lft.to/lastmile_qr_scan"}, "lon": -76.99626066666667, "type": "electric_scooter"}, {"bike_id": "3d706196e3f0191b765a5bbd887fd6e8", "is_reserved": 0, "fusion_lon": 0.0, "lat": 38.90260283333333, "is_disabled": 0, "name": "3d706196e3f0191b765a5bbd887fd6e8", "fusion_lat": 0.0, "rental_uris": {"ios": "https://dc.lft.to/lastmile_qr_scan", "android": "https://dc.lft.to/lastmile_qr_scan"}, "lon": -77.017763, "type": "electric_scooter"}, {"bike_id": "1d6571a7b0a05355a72349973f9efd6a", "is_reserved": 0, "fusion_lon": 0.0, "lat": 38.87901166666666, "is_disabled": 0, "name": "1d6571a7b0a05355a72349973f9efd6a", "fusion_lat": 0.0, "rental_uris": {"ios": "https://dc.lft.to/lastmile_qr_scan", "android": "https://dc.lft.to/lastmile_qr_scan"}, "lon": -77.02255583333333, "type": "electric_scooter"}, {"bike_id": "103d088b29f1e103ce496b52af185dca", "is_reserved": 0, "fusion_lon": 0.0, "lat": 38.87085316666667, "is_disabled": 0, "name": "103d088b29f1e103ce496b52af185dca", "fusion_lat": 0.0, "rental_uris": {"ios": "https://dc.lft.to/lastmile_qr_scan", "android": "https://dc.lft.to/lastmile_qr_scan"}, "lon": -77.01210366666666, "type": "electric_bike"}, {"bike_id": "3684406116c0c785803afc94285f6224", "is_reserved": 0, "fusion_lon": 0.0, "lat": 38.87919183333333, "is_disabled": 0, "name": "3684406116c0c785803afc94285f6224", "fusion_lat": 0.0, "rental_uris": {"ios": "https://dc.lft.to/lastmile_qr_scan", "android": "https://dc.lft.to/lastmile_qr_scan"}, "lon": -76.9950945, "type": "electric_scooter"}, {"bike_id": "ec1a82e5177a9aae71343906b7f3bb86", "is_reserved": 0, "fusion_lon": 0.0, "lat": 38.91664216666667, "is_disabled": 0, "name": "ec1a82e5177a9aae71343906b7f3bb86", "fusion_lat": 0.0, "rental_uris": {"ios": "https://dc.lft.to/lastmile_qr_scan", "android": "https://dc.lft.to/lastmile_qr_scan"}, "lon": -77.029662, "type": "electric_scooter"}, {"bike_id": "155755373b5a8c992ac5d5313dec3b4e", "is_reserved": 0, "fusion_lon": 0.0, "lat": 38.89105416666666, "is_disabled": 0, "name": "155755373b5a8c992ac5d5313dec3b4e", "fusion_lat": 0.0, "rental_uris": {"ios": "https://dc.lft.to/lastmile_qr_scan", "android": "https://dc.lft.to/lastmile_qr_scan"}, "lon": -76.98704083333334, "type": "electric_scooter"}, {"bike_id": "bc479f2e94449e55c265dfd87f752fe7", "is_reserved": 0, "fusion_lon": 0.0, "lat": 38.90986816666667, "is_disabled": 0, "name": "bc479f2e94449e55c265dfd87f752fe7", "fusion_lat": 0.0, "rental_uris": {"ios": "https://dc.lft.to/lastmile_qr_scan", "android": "https://dc.lft.to/lastmile_qr_scan"}, "lon": -77.0239265, "type": "electric_scooter"}, {"bike_id": "f1907dafae7c3b136657c2c326d0e87d", "is_reserved": 0, "fusion_lon": 0.0, "lat": 38.90531683333333, "is_disabled": 0, "name": "f1907dafae7c3b136657c2c326d0e87d", "fusion_lat": 0.0, "rental_uris": {"ios": "https://dc.lft.to/lastmile_qr_scan", "android": "https://dc.lft.to/lastmile_qr_scan"}, "lon": -77.059707, "type": "electric_scooter"}, {"bike_id": "a6f0e4d7a1ca37af130dafd8df799815", "is_reserved": 0, "fusion_lon": 0.0, "lat": 38.90729416666667, "is_disabled": 0, "name": "a6f0e4d7a1ca37af130dafd8df799815", "fusion_lat": 0.0, "rental_uris": {"ios": "https://dc.lft.to/lastmile_qr_scan", "android": "https://dc.lft.to/lastmile_qr_scan"}, "lon": -77.04671916666666, "type": "electric_scooter"}, {"bike_id": "bb04a2c20f8d7b71b84c33e009bcc385", "is_reserved": 0, "fusion_lon": 0.0, "lat": 38.89250333333333, "is_disabled": 0, "name": "bb04a2c20f8d7b71b84c33e009bcc385", "fusion_lat": 0.0, "rental_uris": {"ios": "https://dc.lft.to/lastmile_qr_scan", "android": "https://dc.lft.to/lastmile_qr_scan"}, "lon": -76.94333233333333, "type": "electric_scooter"}, {"bike_id": "d3d973a897c466a59af7e80c2ca6cebf", "is_reserved": 0, "fusion_lon": 0.0, "lat": 38.88314, "is_disabled": 0, "name": "d3d973a897c466a59af7e80c2ca6cebf", "fusion_lat": 0.0, "rental_uris": {"ios": "https://dc.lft.to/lastmile_qr_scan", "android": "https://dc.lft.to/lastmile_qr_scan"}, "lon": -77.009403, "type": "electric_scooter"}, {"bike_id": "979ef47e6d77989ca715aeb5b3fc5621", "is_reserved": 0, "fusion_lon": 0.0, "lat": 38.90028483333333, "is_disabled": 0, "name": "979ef47e6d77989ca715aeb5b3fc5621", "fusion_lat": 0.0, "rental_uris": {"ios": "https://dc.lft.to/lastmile_qr_scan", "android": "https://dc.lft.to/lastmile_qr_scan"}, "lon": -76.9879695, "type": "electric_scooter"}, {"bike_id": "3f6a39543629bf96930dc1100f31da10", "is_reserved": 0, "fusion_lon": 0.0, "lat": 38.918061, "is_disabled": 0, "name": "3f6a39543629bf96930dc1100f31da10", "fusion_lat": 0.0, "rental_uris": {"ios": "https://dc.lft.to/lastmile_qr_scan", "android": "https://dc.lft.to/lastmile_qr_scan"}, "lon": -77.01008966666667, "type": "electric_scooter"}, {"bike_id": "705bc3d9df7252ca6355fbc0a6a63f76", "is_reserved": 0, "fusion_lon": 0.0, "lat": 38.8714625, "is_disabled": 0, "name": "705bc3d9df7252ca6355fbc0a6a63f76", "fusion_lat": 0.0, "rental_uris": {"ios": "https://dc.lft.to/lastmile_qr_scan", "android": "https://dc.lft.to/lastmile_qr_scan"}, "lon": -76.9366625, "type": "electric_bike"}, {"bike_id": "889536ae1d4193ce1bd75e8be5701ffa", "is_reserved": 0, "fusion_lon": 0.0, "lat": 38.91996733333333, "is_disabled": 0, "name": "889536ae1d4193ce1bd75e8be5701ffa", "fusion_lat": 0.0, "rental_uris": {"ios": "https://dc.lft.to/lastmile_qr_scan", "android": "https://dc.lft.to/lastmile_qr_scan"}, "lon": -77.0321495, "type": "electric_scooter"}, {"bike_id": "2ec0a876bcf5a86b86ad6158c3d9dff0", "is_reserved": 0, "fusion_lon": 0.0, "lat": 38.94270866666667, "is_disabled": 0, "name": "2ec0a876bcf5a86b86ad6158c3d9dff0", "fusion_lat": 0.0, "rental_uris": {"ios": "https://dc.lft.to/lastmile_qr_scan", "android": "https://dc.lft.to/lastmile_qr_scan"}, "lon": -76.980767, "type": "electric_bike"}, {"bike_id": "d5b8edfb6eca651ad2aac8549fc95402", "is_reserved": 0, "fusion_lon": 0.0, "lat": 38.901255, "is_disabled": 0, "name": "d5b8edfb6eca651ad2aac8549fc95402", "fusion_lat": 0.0, "rental_uris": {"ios": "https://dc.lft.to/lastmile_qr_scan", "android": "https://dc.lft.to/lastmile_qr_scan"}, "lon": -77.04172216666667, "type": "electric_bike"}, {"bike_id": "1631b5e5347d1573a59647223b7f5c45", "is_reserved": 0, "fusion_lon": 0.0, "lat": 38.88445933333333, "is_disabled": 0, "name": "1631b5e5347d1573a59647223b7f5c45", "fusion_lat": 0.0, "rental_uris": {"ios": "https://dc.lft.to/lastmile_qr_scan", "android": "https://dc.lft.to/lastmile_qr_scan"}, "lon": -77.005639, "type": "electric_scooter"}, {"bike_id": "9ceb299fa8d8184c8e013c2fc0def7bb", "is_reserved": 0, "fusion_lon": 0.0, "lat": 38.89400883333333, "is_disabled": 0, "name": "9ceb299fa8d8184c8e013c2fc0def7bb", "fusion_lat": 0.0, "rental_uris": {"ios": "https://dc.lft.to/lastmile_qr_scan", "android": "https://dc.lft.to/lastmile_qr_scan"}, "lon": -76.9936295, "type": "electric_scooter"}, {"bike_id": "27c89f5cfd894d61bd539210b0094e89", "is_reserved": 0, "fusion_lon": 0.0, "lat": 38.876586833333334, "is_disabled": 0, "name": "27c89f5cfd894d61bd539210b0094e89", "fusion_lat": 0.0, "rental_uris": {"ios": "https://dc.lft.to/lastmile_qr_scan", "android": "https://dc.lft.to/lastmile_qr_scan"}, "lon": -77.000642, "type": "electric_scooter"}, {"bike_id": "1d504bb35dd77719f5ec5a0273630332", "is_reserved": 0, "fusion_lon": 0.0, "lat": 38.92753, "is_disabled": 0, "name": "1d504bb35dd77719f5ec5a0273630332", "fusion_lat": 0.0, "rental_uris": {"ios": "https://dc.lft.to/lastmile_qr_scan", "android": "https://dc.lft.to/lastmile_qr_scan"}, "lon": -77.02418233333333, "type": "electric_scooter"}, {"bike_id": "e20620e9aea1383087367956bf128049", "is_reserved": 0, "fusion_lon": 0.0, "lat": 38.89620216666667, "is_disabled": 0, "name": "e20620e9aea1383087367956bf128049", "fusion_lat": 0.0, "rental_uris": {"ios": "https://dc.lft.to/lastmile_qr_scan", "android": "https://dc.lft.to/lastmile_qr_scan"}, "lon": -77.0446425, "type": "electric_scooter"}, {"bike_id": "3eeb560fa57f612cf69065b8b57817a7", "is_reserved": 0, "fusion_lon": 0.0, "lat": 38.966173833333336, "is_disabled": 0, "name": "3eeb560fa57f612cf69065b8b57817a7", "fusion_lat": 0.0, "rental_uris": {"ios": "https://dc.lft.to/lastmile_qr_scan", "android": "https://dc.lft.to/lastmile_qr_scan"}, "lon": -76.94421416666667, "type": "electric_bike"}, {"bike_id": "a26a68f5ffe81de2f101da0da03c5c17", "is_reserved": 0, "fusion_lon": 0.0, "lat": 38.90679733333333, "is_disabled": 0, "name": "a26a68f5ffe81de2f101da0da03c5c17", "fusion_lat": 0.0, "rental_uris": {"ios": "https://dc.lft.to/lastmile_qr_scan", "android": "https://dc.lft.to/lastmile_qr_scan"}, "lon": -77.02697783333333, "type": "electric_scooter"}, {"bike_id": "6e38a215d733d5e694f6a64ddaa13aa2", "is_reserved": 0, "fusion_lon": 0.0, "lat": 38.934491333333334, "is_disabled": 0, "name": "6e38a215d733d5e694f6a64ddaa13aa2", "fusion_lat": 0.0, "rental_uris": {"ios": "https://dc.lft.to/lastmile_qr_scan", "android": "https://dc.lft.to/lastmile_qr_scan"}, "lon": -77.072278, "type": "electric_scooter"}, {"bike_id": "f999de2deba4708df23ca921b60f5e4f", "is_reserved": 0, "fusion_lon": 0.0, "lat": 38.91915016666667, "is_disabled": 0, "name": "f999de2deba4708df23ca921b60f5e4f", "fusion_lat": 0.0, "rental_uris": {"ios": "https://dc.lft.to/lastmile_qr_scan", "android": "https://dc.lft.to/lastmile_qr_scan"}, "lon": -77.03431816666667, "type": "electric_scooter"}, {"bike_id": "2364095257497bb553e4c3a000f09f1b", "is_reserved": 0, "fusion_lon": 0.0, "lat": 38.89824616666667, "is_disabled": 0, "name": "2364095257497bb553e4c3a000f09f1b", "fusion_lat": 0.0, "rental_uris": {"ios": "https://dc.lft.to/lastmile_qr_scan", "android": "https://dc.lft.to/lastmile_qr_scan"}, "lon": -77.0482195, "type": "electric_scooter"}, {"bike_id": "84e47b1da954eb44c81dc6c07f5d42da", "is_reserved": 0, "fusion_lon": 0.0, "lat": 38.905639666666666, "is_disabled": 0, "name": "84e47b1da954eb44c81dc6c07f5d42da", "fusion_lat": 0.0, "rental_uris": {"ios": "https://dc.lft.to/lastmile_qr_scan", "android": "https://dc.lft.to/lastmile_qr_scan"}, "lon": -77.0382845, "type": "electric_scooter"}, {"bike_id": "569bad50d8c8f309a7929ae17f21dd27", "is_reserved": 0, "fusion_lon": 0.0, "lat": 38.95354416666667, "is_disabled": 0, "name": "569bad50d8c8f309a7929ae17f21dd27", "fusion_lat": 0.0, "rental_uris": {"ios": "https://dc.lft.to/lastmile_qr_scan", "android": "https://dc.lft.to/lastmile_qr_scan"}, "lon": -76.98091016666666, "type": "electric_bike"}, {"bike_id": "6a03e5c74c4dbdfa27e583aa6825620c", "is_reserved": 0, "fusion_lon": 0.0, "lat": 38.937247166666666, "is_disabled": 0, "name": "6a03e5c74c4dbdfa27e583aa6825620c", "fusion_lat": 0.0, "rental_uris": {"ios": "https://dc.lft.to/lastmile_qr_scan", "android": "https://dc.lft.to/lastmile_qr_scan"}, "lon": -77.03261383333333, "type": "electric_scooter"}, {"bike_id": "fc6de75f197c12787002f8ddaeebdc3f", "is_reserved": 0, "fusion_lon": 0.0, "lat": 38.91796466666667, "is_disabled": 0, "name": "fc6de75f197c12787002f8ddaeebdc3f", "fusion_lat": 0.0, "rental_uris": {"ios": "https://dc.lft.to/lastmile_qr_scan", "android": "https://dc.lft.to/lastmile_qr_scan"}, "lon": -77.03439883333333, "type": "electric_scooter"}, {"bike_id": "22a1e5fa56b696c9eef76e0fbf260b5a", "is_reserved": 0, "fusion_lon": 0.0, "lat": 38.918150833333335, "is_disabled": 0, "name": "22a1e5fa56b696c9eef76e0fbf260b5a", "fusion_lat": 0.0, "rental_uris": {"ios": "https://dc.lft.to/lastmile_qr_scan", "android": "https://dc.lft.to/lastmile_qr_scan"}, "lon": -77.032666, "type": "electric_scooter"}, {"bike_id": "088c672fe5fef68a7d72a027008c1989", "is_reserved": 0, "fusion_lon": 0.0, "lat": 38.91835366666667, "is_disabled": 0, "name": "088c672fe5fef68a7d72a027008c1989", "fusion_lat": 0.0, "rental_uris": {"ios": "https://dc.lft.to/lastmile_qr_scan", "android": "https://dc.lft.to/lastmile_qr_scan"}, "lon": -77.035169, "type": "electric_scooter"}, {"bike_id": "8f939f5d1e5a15d014c6f52196e7936f", "is_reserved": 0, "fusion_lon": 0.0, "lat": 38.9577055, "is_disabled": 0, "name": "8f939f5d1e5a15d014c6f52196e7936f", "fusion_lat": 0.0, "rental_uris": {"ios": "https://dc.lft.to/lastmile_qr_scan", "android": "https://dc.lft.to/lastmile_qr_scan"}, "lon": -77.0115565, "type": "electric_bike"}, {"bike_id": "63110faeb343ac98440458f8644ecca9", "is_reserved": 0, "fusion_lon": 0.0, "lat": 38.90256766666667, "is_disabled": 0, "name": "63110faeb343ac98440458f8644ecca9", "fusion_lat": 0.0, "rental_uris": {"ios": "https://dc.lft.to/lastmile_qr_scan", "android": "https://dc.lft.to/lastmile_qr_scan"}, "lon": -77.03942216666667, "type": "electric_scooter"}, {"bike_id": "81439194f18035eb0b0ab629764beb60", "is_reserved": 0, "fusion_lon": 0.0, "lat": 38.912036, "is_disabled": 0, "name": "81439194f18035eb0b0ab629764beb60", "fusion_lat": 0.0, "rental_uris": {"ios": "https://dc.lft.to/lastmile_qr_scan", "android": "https://dc.lft.to/lastmile_qr_scan"}, "lon": -77.02954016666666, "type": "electric_scooter"}, {"bike_id": "9193d3d139fd3ddfacaf070dcb4b15e4", "is_reserved": 0, "fusion_lon": 0.0, "lat": 38.90280116666667, "is_disabled": 0, "name": "9193d3d139fd3ddfacaf070dcb4b15e4", "fusion_lat": 0.0, "rental_uris": {"ios": "https://dc.lft.to/lastmile_qr_scan", "android": "https://dc.lft.to/lastmile_qr_scan"}, "lon": -77.03832583333333, "type": "electric_scooter"}, {"bike_id": "da4eadff9d7640ee44434cfcd4eb5cb6", "is_reserved": 0, "fusion_lon": 0.0, "lat": 38.92130066666667, "is_disabled": 0, "name": "da4eadff9d7640ee44434cfcd4eb5cb6", "fusion_lat": 0.0, "rental_uris": {"ios": "https://dc.lft.to/lastmile_qr_scan", "android": "https://dc.lft.to/lastmile_qr_scan"}, "lon": -77.022125, "type": "electric_scooter"}, {"bike_id": "b638e4fe9d28b4b0a340511410c318a7", "is_reserved": 0, "fusion_lon": 0.0, "lat": 38.911173166666664, "is_disabled": 0, "name": "b638e4fe9d28b4b0a340511410c318a7", "fusion_lat": 0.0, "rental_uris": {"ios": "https://dc.lft.to/lastmile_qr_scan", "android": "https://dc.lft.to/lastmile_qr_scan"}, "lon": -77.03730416666667, "type": "electric_scooter"}, {"bike_id": "5ea33f0b61598bd07a5426cca2015145", "is_reserved": 0, "fusion_lon": 0.0, "lat": 38.852458666666664, "is_disabled": 0, "name": "5ea33f0b61598bd07a5426cca2015145", "fusion_lat": 0.0, "rental_uris": {"ios": "https://dc.lft.to/lastmile_qr_scan", "android": "https://dc.lft.to/lastmile_qr_scan"}, "lon": -77.11427033333334, "type": "electric_bike"}, {"bike_id": "da4328efd71e554f8be0edc8a9d0b02e", "is_reserved": 0, "fusion_lon": 0.0, "lat": 38.975806, "is_disabled": 0, "name": "da4328efd71e554f8be0edc8a9d0b02e", "fusion_lat": 0.0, "rental_uris": {"ios": "https://dc.lft.to/lastmile_qr_scan", "android": "https://dc.lft.to/lastmile_qr_scan"}, "lon": -77.01740683333334, "type": "electric_scooter"}, {"bike_id": "1c5ea945615dc4eeb915a523e7b9fa1c", "is_reserved": 0, "fusion_lon": 0.0, "lat": 38.890065666666665, "is_disabled": 0, "name": "1c5ea945615dc4eeb915a523e7b9fa1c", "fusion_lat": 0.0, "rental_uris": {"ios": "https://dc.lft.to/lastmile_qr_scan", "android": "https://dc.lft.to/lastmile_qr_scan"}, "lon": -76.93746416666667, "type": "electric_scooter"}, {"bike_id": "a8a997a35237f00878bb23c7b3cdb2b8", "is_reserved": 0, "fusion_lon": 0.0, "lat": 38.9105055, "is_disabled": 0, "name": "a8a997a35237f00878bb23c7b3cdb2b8", "fusion_lat": 0.0, "rental_uris": {"ios": "https://dc.lft.to/lastmile_qr_scan", "android": "https://dc.lft.to/lastmile_qr_scan"}, "lon": -77.02189433333334, "type": "electric_scooter"}, {"bike_id": "fe8e2b58bd631743a73ce156ef9dbc9e", "is_reserved": 0, "fusion_lon": 0.0, "lat": 38.93509616666667, "is_disabled": 0, "name": "fe8e2b58bd631743a73ce156ef9dbc9e", "fusion_lat": 0.0, "rental_uris": {"ios": "https://dc.lft.to/lastmile_qr_scan", "android": "https://dc.lft.to/lastmile_qr_scan"}, "lon": -77.032937, "type": "electric_scooter"}, {"bike_id": "66fb5a03d00e5e16eee681b33c26378d", "is_reserved": 0, "fusion_lon": 0.0, "lat": 38.916172833333334, "is_disabled": 0, "name": "66fb5a03d00e5e16eee681b33c26378d", "fusion_lat": 0.0, "rental_uris": {"ios": "https://dc.lft.to/lastmile_qr_scan", "android": "https://dc.lft.to/lastmile_qr_scan"}, "lon": -77.0230405, "type": "electric_scooter"}, {"bike_id": "7961a4bdd696828ad8dee81fb4e34da4", "is_reserved": 0, "fusion_lon": 0.0, "lat": 38.842912, "is_disabled": 0, "name": "7961a4bdd696828ad8dee81fb4e34da4", "fusion_lat": 0.0, "rental_uris": {"ios": "https://dc.lft.to/lastmile_qr_scan", "android": "https://dc.lft.to/lastmile_qr_scan"}, "lon": -76.9994825, "type": "electric_scooter"}, {"bike_id": "287df6d0fba65b0e995387b3e237ae89", "is_reserved": 0, "fusion_lon": 0.0, "lat": 38.886731166666664, "is_disabled": 0, "name": "287df6d0fba65b0e995387b3e237ae89", "fusion_lat": 0.0, "rental_uris": {"ios": "https://dc.lft.to/lastmile_qr_scan", "android": "https://dc.lft.to/lastmile_qr_scan"}, "lon": -77.01371883333333, "type": "electric_scooter"}, {"bike_id": "2fde934ae4efabc7b2b9c1730ff4e2e3", "is_reserved": 0, "fusion_lon": 0.0, "lat": 38.92743166666666, "is_disabled": 0, "name": "2fde934ae4efabc7b2b9c1730ff4e2e3", "fusion_lat": 0.0, "rental_uris": {"ios": "https://dc.lft.to/lastmile_qr_scan", "android": "https://dc.lft.to/lastmile_qr_scan"}, "lon": -77.05362, "type": "electric_scooter"}, {"bike_id": "3b344e6bc1a212bdb606504c4da0eabe", "is_reserved": 0, "fusion_lon": 0.0, "lat": 38.89221416666667, "is_disabled": 0, "name": "3b344e6bc1a212bdb606504c4da0eabe", "fusion_lat": 0.0, "rental_uris": {"ios": "https://dc.lft.to/lastmile_qr_scan", "android": "https://dc.lft.to/lastmile_qr_scan"}, "lon": -77.032189, "type": "electric_scooter"}, {"bike_id": "b2ddd72848e7b01df6696bb84dd16c8c", "is_reserved": 0, "fusion_lon": 0.0, "lat": 38.900383166666664, "is_disabled": 0, "name": "b2ddd72848e7b01df6696bb84dd16c8c", "fusion_lat": 0.0, "rental_uris": {"ios": "https://dc.lft.to/lastmile_qr_scan", "android": "https://dc.lft.to/lastmile_qr_scan"}, "lon": -77.01195783333333, "type": "electric_scooter"}, {"bike_id": "85e0d4b2907c3126d3355ce6ad82e18d", "is_reserved": 0, "fusion_lon": 0.0, "lat": 38.91700683333333, "is_disabled": 0, "name": "85e0d4b2907c3126d3355ce6ad82e18d", "fusion_lat": 0.0, "rental_uris": {"ios": "https://dc.lft.to/lastmile_qr_scan", "android": "https://dc.lft.to/lastmile_qr_scan"}, "lon": -77.02256916666667, "type": "electric_scooter"}, {"bike_id": "5d54159c75ca7ff19cd9afc56c04fe10", "is_reserved": 0, "fusion_lon": 0.0, "lat": 38.865611666666666, "is_disabled": 0, "name": "5d54159c75ca7ff19cd9afc56c04fe10", "fusion_lat": 0.0, "rental_uris": {"ios": "https://dc.lft.to/lastmile_qr_scan", "android": "https://dc.lft.to/lastmile_qr_scan"}, "lon": -76.98951, "type": "electric_scooter"}, {"bike_id": "24807ff9db1f0174f1bb2d4d2e8931fb", "is_reserved": 0, "fusion_lon": 0.0, "lat": 38.882363833333336, "is_disabled": 0, "name": "24807ff9db1f0174f1bb2d4d2e8931fb", "fusion_lat": 0.0, "rental_uris": {"ios": "https://dc.lft.to/lastmile_qr_scan", "android": "https://dc.lft.to/lastmile_qr_scan"}, "lon": -76.99003016666667, "type": "electric_scooter"}, {"bike_id": "daabd8cdc9e69fdb0b7ee4183e948ac8", "is_reserved": 0, "fusion_lon": 0.0, "lat": 38.898197333333336, "is_disabled": 0, "name": "daabd8cdc9e69fdb0b7ee4183e948ac8", "fusion_lat": 0.0, "rental_uris": {"ios": "https://dc.lft.to/lastmile_qr_scan", "android": "https://dc.lft.to/lastmile_qr_scan"}, "lon": -77.03349133333333, "type": "electric_scooter"}, {"bike_id": "62cf99ada80e7f16b0acece1cf3cf371", "is_reserved": 0, "fusion_lon": 0.0, "lat": 38.91803516666667, "is_disabled": 0, "name": "62cf99ada80e7f16b0acece1cf3cf371", "fusion_lat": 0.0, "rental_uris": {"ios": "https://dc.lft.to/lastmile_qr_scan", "android": "https://dc.lft.to/lastmile_qr_scan"}, "lon": -77.03442466666667, "type": "electric_scooter"}, {"bike_id": "68b5f1ab97b66e65951e0aaa0c8f3ff0", "is_reserved": 0, "fusion_lon": 0.0, "lat": 38.907402166666664, "is_disabled": 0, "name": "68b5f1ab97b66e65951e0aaa0c8f3ff0", "fusion_lat": 0.0, "rental_uris": {"ios": "https://dc.lft.to/lastmile_qr_scan", "android": "https://dc.lft.to/lastmile_qr_scan"}, "lon": -77.0347115, "type": "electric_scooter"}, {"bike_id": "aff9791cb98c015038c3a776ab551630", "is_reserved": 0, "fusion_lon": 0.0, "lat": 38.898335333333335, "is_disabled": 0, "name": "aff9791cb98c015038c3a776ab551630", "fusion_lat": 0.0, "rental_uris": {"ios": "https://dc.lft.to/lastmile_qr_scan", "android": "https://dc.lft.to/lastmile_qr_scan"}, "lon": -76.9463455, "type": "electric_scooter"}, {"bike_id": "a62b191aa8e3bba214b06c69399beb8a", "is_reserved": 0, "fusion_lon": 0.0, "lat": 38.90123766666667, "is_disabled": 0, "name": "a62b191aa8e3bba214b06c69399beb8a", "fusion_lat": 0.0, "rental_uris": {"ios": "https://dc.lft.to/lastmile_qr_scan", "android": "https://dc.lft.to/lastmile_qr_scan"}, "lon": -77.01968016666666, "type": "electric_scooter"}, {"bike_id": "2457835f818b651e552a7cbce7bc58fb", "is_reserved": 0, "fusion_lon": 0.0, "lat": 38.933333166666664, "is_disabled": 0, "name": "2457835f818b651e552a7cbce7bc58fb", "fusion_lat": 0.0, "rental_uris": {"ios": "https://dc.lft.to/lastmile_qr_scan", "android": "https://dc.lft.to/lastmile_qr_scan"}, "lon": -77.03283383333333, "type": "electric_scooter"}, {"bike_id": "a5e75cd0c3d2aae7801018cad863d8b5", "is_reserved": 0, "fusion_lon": 0.0, "lat": 38.912514, "is_disabled": 0, "name": "a5e75cd0c3d2aae7801018cad863d8b5", "fusion_lat": 0.0, "rental_uris": {"ios": "https://dc.lft.to/lastmile_qr_scan", "android": "https://dc.lft.to/lastmile_qr_scan"}, "lon": -77.01443966666666, "type": "electric_scooter"}, {"bike_id": "866da2f28b5fe1675ec9c9b72a521536", "is_reserved": 0, "fusion_lon": 0.0, "lat": 38.9732655, "is_disabled": 0, "name": "866da2f28b5fe1675ec9c9b72a521536", "fusion_lat": 0.0, "rental_uris": {"ios": "https://dc.lft.to/lastmile_qr_scan", "android": "https://dc.lft.to/lastmile_qr_scan"}, "lon": -77.02151766666667, "type": "electric_bike"}, {"bike_id": "16e767c57a77fae44c7f8a624027734a", "is_reserved": 0, "fusion_lon": 0.0, "lat": 38.906038333333335, "is_disabled": 0, "name": "16e767c57a77fae44c7f8a624027734a", "fusion_lat": 0.0, "rental_uris": {"ios": "https://dc.lft.to/lastmile_qr_scan", "android": "https://dc.lft.to/lastmile_qr_scan"}, "lon": -77.06297366666666, "type": "electric_scooter"}, {"bike_id": "51232a179d362a44992b4cd62a5b18af", "is_reserved": 0, "fusion_lon": 0.0, "lat": 38.919935333333335, "is_disabled": 0, "name": "51232a179d362a44992b4cd62a5b18af", "fusion_lat": 0.0, "rental_uris": {"ios": "https://dc.lft.to/lastmile_qr_scan", "android": "https://dc.lft.to/lastmile_qr_scan"}, "lon": -77.07112183333334, "type": "electric_bike"}, {"bike_id": "b2be83d046df186c0dac95d913b40fb7", "is_reserved": 0, "fusion_lon": 0.0, "lat": 38.9454715, "is_disabled": 0, "name": "b2be83d046df186c0dac95d913b40fb7", "fusion_lat": 0.0, "rental_uris": {"ios": "https://dc.lft.to/lastmile_qr_scan", "android": "https://dc.lft.to/lastmile_qr_scan"}, "lon": -76.89531216666667, "type": "electric_bike"}, {"bike_id": "f9c9f7f3de133de3e39fb4391495e282", "is_reserved": 0, "fusion_lon": 0.0, "lat": 38.900183, "is_disabled": 0, "name": "f9c9f7f3de133de3e39fb4391495e282", "fusion_lat": 0.0, "rental_uris": {"ios": "https://dc.lft.to/lastmile_qr_scan", "android": "https://dc.lft.to/lastmile_qr_scan"}, "lon": -77.0465305, "type": "electric_scooter"}, {"bike_id": "66901037b24f44cdef401cfb0627bf89", "is_reserved": 0, "fusion_lon": 0.0, "lat": 38.883920333333336, "is_disabled": 0, "name": "66901037b24f44cdef401cfb0627bf89", "fusion_lat": 0.0, "rental_uris": {"ios": "https://dc.lft.to/lastmile_qr_scan", "android": "https://dc.lft.to/lastmile_qr_scan"}, "lon": -76.93040233333333, "type": "electric_scooter"}, {"bike_id": "6d4f43932baea8185e911343eeeb0b67", "is_reserved": 0, "fusion_lon": 0.0, "lat": 38.933277, "is_disabled": 0, "name": "6d4f43932baea8185e911343eeeb0b67", "fusion_lat": 0.0, "rental_uris": {"ios": "https://dc.lft.to/lastmile_qr_scan", "android": "https://dc.lft.to/lastmile_qr_scan"}, "lon": -77.03270133333334, "type": "electric_scooter"}, {"bike_id": "5fd5a16a07c9fdffc38761983bf7a3e7", "is_reserved": 0, "fusion_lon": 0.0, "lat": 38.932460166666665, "is_disabled": 0, "name": "5fd5a16a07c9fdffc38761983bf7a3e7", "fusion_lat": 0.0, "rental_uris": {"ios": "https://dc.lft.to/lastmile_qr_scan", "android": "https://dc.lft.to/lastmile_qr_scan"}, "lon": -77.03273666666666, "type": "electric_scooter"}, {"bike_id": "96e849031a188ce6ea801ef7b6c84f6d", "is_reserved": 0, "fusion_lon": 0.0, "lat": 38.844282, "is_disabled": 0, "name": "96e849031a188ce6ea801ef7b6c84f6d", "fusion_lat": 0.0, "rental_uris": {"ios": "https://dc.lft.to/lastmile_qr_scan", "android": "https://dc.lft.to/lastmile_qr_scan"}, "lon": -76.99779266666667, "type": "electric_scooter"}, {"bike_id": "43a76ed060da95d52b2b65e4661c6292", "is_reserved": 0, "fusion_lon": 0.0, "lat": 38.906618333333334, "is_disabled": 0, "name": "43a76ed060da95d52b2b65e4661c6292", "fusion_lat": 0.0, "rental_uris": {"ios": "https://dc.lft.to/lastmile_qr_scan", "android": "https://dc.lft.to/lastmile_qr_scan"}, "lon": -77.03533583333333, "type": "electric_scooter"}, {"bike_id": "7b9bdb2f9adcf3df9c567b0452bf4b2f", "is_reserved": 0, "fusion_lon": 0.0, "lat": 38.91475483333333, "is_disabled": 0, "name": "7b9bdb2f9adcf3df9c567b0452bf4b2f", "fusion_lat": 0.0, "rental_uris": {"ios": "https://dc.lft.to/lastmile_qr_scan", "android": "https://dc.lft.to/lastmile_qr_scan"}, "lon": -77.01273783333333, "type": "electric_scooter"}, {"bike_id": "34827a725e1ed6183a7c706248362135", "is_reserved": 0, "fusion_lon": 0.0, "lat": 38.86174666666667, "is_disabled": 0, "name": "34827a725e1ed6183a7c706248362135", "fusion_lat": 0.0, "rental_uris": {"ios": "https://dc.lft.to/lastmile_qr_scan", "android": "https://dc.lft.to/lastmile_qr_scan"}, "lon": -76.96909383333333, "type": "electric_scooter"}, {"bike_id": "312bfebdccfcb15950699c9648995025", "is_reserved": 0, "fusion_lon": 0.0, "lat": 38.895012666666666, "is_disabled": 0, "name": "312bfebdccfcb15950699c9648995025", "fusion_lat": 0.0, "rental_uris": {"ios": "https://dc.lft.to/lastmile_qr_scan", "android": "https://dc.lft.to/lastmile_qr_scan"}, "lon": -77.00287283333333, "type": "electric_scooter"}, {"bike_id": "b7ac158c57a29557e7d587134c9813af", "is_reserved": 0, "fusion_lon": 0.0, "lat": 38.9564375, "is_disabled": 0, "name": "b7ac158c57a29557e7d587134c9813af", "fusion_lat": 0.0, "rental_uris": {"ios": "https://dc.lft.to/lastmile_qr_scan", "android": "https://dc.lft.to/lastmile_qr_scan"}, "lon": -76.99788766666667, "type": "electric_scooter"}, {"bike_id": "eb2cd98fe8d8d8b100446fc55c4b4c51", "is_reserved": 0, "fusion_lon": 0.0, "lat": 38.88740933333333, "is_disabled": 0, "name": "eb2cd98fe8d8d8b100446fc55c4b4c51", "fusion_lat": 0.0, "rental_uris": {"ios": "https://dc.lft.to/lastmile_qr_scan", "android": "https://dc.lft.to/lastmile_qr_scan"}, "lon": -77.03124566666666, "type": "electric_scooter"}, {"bike_id": "c8e35ed50c6497d353cf55f322187043", "is_reserved": 0, "fusion_lon": 0.0, "lat": 38.91273783333333, "is_disabled": 0, "name": "c8e35ed50c6497d353cf55f322187043", "fusion_lat": 0.0, "rental_uris": {"ios": "https://dc.lft.to/lastmile_qr_scan", "android": "https://dc.lft.to/lastmile_qr_scan"}, "lon": -77.01611166666666, "type": "electric_scooter"}, {"bike_id": "5de06150fcc09ff4e8c015d93a424224", "is_reserved": 0, "fusion_lon": 0.0, "lat": 38.8897195, "is_disabled": 0, "name": "5de06150fcc09ff4e8c015d93a424224", "fusion_lat": 0.0, "rental_uris": {"ios": "https://dc.lft.to/lastmile_qr_scan", "android": "https://dc.lft.to/lastmile_qr_scan"}, "lon": -76.98037483333333, "type": "electric_bike"}, {"bike_id": "02ccf5b470f6dfd106960d4ec0e585b7", "is_reserved": 0, "fusion_lon": 0.0, "lat": 38.902358666666665, "is_disabled": 0, "name": "02ccf5b470f6dfd106960d4ec0e585b7", "fusion_lat": 0.0, "rental_uris": {"ios": "https://dc.lft.to/lastmile_qr_scan", "android": "https://dc.lft.to/lastmile_qr_scan"}, "lon": -77.03950983333333, "type": "electric_scooter"}, {"bike_id": "1f4b955e034e99b494fa6f89cb709959", "is_reserved": 0, "fusion_lon": 0.0, "lat": 38.9300025, "is_disabled": 0, "name": "1f4b955e034e99b494fa6f89cb709959", "fusion_lat": 0.0, "rental_uris": {"ios": "https://dc.lft.to/lastmile_qr_scan", "android": "https://dc.lft.to/lastmile_qr_scan"}, "lon": -77.05541933333333, "type": "electric_scooter"}, {"bike_id": "49436ac5bdb06dd67195277c5ad5438a", "is_reserved": 0, "fusion_lon": 0.0, "lat": 38.8822875, "is_disabled": 0, "name": "49436ac5bdb06dd67195277c5ad5438a", "fusion_lat": 0.0, "rental_uris": {"ios": "https://dc.lft.to/lastmile_qr_scan", "android": "https://dc.lft.to/lastmile_qr_scan"}, "lon": -76.9908995, "type": "electric_scooter"}, {"bike_id": "c17294c3e702800d271df33527baa1d4", "is_reserved": 0, "fusion_lon": 0.0, "lat": 38.92406866666666, "is_disabled": 0, "name": "c17294c3e702800d271df33527baa1d4", "fusion_lat": 0.0, "rental_uris": {"ios": "https://dc.lft.to/lastmile_qr_scan", "android": "https://dc.lft.to/lastmile_qr_scan"}, "lon": -77.01956283333334, "type": "electric_scooter"}, {"bike_id": "6f437cd5b2db054066a00cacee160d76", "is_reserved": 0, "fusion_lon": 0.0, "lat": 38.88493583333333, "is_disabled": 0, "name": "6f437cd5b2db054066a00cacee160d76", "fusion_lat": 0.0, "rental_uris": {"ios": "https://dc.lft.to/lastmile_qr_scan", "android": "https://dc.lft.to/lastmile_qr_scan"}, "lon": -77.00727583333334, "type": "electric_scooter"}, {"bike_id": "9db657d9c99dc972e2f8d8b6c2a92553", "is_reserved": 0, "fusion_lon": 0.0, "lat": 38.9248745, "is_disabled": 0, "name": "9db657d9c99dc972e2f8d8b6c2a92553", "fusion_lat": 0.0, "rental_uris": {"ios": "https://dc.lft.to/lastmile_qr_scan", "android": "https://dc.lft.to/lastmile_qr_scan"}, "lon": -77.02713466666667, "type": "electric_scooter"}, {"bike_id": "367faa1b83f4e5419b5b9efeb17cb3ca", "is_reserved": 0, "fusion_lon": 0.0, "lat": 38.88765133333333, "is_disabled": 0, "name": "367faa1b83f4e5419b5b9efeb17cb3ca", "fusion_lat": 0.0, "rental_uris": {"ios": "https://dc.lft.to/lastmile_qr_scan", "android": "https://dc.lft.to/lastmile_qr_scan"}, "lon": -77.02031816666667, "type": "electric_scooter"}, {"bike_id": "81e50d13f2dc38fa1c0d0af0f662aae4", "is_reserved": 0, "fusion_lon": 0.0, "lat": 38.930839, "is_disabled": 0, "name": "81e50d13f2dc38fa1c0d0af0f662aae4", "fusion_lat": 0.0, "rental_uris": {"ios": "https://dc.lft.to/lastmile_qr_scan", "android": "https://dc.lft.to/lastmile_qr_scan"}, "lon": -77.02797566666666, "type": "electric_scooter"}, {"bike_id": "a001000e4d2cd0f153a72b2c2f522824", "is_reserved": 0, "fusion_lon": 0.0, "lat": 38.937744, "is_disabled": 0, "name": "a001000e4d2cd0f153a72b2c2f522824", "fusion_lat": 0.0, "rental_uris": {"ios": "https://dc.lft.to/lastmile_qr_scan", "android": "https://dc.lft.to/lastmile_qr_scan"}, "lon": -77.01907466666667, "type": "electric_bike"}, {"bike_id": "94181e90c5fd6d31bc994ab42b0a25f2", "is_reserved": 0, "fusion_lon": 0.0, "lat": 38.8789375, "is_disabled": 0, "name": "94181e90c5fd6d31bc994ab42b0a25f2", "fusion_lat": 0.0, "rental_uris": {"ios": "https://dc.lft.to/lastmile_qr_scan", "android": "https://dc.lft.to/lastmile_qr_scan"}, "lon": -76.99163116666666, "type": "electric_scooter"}, {"bike_id": "da73d6acbfd3f4c694e8d7c142fee0b2", "is_reserved": 0, "fusion_lon": 0.0, "lat": 38.90473866666667, "is_disabled": 0, "name": "da73d6acbfd3f4c694e8d7c142fee0b2", "fusion_lat": 0.0, "rental_uris": {"ios": "https://dc.lft.to/lastmile_qr_scan", "android": "https://dc.lft.to/lastmile_qr_scan"}, "lon": -77.0294855, "type": "electric_scooter"}, {"bike_id": "c5b3188c3925f83b1bb89a0f12718e58", "is_reserved": 0, "fusion_lon": 0.0, "lat": 38.903142833333334, "is_disabled": 0, "name": "c5b3188c3925f83b1bb89a0f12718e58", "fusion_lat": 0.0, "rental_uris": {"ios": "https://dc.lft.to/lastmile_qr_scan", "android": "https://dc.lft.to/lastmile_qr_scan"}, "lon": -77.03422133333333, "type": "electric_scooter"}, {"bike_id": "1eb1920275ed2ec75d53b0a56c77ef20", "is_reserved": 0, "fusion_lon": 0.0, "lat": 38.9028145, "is_disabled": 0, "name": "1eb1920275ed2ec75d53b0a56c77ef20", "fusion_lat": 0.0, "rental_uris": {"ios": "https://dc.lft.to/lastmile_qr_scan", "android": "https://dc.lft.to/lastmile_qr_scan"}, "lon": -77.0364005, "type": "electric_scooter"}, {"bike_id": "803e53760a8651f2765db1477c157bf7", "is_reserved": 0, "fusion_lon": 0.0, "lat": 38.915806333333336, "is_disabled": 0, "name": "803e53760a8651f2765db1477c157bf7", "fusion_lat": 0.0, "rental_uris": {"ios": "https://dc.lft.to/lastmile_qr_scan", "android": "https://dc.lft.to/lastmile_qr_scan"}, "lon": -77.046745, "type": "electric_scooter"}, {"bike_id": "fc6e08b8dc5ebd326ac8d846117a2652", "is_reserved": 0, "fusion_lon": 0.0, "lat": 38.92320083333333, "is_disabled": 0, "name": "fc6e08b8dc5ebd326ac8d846117a2652", "fusion_lat": 0.0, "rental_uris": {"ios": "https://dc.lft.to/lastmile_qr_scan", "android": "https://dc.lft.to/lastmile_qr_scan"}, "lon": -77.03668683333333, "type": "electric_scooter"}, {"bike_id": "32f18081f63b080da010e4ee090f8c91", "is_reserved": 0, "fusion_lon": 0.0, "lat": 38.90258433333333, "is_disabled": 0, "name": "32f18081f63b080da010e4ee090f8c91", "fusion_lat": 0.0, "rental_uris": {"ios": "https://dc.lft.to/lastmile_qr_scan", "android": "https://dc.lft.to/lastmile_qr_scan"}, "lon": -77.0343175, "type": "electric_scooter"}, {"bike_id": "5bf10346c6d128d394930e0cc827bd61", "is_reserved": 0, "fusion_lon": 0.0, "lat": 38.9276665, "is_disabled": 0, "name": "5bf10346c6d128d394930e0cc827bd61", "fusion_lat": 0.0, "rental_uris": {"ios": "https://dc.lft.to/lastmile_qr_scan", "android": "https://dc.lft.to/lastmile_qr_scan"}, "lon": -77.03245316666667, "type": "electric_scooter"}, {"bike_id": "63721fa1b9a238426b5a23a81228d090", "is_reserved": 0, "fusion_lon": 0.0, "lat": 38.911933166666664, "is_disabled": 0, "name": "63721fa1b9a238426b5a23a81228d090", "fusion_lat": 0.0, "rental_uris": {"ios": "https://dc.lft.to/lastmile_qr_scan", "android": "https://dc.lft.to/lastmile_qr_scan"}, "lon": -77.007281, "type": "electric_scooter"}, {"bike_id": "9b4f62a5fd0b48f784d13f8560a39761", "is_reserved": 0, "fusion_lon": 0.0, "lat": 38.8822215, "is_disabled": 0, "name": "9b4f62a5fd0b48f784d13f8560a39761", "fusion_lat": 0.0, "rental_uris": {"ios": "https://dc.lft.to/lastmile_qr_scan", "android": "https://dc.lft.to/lastmile_qr_scan"}, "lon": -76.94182416666666, "type": "electric_scooter"}, {"bike_id": "1b8b33808ccc0d754d8d5bcf8fa38e44", "is_reserved": 0, "fusion_lon": 0.0, "lat": 38.88497916666667, "is_disabled": 0, "name": "1b8b33808ccc0d754d8d5bcf8fa38e44", "fusion_lat": 0.0, "rental_uris": {"ios": "https://dc.lft.to/lastmile_qr_scan", "android": "https://dc.lft.to/lastmile_qr_scan"}, "lon": -77.01552566666666, "type": "electric_scooter"}, {"bike_id": "8e4035a44ccb664f7b61a2764ac21a26", "is_reserved": 0, "fusion_lon": 0.0, "lat": 38.87848116666667, "is_disabled": 0, "name": "8e4035a44ccb664f7b61a2764ac21a26", "fusion_lat": 0.0, "rental_uris": {"ios": "https://dc.lft.to/lastmile_qr_scan", "android": "https://dc.lft.to/lastmile_qr_scan"}, "lon": -77.00503483333334, "type": "electric_scooter"}, {"bike_id": "6dd2adad1e3e1da7642e40334be4f12f", "is_reserved": 0, "fusion_lon": 0.0, "lat": 38.9133285, "is_disabled": 0, "name": "6dd2adad1e3e1da7642e40334be4f12f", "fusion_lat": 0.0, "rental_uris": {"ios": "https://dc.lft.to/lastmile_qr_scan", "android": "https://dc.lft.to/lastmile_qr_scan"}, "lon": -77.04875983333334, "type": "electric_scooter"}, {"bike_id": "f47964e3d0c94f1e6fe8bd032f1ea93a", "is_reserved": 0, "fusion_lon": 0.0, "lat": 38.926466833333336, "is_disabled": 0, "name": "f47964e3d0c94f1e6fe8bd032f1ea93a", "fusion_lat": 0.0, "rental_uris": {"ios": "https://dc.lft.to/lastmile_qr_scan", "android": "https://dc.lft.to/lastmile_qr_scan"}, "lon": -77.0370685, "type": "electric_scooter"}, {"bike_id": "1b5a4337142ee16079f18d3f6f4a60b4", "is_reserved": 0, "fusion_lon": 0.0, "lat": 38.92772816666667, "is_disabled": 0, "name": "1b5a4337142ee16079f18d3f6f4a60b4", "fusion_lat": 0.0, "rental_uris": {"ios": "https://dc.lft.to/lastmile_qr_scan", "android": "https://dc.lft.to/lastmile_qr_scan"}, "lon": -77.02685366666667, "type": "electric_scooter"}, {"bike_id": "7038f2ea9f080fcc013b8586c9c9e7d4", "is_reserved": 0, "fusion_lon": 0.0, "lat": 38.9234015, "is_disabled": 0, "name": "7038f2ea9f080fcc013b8586c9c9e7d4", "fusion_lat": 0.0, "rental_uris": {"ios": "https://dc.lft.to/lastmile_qr_scan", "android": "https://dc.lft.to/lastmile_qr_scan"}, "lon": -77.22354216666666, "type": "electric_bike"}, {"bike_id": "af0af13c8fdb8050e99dd67bfe66923d", "is_reserved": 0, "fusion_lon": 0.0, "lat": 38.89031766666667, "is_disabled": 0, "name": "af0af13c8fdb8050e99dd67bfe66923d", "fusion_lat": 0.0, "rental_uris": {"ios": "https://dc.lft.to/lastmile_qr_scan", "android": "https://dc.lft.to/lastmile_qr_scan"}, "lon": -76.936211, "type": "electric_scooter"}, {"bike_id": "1abd587ed284d94b11fd8ce8df9823d5", "is_reserved": 0, "fusion_lon": 0.0, "lat": 38.97090683333333, "is_disabled": 0, "name": "1abd587ed284d94b11fd8ce8df9823d5", "fusion_lat": 0.0, "rental_uris": {"ios": "https://dc.lft.to/lastmile_qr_scan", "android": "https://dc.lft.to/lastmile_qr_scan"}, "lon": -77.06970533333333, "type": "electric_bike"}, {"bike_id": "b1cbc4e26a8b3bcfbcb18216288799d7", "is_reserved": 0, "fusion_lon": 0.0, "lat": 38.898852833333336, "is_disabled": 0, "name": "b1cbc4e26a8b3bcfbcb18216288799d7", "fusion_lat": 0.0, "rental_uris": {"ios": "https://dc.lft.to/lastmile_qr_scan", "android": "https://dc.lft.to/lastmile_qr_scan"}, "lon": -77.03297233333333, "type": "electric_scooter"}, {"bike_id": "7b724864fa75555a58f70b0c66414a7a", "is_reserved": 0, "fusion_lon": 0.0, "lat": 38.90287333333333, "is_disabled": 0, "name": "7b724864fa75555a58f70b0c66414a7a", "fusion_lat": 0.0, "rental_uris": {"ios": "https://dc.lft.to/lastmile_qr_scan", "android": "https://dc.lft.to/lastmile_qr_scan"}, "lon": -77.018783, "type": "electric_scooter"}, {"bike_id": "646d2a4e6d15e2f67bd4075d96b85cc1", "is_reserved": 0, "fusion_lon": 0.0, "lat": 38.86507816666666, "is_disabled": 0, "name": "646d2a4e6d15e2f67bd4075d96b85cc1", "fusion_lat": 0.0, "rental_uris": {"ios": "https://dc.lft.to/lastmile_qr_scan", "android": "https://dc.lft.to/lastmile_qr_scan"}, "lon": -76.9897645, "type": "electric_scooter"}, {"bike_id": "7467f5c8809395a7a26751fe70ea130b", "is_reserved": 0, "fusion_lon": 0.0, "lat": 38.9262535, "is_disabled": 0, "name": "7467f5c8809395a7a26751fe70ea130b", "fusion_lat": 0.0, "rental_uris": {"ios": "https://dc.lft.to/lastmile_qr_scan", "android": "https://dc.lft.to/lastmile_qr_scan"}, "lon": -77.0378585, "type": "electric_scooter"}, {"bike_id": "909b98f3c297d53354020af5b04b757d", "is_reserved": 0, "fusion_lon": 0.0, "lat": 38.92579766666667, "is_disabled": 0, "name": "909b98f3c297d53354020af5b04b757d", "fusion_lat": 0.0, "rental_uris": {"ios": "https://dc.lft.to/lastmile_qr_scan", "android": "https://dc.lft.to/lastmile_qr_scan"}, "lon": -77.004716, "type": "electric_scooter"}, {"bike_id": "c3515df009ce82855c6bfa4a520f69a0", "is_reserved": 0, "fusion_lon": 0.0, "lat": 38.935908, "is_disabled": 0, "name": "c3515df009ce82855c6bfa4a520f69a0", "fusion_lat": 0.0, "rental_uris": {"ios": "https://dc.lft.to/lastmile_qr_scan", "android": "https://dc.lft.to/lastmile_qr_scan"}, "lon": -77.02761516666666, "type": "electric_scooter"}, {"bike_id": "2ee89cc5b4dd822b6797ca43a08827d4", "is_reserved": 0, "fusion_lon": 0.0, "lat": 38.8934, "is_disabled": 0, "name": "2ee89cc5b4dd822b6797ca43a08827d4", "fusion_lat": 0.0, "rental_uris": {"ios": "https://dc.lft.to/lastmile_qr_scan", "android": "https://dc.lft.to/lastmile_qr_scan"}, "lon": -76.98454916666667, "type": "electric_scooter"}, {"bike_id": "21a785d43860bd51256ea81b88fe7adc", "is_reserved": 0, "fusion_lon": 0.0, "lat": 38.90132083333334, "is_disabled": 0, "name": "21a785d43860bd51256ea81b88fe7adc", "fusion_lat": 0.0, "rental_uris": {"ios": "https://dc.lft.to/lastmile_qr_scan", "android": "https://dc.lft.to/lastmile_qr_scan"}, "lon": -76.99711133333334, "type": "electric_scooter"}, {"bike_id": "5a303af1b6c07ff2805fa21c656bf83d", "is_reserved": 0, "fusion_lon": 0.0, "lat": 38.92709633333333, "is_disabled": 0, "name": "5a303af1b6c07ff2805fa21c656bf83d", "fusion_lat": 0.0, "rental_uris": {"ios": "https://dc.lft.to/lastmile_qr_scan", "android": "https://dc.lft.to/lastmile_qr_scan"}, "lon": -77.0404885, "type": "electric_scooter"}, {"bike_id": "dd86660b5684d12c7fce3c2357159d36", "is_reserved": 0, "fusion_lon": 0.0, "lat": 38.922693, "is_disabled": 0, "name": "dd86660b5684d12c7fce3c2357159d36", "fusion_lat": 0.0, "rental_uris": {"ios": "https://dc.lft.to/lastmile_qr_scan", "android": "https://dc.lft.to/lastmile_qr_scan"}, "lon": -77.018261, "type": "electric_scooter"}, {"bike_id": "7a4c4f37394bb287a765f22ae08fcf0d", "is_reserved": 0, "fusion_lon": 0.0, "lat": 38.8995275, "is_disabled": 0, "name": "7a4c4f37394bb287a765f22ae08fcf0d", "fusion_lat": 0.0, "rental_uris": {"ios": "https://dc.lft.to/lastmile_qr_scan", "android": "https://dc.lft.to/lastmile_qr_scan"}, "lon": -77.05277383333333, "type": "electric_scooter"}, {"bike_id": "0568048b84520bdc89f6fc5349835353", "is_reserved": 0, "fusion_lon": 0.0, "lat": 38.911784, "is_disabled": 0, "name": "0568048b84520bdc89f6fc5349835353", "fusion_lat": 0.0, "rental_uris": {"ios": "https://dc.lft.to/lastmile_qr_scan", "android": "https://dc.lft.to/lastmile_qr_scan"}, "lon": -76.98640466666667, "type": "electric_scooter"}, {"bike_id": "77d20d3283711c9b6e0a1d5314e7b9e3", "is_reserved": 0, "fusion_lon": 0.0, "lat": 38.91002533333333, "is_disabled": 0, "name": "77d20d3283711c9b6e0a1d5314e7b9e3", "fusion_lat": 0.0, "rental_uris": {"ios": "https://dc.lft.to/lastmile_qr_scan", "android": "https://dc.lft.to/lastmile_qr_scan"}, "lon": -77.0210125, "type": "electric_scooter"}, {"bike_id": "1cf947167de0859f4827697a98165414", "is_reserved": 0, "fusion_lon": 0.0, "lat": 38.91545333333333, "is_disabled": 0, "name": "1cf947167de0859f4827697a98165414", "fusion_lat": 0.0, "rental_uris": {"ios": "https://dc.lft.to/lastmile_qr_scan", "android": "https://dc.lft.to/lastmile_qr_scan"}, "lon": -77.0235905, "type": "electric_scooter"}, {"bike_id": "ec7328b4dd850736d2aba0591bd19599", "is_reserved": 0, "fusion_lon": 0.0, "lat": 38.90879783333333, "is_disabled": 0, "name": "ec7328b4dd850736d2aba0591bd19599", "fusion_lat": 0.0, "rental_uris": {"ios": "https://dc.lft.to/lastmile_qr_scan", "android": "https://dc.lft.to/lastmile_qr_scan"}, "lon": -77.04327033333334, "type": "electric_scooter"}, {"bike_id": "6ad6cdb0dca1480079592eba32479f30", "is_reserved": 0, "fusion_lon": 0.0, "lat": 38.9168375, "is_disabled": 0, "name": "6ad6cdb0dca1480079592eba32479f30", "fusion_lat": 0.0, "rental_uris": {"ios": "https://dc.lft.to/lastmile_qr_scan", "android": "https://dc.lft.to/lastmile_qr_scan"}, "lon": -77.0289245, "type": "electric_scooter"}, {"bike_id": "611f3b633ea6d702a6709a32d1ee68de", "is_reserved": 0, "fusion_lon": 0.0, "lat": 38.90208483333333, "is_disabled": 0, "name": "611f3b633ea6d702a6709a32d1ee68de", "fusion_lat": 0.0, "rental_uris": {"ios": "https://dc.lft.to/lastmile_qr_scan", "android": "https://dc.lft.to/lastmile_qr_scan"}, "lon": -77.01971033333334, "type": "electric_scooter"}, {"bike_id": "814b16b8ffa08cc1bbe7179e843ade7c", "is_reserved": 0, "fusion_lon": 0.0, "lat": 38.9243405, "is_disabled": 0, "name": "814b16b8ffa08cc1bbe7179e843ade7c", "fusion_lat": 0.0, "rental_uris": {"ios": "https://dc.lft.to/lastmile_qr_scan", "android": "https://dc.lft.to/lastmile_qr_scan"}, "lon": -77.03370583333333, "type": "electric_scooter"}, {"bike_id": "92f5dd0a9da20792a31846b2786dc9d0", "is_reserved": 0, "fusion_lon": 0.0, "lat": 38.927945333333334, "is_disabled": 0, "name": "92f5dd0a9da20792a31846b2786dc9d0", "fusion_lat": 0.0, "rental_uris": {"ios": "https://dc.lft.to/lastmile_qr_scan", "android": "https://dc.lft.to/lastmile_qr_scan"}, "lon": -77.026023, "type": "electric_scooter"}, {"bike_id": "2a5c8da5ed93d2f2bab61d3054dc14b9", "is_reserved": 0, "fusion_lon": 0.0, "lat": 38.899595833333336, "is_disabled": 0, "name": "2a5c8da5ed93d2f2bab61d3054dc14b9", "fusion_lat": 0.0, "rental_uris": {"ios": "https://dc.lft.to/lastmile_qr_scan", "android": "https://dc.lft.to/lastmile_qr_scan"}, "lon": -77.01622216666667, "type": "electric_scooter"}, {"bike_id": "4ebc2dcab62d542d8f20467fd3d1a4df", "is_reserved": 0, "fusion_lon": 0.0, "lat": 38.92843633333333, "is_disabled": 0, "name": "4ebc2dcab62d542d8f20467fd3d1a4df", "fusion_lat": 0.0, "rental_uris": {"ios": "https://dc.lft.to/lastmile_qr_scan", "android": "https://dc.lft.to/lastmile_qr_scan"}, "lon": -77.02060916666667, "type": "electric_bike"}, {"bike_id": "c92335e28004177fe265554e85c27f21", "is_reserved": 0, "fusion_lon": 0.0, "lat": 38.8973195, "is_disabled": 0, "name": "c92335e28004177fe265554e85c27f21", "fusion_lat": 0.0, "rental_uris": {"ios": "https://dc.lft.to/lastmile_qr_scan", "android": "https://dc.lft.to/lastmile_qr_scan"}, "lon": -76.94713833333333, "type": "electric_scooter"}, {"bike_id": "eeb4c3c3cd79f42a11cb816b92f4f060", "is_reserved": 0, "fusion_lon": 0.0, "lat": 38.91617266666667, "is_disabled": 0, "name": "eeb4c3c3cd79f42a11cb816b92f4f060", "fusion_lat": 0.0, "rental_uris": {"ios": "https://dc.lft.to/lastmile_qr_scan", "android": "https://dc.lft.to/lastmile_qr_scan"}, "lon": -77.036397, "type": "electric_scooter"}, {"bike_id": "a9581b1e325ff7968c248661492772de", "is_reserved": 0, "fusion_lon": 0.0, "lat": 38.966199833333334, "is_disabled": 0, "name": "a9581b1e325ff7968c248661492772de", "fusion_lat": 0.0, "rental_uris": {"ios": "https://dc.lft.to/lastmile_qr_scan", "android": "https://dc.lft.to/lastmile_qr_scan"}, "lon": -77.03429916666667, "type": "electric_bike"}, {"bike_id": "43ed351b7f4d3f9036bf17591fe793cc", "is_reserved": 0, "fusion_lon": 0.0, "lat": 38.874817, "is_disabled": 0, "name": "43ed351b7f4d3f9036bf17591fe793cc", "fusion_lat": 0.0, "rental_uris": {"ios": "https://dc.lft.to/lastmile_qr_scan", "android": "https://dc.lft.to/lastmile_qr_scan"}, "lon": -76.96532083333334, "type": "electric_bike"}, {"bike_id": "83ac4f8c71471cba605816c9e8417026", "is_reserved": 0, "fusion_lon": 0.0, "lat": 38.92321116666667, "is_disabled": 0, "name": "83ac4f8c71471cba605816c9e8417026", "fusion_lat": 0.0, "rental_uris": {"ios": "https://dc.lft.to/lastmile_qr_scan", "android": "https://dc.lft.to/lastmile_qr_scan"}, "lon": -77.04478333333333, "type": "electric_scooter"}, {"bike_id": "fc8a8bdb1a07165acb025eb00f2da839", "is_reserved": 0, "fusion_lon": 0.0, "lat": 38.923329, "is_disabled": 0, "name": "fc8a8bdb1a07165acb025eb00f2da839", "fusion_lat": 0.0, "rental_uris": {"ios": "https://dc.lft.to/lastmile_qr_scan", "android": "https://dc.lft.to/lastmile_qr_scan"}, "lon": -77.03899483333333, "type": "electric_scooter"}, {"bike_id": "7c6c726d4d1e06382a1db7637227652b", "is_reserved": 0, "fusion_lon": 0.0, "lat": 38.86165316666667, "is_disabled": 0, "name": "7c6c726d4d1e06382a1db7637227652b", "fusion_lat": 0.0, "rental_uris": {"ios": "https://dc.lft.to/lastmile_qr_scan", "android": "https://dc.lft.to/lastmile_qr_scan"}, "lon": -76.95065233333334, "type": "electric_bike"}, {"bike_id": "7a033f8591589393aa331394bdd717aa", "is_reserved": 0, "fusion_lon": 0.0, "lat": 38.90308616666667, "is_disabled": 0, "name": "7a033f8591589393aa331394bdd717aa", "fusion_lat": 0.0, "rental_uris": {"ios": "https://dc.lft.to/lastmile_qr_scan", "android": "https://dc.lft.to/lastmile_qr_scan"}, "lon": -77.04323783333334, "type": "electric_scooter"}, {"bike_id": "cf6d43eabac7d237c38e33784d7b4275", "is_reserved": 0, "fusion_lon": 0.0, "lat": 38.92187033333333, "is_disabled": 0, "name": "cf6d43eabac7d237c38e33784d7b4275", "fusion_lat": 0.0, "rental_uris": {"ios": "https://dc.lft.to/lastmile_qr_scan", "android": "https://dc.lft.to/lastmile_qr_scan"}, "lon": -77.0412105, "type": "electric_scooter"}, {"bike_id": "9c5e517e2be7f45993030f94bcd64246", "is_reserved": 0, "fusion_lon": 0.0, "lat": 38.9073185, "is_disabled": 0, "name": "9c5e517e2be7f45993030f94bcd64246", "fusion_lat": 0.0, "rental_uris": {"ios": "https://dc.lft.to/lastmile_qr_scan", "android": "https://dc.lft.to/lastmile_qr_scan"}, "lon": -77.04239933333334, "type": "electric_scooter"}, {"bike_id": "dc0379e34ef8dea3890f42078fac10e5", "is_reserved": 0, "fusion_lon": 0.0, "lat": 38.9044935, "is_disabled": 0, "name": "dc0379e34ef8dea3890f42078fac10e5", "fusion_lat": 0.0, "rental_uris": {"ios": "https://dc.lft.to/lastmile_qr_scan", "android": "https://dc.lft.to/lastmile_qr_scan"}, "lon": -77.053336, "type": "electric_scooter"}, {"bike_id": "3ebdb06450c658b7e5076711671561fe", "is_reserved": 0, "fusion_lon": 0.0, "lat": 38.90149866666667, "is_disabled": 0, "name": "3ebdb06450c658b7e5076711671561fe", "fusion_lat": 0.0, "rental_uris": {"ios": "https://dc.lft.to/lastmile_qr_scan", "android": "https://dc.lft.to/lastmile_qr_scan"}, "lon": -77.04466083333334, "type": "electric_scooter"}, {"bike_id": "1e5b88bb1411a1da2f340cd33263dd8f", "is_reserved": 0, "fusion_lon": 0.0, "lat": 38.923662, "is_disabled": 0, "name": "1e5b88bb1411a1da2f340cd33263dd8f", "fusion_lat": 0.0, "rental_uris": {"ios": "https://dc.lft.to/lastmile_qr_scan", "android": "https://dc.lft.to/lastmile_qr_scan"}, "lon": -77.05028016666667, "type": "electric_scooter"}, {"bike_id": "52576a688687acd90cb14ec818f674b6", "is_reserved": 0, "fusion_lon": 0.0, "lat": 38.91999716666667, "is_disabled": 0, "name": "52576a688687acd90cb14ec818f674b6", "fusion_lat": 0.0, "rental_uris": {"ios": "https://dc.lft.to/lastmile_qr_scan", "android": "https://dc.lft.to/lastmile_qr_scan"}, "lon": -77.03229916666666, "type": "electric_scooter"}, {"bike_id": "795395f4a81c32f988dd0e1a78de359a", "is_reserved": 0, "fusion_lon": 0.0, "lat": 38.928519333333334, "is_disabled": 0, "name": "795395f4a81c32f988dd0e1a78de359a", "fusion_lat": 0.0, "rental_uris": {"ios": "https://dc.lft.to/lastmile_qr_scan", "android": "https://dc.lft.to/lastmile_qr_scan"}, "lon": -77.05433816666667, "type": "electric_scooter"}, {"bike_id": "ae623584d89289f2e99bc1545111bd2c", "is_reserved": 0, "fusion_lon": 0.0, "lat": 38.916119333333334, "is_disabled": 0, "name": "ae623584d89289f2e99bc1545111bd2c", "fusion_lat": 0.0, "rental_uris": {"ios": "https://dc.lft.to/lastmile_qr_scan", "android": "https://dc.lft.to/lastmile_qr_scan"}, "lon": -77.0435015, "type": "electric_scooter"}, {"bike_id": "40eaba440eec54344cac3f5854d07ad2", "is_reserved": 0, "fusion_lon": 0.0, "lat": 38.92853266666667, "is_disabled": 0, "name": "40eaba440eec54344cac3f5854d07ad2", "fusion_lat": 0.0, "rental_uris": {"ios": "https://dc.lft.to/lastmile_qr_scan", "android": "https://dc.lft.to/lastmile_qr_scan"}, "lon": -77.0360545, "type": "electric_scooter"}, {"bike_id": "494ea6a1c8c4be26a5098adb571f0e69", "is_reserved": 0, "fusion_lon": 0.0, "lat": 38.88341283333333, "is_disabled": 0, "name": "494ea6a1c8c4be26a5098adb571f0e69", "fusion_lat": 0.0, "rental_uris": {"ios": "https://dc.lft.to/lastmile_qr_scan", "android": "https://dc.lft.to/lastmile_qr_scan"}, "lon": -77.01748166666667, "type": "electric_scooter"}, {"bike_id": "2b9fa65ec5baffbc738a833270ffe5f6", "is_reserved": 0, "fusion_lon": 0.0, "lat": 38.90568416666667, "is_disabled": 0, "name": "2b9fa65ec5baffbc738a833270ffe5f6", "fusion_lat": 0.0, "rental_uris": {"ios": "https://dc.lft.to/lastmile_qr_scan", "android": "https://dc.lft.to/lastmile_qr_scan"}, "lon": -77.00561416666666, "type": "electric_scooter"}, {"bike_id": "3d6dad3a3014230bf91748fdde08ebc6", "is_reserved": 0, "fusion_lon": 0.0, "lat": 38.91834716666666, "is_disabled": 0, "name": "3d6dad3a3014230bf91748fdde08ebc6", "fusion_lat": 0.0, "rental_uris": {"ios": "https://dc.lft.to/lastmile_qr_scan", "android": "https://dc.lft.to/lastmile_qr_scan"}, "lon": -77.038982, "type": "electric_scooter"}, {"bike_id": "360078aef9870e0c8d36f1a5d3af3b0b", "is_reserved": 0, "fusion_lon": 0.0, "lat": 38.897606, "is_disabled": 0, "name": "360078aef9870e0c8d36f1a5d3af3b0b", "fusion_lat": 0.0, "rental_uris": {"ios": "https://dc.lft.to/lastmile_qr_scan", "android": "https://dc.lft.to/lastmile_qr_scan"}, "lon": -77.02681016666666, "type": "electric_scooter"}, {"bike_id": "9eb9efa27c2ad544cb5227c4a68e5aa5", "is_reserved": 0, "fusion_lon": 0.0, "lat": 38.934488, "is_disabled": 0, "name": "9eb9efa27c2ad544cb5227c4a68e5aa5", "fusion_lat": 0.0, "rental_uris": {"ios": "https://dc.lft.to/lastmile_qr_scan", "android": "https://dc.lft.to/lastmile_qr_scan"}, "lon": -77.02850083333334, "type": "electric_scooter"}, {"bike_id": "7b586e4f618289074dd296a9c4fd504f", "is_reserved": 0, "fusion_lon": 0.0, "lat": 38.970532, "is_disabled": 0, "name": "7b586e4f618289074dd296a9c4fd504f", "fusion_lat": 0.0, "rental_uris": {"ios": "https://dc.lft.to/lastmile_qr_scan", "android": "https://dc.lft.to/lastmile_qr_scan"}, "lon": -76.936183, "type": "electric_bike"}, {"bike_id": "dfb9a453f0001ced45f26ff4be058928", "is_reserved": 0, "fusion_lon": 0.0, "lat": 38.871736, "is_disabled": 0, "name": "dfb9a453f0001ced45f26ff4be058928", "fusion_lat": 0.0, "rental_uris": {"ios": "https://dc.lft.to/lastmile_qr_scan", "android": "https://dc.lft.to/lastmile_qr_scan"}, "lon": -77.006263, "type": "electric_scooter"}, {"bike_id": "59a22f3ee729d8206e09f423a8f92403", "is_reserved": 0, "fusion_lon": 0.0, "lat": 38.92831733333333, "is_disabled": 0, "name": "59a22f3ee729d8206e09f423a8f92403", "fusion_lat": 0.0, "rental_uris": {"ios": "https://dc.lft.to/lastmile_qr_scan", "android": "https://dc.lft.to/lastmile_qr_scan"}, "lon": -77.05508516666667, "type": "electric_scooter"}, {"bike_id": "3f629031f473fe8f9c644eb53cc24f0f", "is_reserved": 0, "fusion_lon": 0.0, "lat": 38.917027, "is_disabled": 0, "name": "3f629031f473fe8f9c644eb53cc24f0f", "fusion_lat": 0.0, "rental_uris": {"ios": "https://dc.lft.to/lastmile_qr_scan", "android": "https://dc.lft.to/lastmile_qr_scan"}, "lon": -77.02308816666667, "type": "electric_scooter"}, {"bike_id": "eff2016ea4ee68635f407097fdced09d", "is_reserved": 0, "fusion_lon": 0.0, "lat": 38.89770866666667, "is_disabled": 0, "name": "eff2016ea4ee68635f407097fdced09d", "fusion_lat": 0.0, "rental_uris": {"ios": "https://dc.lft.to/lastmile_qr_scan", "android": "https://dc.lft.to/lastmile_qr_scan"}, "lon": -76.90435433333333, "type": "electric_bike"}, {"bike_id": "a97381833145fd67e97050e025b3b5a9", "is_reserved": 0, "fusion_lon": 0.0, "lat": 38.8662875, "is_disabled": 0, "name": "a97381833145fd67e97050e025b3b5a9", "fusion_lat": 0.0, "rental_uris": {"ios": "https://dc.lft.to/lastmile_qr_scan", "android": "https://dc.lft.to/lastmile_qr_scan"}, "lon": -76.98717983333333, "type": "electric_scooter"}, {"bike_id": "cfcb800bc93465f825c59a79ca236d27", "is_reserved": 0, "fusion_lon": 0.0, "lat": 38.88503166666667, "is_disabled": 0, "name": "cfcb800bc93465f825c59a79ca236d27", "fusion_lat": 0.0, "rental_uris": {"ios": "https://dc.lft.to/lastmile_qr_scan", "android": "https://dc.lft.to/lastmile_qr_scan"}, "lon": -77.0056895, "type": "electric_scooter"}, {"bike_id": "6bb6ed3a2333941c65cde15216f700bb", "is_reserved": 0, "fusion_lon": 0.0, "lat": 38.9066585, "is_disabled": 0, "name": "6bb6ed3a2333941c65cde15216f700bb", "fusion_lat": 0.0, "rental_uris": {"ios": "https://dc.lft.to/lastmile_qr_scan", "android": "https://dc.lft.to/lastmile_qr_scan"}, "lon": -77.02708, "type": "electric_scooter"}, {"bike_id": "d6f94fb85ce6846dc00ba88d613eafc4", "is_reserved": 0, "fusion_lon": 0.0, "lat": 38.8803215, "is_disabled": 0, "name": "d6f94fb85ce6846dc00ba88d613eafc4", "fusion_lat": 0.0, "rental_uris": {"ios": "https://dc.lft.to/lastmile_qr_scan", "android": "https://dc.lft.to/lastmile_qr_scan"}, "lon": -77.02516666666666, "type": "electric_scooter"}, {"bike_id": "5c7baaef4a3630284dec2e658d7b4ad7", "is_reserved": 0, "fusion_lon": 0.0, "lat": 38.890096666666665, "is_disabled": 0, "name": "5c7baaef4a3630284dec2e658d7b4ad7", "fusion_lat": 0.0, "rental_uris": {"ios": "https://dc.lft.to/lastmile_qr_scan", "android": "https://dc.lft.to/lastmile_qr_scan"}, "lon": -76.93751216666666, "type": "electric_scooter"}, {"bike_id": "934892137f0ae0529d08321ecf21eb54", "is_reserved": 0, "fusion_lon": 0.0, "lat": 38.86745333333333, "is_disabled": 0, "name": "934892137f0ae0529d08321ecf21eb54", "fusion_lat": 0.0, "rental_uris": {"ios": "https://dc.lft.to/lastmile_qr_scan", "android": "https://dc.lft.to/lastmile_qr_scan"}, "lon": -76.987844, "type": "electric_scooter"}, {"bike_id": "b3aa5564071a08bcbbb10530d43bd620", "is_reserved": 0, "fusion_lon": 0.0, "lat": 38.934787, "is_disabled": 0, "name": "b3aa5564071a08bcbbb10530d43bd620", "fusion_lat": 0.0, "rental_uris": {"ios": "https://dc.lft.to/lastmile_qr_scan", "android": "https://dc.lft.to/lastmile_qr_scan"}, "lon": -77.03519683333333, "type": "electric_scooter"}, {"bike_id": "4d2b8a360d2798b46c7bf87b9cf5a910", "is_reserved": 0, "fusion_lon": 0.0, "lat": 38.9104325, "is_disabled": 0, "name": "4d2b8a360d2798b46c7bf87b9cf5a910", "fusion_lat": 0.0, "rental_uris": {"ios": "https://dc.lft.to/lastmile_qr_scan", "android": "https://dc.lft.to/lastmile_qr_scan"}, "lon": -77.02812266666666, "type": "electric_scooter"}, {"bike_id": "e4e4d0e02f34ca155e79acfe1dc3be57", "is_reserved": 0, "fusion_lon": 0.0, "lat": 38.930992, "is_disabled": 0, "name": "e4e4d0e02f34ca155e79acfe1dc3be57", "fusion_lat": 0.0, "rental_uris": {"ios": "https://dc.lft.to/lastmile_qr_scan", "android": "https://dc.lft.to/lastmile_qr_scan"}, "lon": -77.02403283333334, "type": "electric_scooter"}, {"bike_id": "1110d65ec3c30bd631a07fee8fba586f", "is_reserved": 0, "fusion_lon": 0.0, "lat": 38.95082416666666, "is_disabled": 0, "name": "1110d65ec3c30bd631a07fee8fba586f", "fusion_lat": 0.0, "rental_uris": {"ios": "https://dc.lft.to/lastmile_qr_scan", "android": "https://dc.lft.to/lastmile_qr_scan"}, "lon": -77.02831283333333, "type": "electric_scooter"}, {"bike_id": "10506f4d3edf1b38e7fb7ffa4774d330", "is_reserved": 0, "fusion_lon": 0.0, "lat": 38.9156395, "is_disabled": 0, "name": "10506f4d3edf1b38e7fb7ffa4774d330", "fusion_lat": 0.0, "rental_uris": {"ios": "https://dc.lft.to/lastmile_qr_scan", "android": "https://dc.lft.to/lastmile_qr_scan"}, "lon": -77.0391145, "type": "electric_scooter"}, {"bike_id": "1eeabb441e3f0fac7edc01e82443cc6e", "is_reserved": 0, "fusion_lon": 0.0, "lat": 38.930612333333336, "is_disabled": 0, "name": "1eeabb441e3f0fac7edc01e82443cc6e", "fusion_lat": 0.0, "rental_uris": {"ios": "https://dc.lft.to/lastmile_qr_scan", "android": "https://dc.lft.to/lastmile_qr_scan"}, "lon": -77.02974166666667, "type": "electric_scooter"}, {"bike_id": "a6b5a9fb576288ad961d58f061f4d93a", "is_reserved": 0, "fusion_lon": 0.0, "lat": 38.92192083333333, "is_disabled": 0, "name": "a6b5a9fb576288ad961d58f061f4d93a", "fusion_lat": 0.0, "rental_uris": {"ios": "https://dc.lft.to/lastmile_qr_scan", "android": "https://dc.lft.to/lastmile_qr_scan"}, "lon": -77.0423685, "type": "electric_scooter"}, {"bike_id": "7086f12afdd739f04dd74d590feed118", "is_reserved": 0, "fusion_lon": 0.0, "lat": 38.896496666666664, "is_disabled": 0, "name": "7086f12afdd739f04dd74d590feed118", "fusion_lat": 0.0, "rental_uris": {"ios": "https://dc.lft.to/lastmile_qr_scan", "android": "https://dc.lft.to/lastmile_qr_scan"}, "lon": -77.04314666666667, "type": "electric_scooter"}, {"bike_id": "b5e74cfe1a56c8b1175fccdba6be0d8c", "is_reserved": 0, "fusion_lon": 0.0, "lat": 38.8922745, "is_disabled": 0, "name": "b5e74cfe1a56c8b1175fccdba6be0d8c", "fusion_lat": 0.0, "rental_uris": {"ios": "https://dc.lft.to/lastmile_qr_scan", "android": "https://dc.lft.to/lastmile_qr_scan"}, "lon": -77.0217755, "type": "electric_scooter"}, {"bike_id": "16beac4cb5f3a86dbe1f8e1d45db7ecf", "is_reserved": 0, "fusion_lon": 0.0, "lat": 38.909137, "is_disabled": 0, "name": "16beac4cb5f3a86dbe1f8e1d45db7ecf", "fusion_lat": 0.0, "rental_uris": {"ios": "https://dc.lft.to/lastmile_qr_scan", "android": "https://dc.lft.to/lastmile_qr_scan"}, "lon": -77.03131833333333, "type": "electric_scooter"}, {"bike_id": "f6a63c4ab39c4fd1e60b1c9cc6bf5c82", "is_reserved": 0, "fusion_lon": 0.0, "lat": 38.909518, "is_disabled": 0, "name": "f6a63c4ab39c4fd1e60b1c9cc6bf5c82", "fusion_lat": 0.0, "rental_uris": {"ios": "https://dc.lft.to/lastmile_qr_scan", "android": "https://dc.lft.to/lastmile_qr_scan"}, "lon": -77.01998366666666, "type": "electric_scooter"}, {"bike_id": "8b5eb10f1cef4dc4b949e099034dd0af", "is_reserved": 0, "fusion_lon": 0.0, "lat": 38.89840216666666, "is_disabled": 0, "name": "8b5eb10f1cef4dc4b949e099034dd0af", "fusion_lat": 0.0, "rental_uris": {"ios": "https://dc.lft.to/lastmile_qr_scan", "android": "https://dc.lft.to/lastmile_qr_scan"}, "lon": -77.03339566666666, "type": "electric_scooter"}, {"bike_id": "9cd4a20646c36c4fb541518498eaf848", "is_reserved": 0, "fusion_lon": 0.0, "lat": 38.9218375, "is_disabled": 0, "name": "9cd4a20646c36c4fb541518498eaf848", "fusion_lat": 0.0, "rental_uris": {"ios": "https://dc.lft.to/lastmile_qr_scan", "android": "https://dc.lft.to/lastmile_qr_scan"}, "lon": -77.04279333333334, "type": "electric_scooter"}, {"bike_id": "0ef057e8fe6d5ee1609219d35b2da9a2", "is_reserved": 0, "fusion_lon": 0.0, "lat": 38.92574283333333, "is_disabled": 0, "name": "0ef057e8fe6d5ee1609219d35b2da9a2", "fusion_lat": 0.0, "rental_uris": {"ios": "https://dc.lft.to/lastmile_qr_scan", "android": "https://dc.lft.to/lastmile_qr_scan"}, "lon": -77.0730895, "type": "electric_scooter"}, {"bike_id": "f2ee8517ca457499b6b3079ab77cb431", "is_reserved": 0, "fusion_lon": 0.0, "lat": 38.9341875, "is_disabled": 0, "name": "f2ee8517ca457499b6b3079ab77cb431", "fusion_lat": 0.0, "rental_uris": {"ios": "https://dc.lft.to/lastmile_qr_scan", "android": "https://dc.lft.to/lastmile_qr_scan"}, "lon": -77.03414766666667, "type": "electric_scooter"}, {"bike_id": "29e54271192541284028fe5aacc179e8", "is_reserved": 0, "fusion_lon": 0.0, "lat": 38.924400166666665, "is_disabled": 0, "name": "29e54271192541284028fe5aacc179e8", "fusion_lat": 0.0, "rental_uris": {"ios": "https://dc.lft.to/lastmile_qr_scan", "android": "https://dc.lft.to/lastmile_qr_scan"}, "lon": -77.03407983333334, "type": "electric_scooter"}, {"bike_id": "1374e467dd103d73301f17881786e220", "is_reserved": 0, "fusion_lon": 0.0, "lat": 38.936045166666666, "is_disabled": 0, "name": "1374e467dd103d73301f17881786e220", "fusion_lat": 0.0, "rental_uris": {"ios": "https://dc.lft.to/lastmile_qr_scan", "android": "https://dc.lft.to/lastmile_qr_scan"}, "lon": -77.023357, "type": "electric_scooter"}, {"bike_id": "efa9f53b34e446be3c4bd85ed909fc1a", "is_reserved": 0, "fusion_lon": 0.0, "lat": 38.955436166666665, "is_disabled": 0, "name": "efa9f53b34e446be3c4bd85ed909fc1a", "fusion_lat": 0.0, "rental_uris": {"ios": "https://dc.lft.to/lastmile_qr_scan", "android": "https://dc.lft.to/lastmile_qr_scan"}, "lon": -76.9353905, "type": "electric_bike"}, {"bike_id": "c99f4f7db192879adc9d642803b34bfc", "is_reserved": 0, "fusion_lon": 0.0, "lat": 38.891890333333336, "is_disabled": 0, "name": "c99f4f7db192879adc9d642803b34bfc", "fusion_lat": 0.0, "rental_uris": {"ios": "https://dc.lft.to/lastmile_qr_scan", "android": "https://dc.lft.to/lastmile_qr_scan"}, "lon": -77.12258933333334, "type": "electric_bike"}, {"bike_id": "a668810a9db6d1593df1e1c143c4247f", "is_reserved": 0, "fusion_lon": 0.0, "lat": 38.905200666666666, "is_disabled": 0, "name": "a668810a9db6d1593df1e1c143c4247f", "fusion_lat": 0.0, "rental_uris": {"ios": "https://dc.lft.to/lastmile_qr_scan", "android": "https://dc.lft.to/lastmile_qr_scan"}, "lon": -77.05046616666667, "type": "electric_scooter"}, {"bike_id": "ee5295ef78c31b90787a01d3b4cefc97", "is_reserved": 0, "fusion_lon": 0.0, "lat": 38.85808, "is_disabled": 0, "name": "ee5295ef78c31b90787a01d3b4cefc97", "fusion_lat": 0.0, "rental_uris": {"ios": "https://dc.lft.to/lastmile_qr_scan", "android": "https://dc.lft.to/lastmile_qr_scan"}, "lon": -76.98652083333333, "type": "electric_scooter"}, {"bike_id": "dbceeb6e1d050fd138b6b62693b9ccd6", "is_reserved": 0, "fusion_lon": 0.0, "lat": 38.91756, "is_disabled": 0, "name": "dbceeb6e1d050fd138b6b62693b9ccd6", "fusion_lat": 0.0, "rental_uris": {"ios": "https://dc.lft.to/lastmile_qr_scan", "android": "https://dc.lft.to/lastmile_qr_scan"}, "lon": -77.0149725, "type": "electric_scooter"},