{"data": {"bikes": [{"rental_uris": {"ios": "https://dc.lft.to/lastmile_qr_scan", "android": "https://dc.lft.to/lastmile_qr_scan"}, "lon": -77.020495, "type": "electric_scooter", "fusion_lat": 0.0, "lat": 38.91557516666667, "name": "9dc271f572040f1d7059e677ec430a6b", "fusion_lon": 0.0, "bike_id": "9dc271f572040f1d7059e677ec430a6b", "is_disabled": 0, "is_reserved": 0}, {"rental_uris": {"ios": "https://dc.lft.to/lastmile_qr_scan", "android": "https://dc.lft.to/lastmile_qr_scan"}, "lon": -76.99594783333333, "type": "electric_scooter", "fusion_lat": 0.0, "lat": 38.84537483333333, "name": "866c292dbdf8ccfa081b0bc0156aef48", "fusion_lon": 0.0, "bike_id": "866c292dbdf8ccfa081b0bc0156aef48", "is_disabled": 0, "is_reserved": 0}, {"rental_uris": {"ios": "https://dc.lft.to/lastmile_qr_scan", "android": "https://dc.lft.to/lastmile_qr_scan"}, "lon": -77.03931333333334, "type": "electric_scooter", "fusion_lat": 0.0, "lat": 38.8990925, "name": "0a7ef53c1a39d6e612923a3b7e3d94bb", "fusion_lon": 0.0, "bike_id": "0a7ef53c1a39d6e612923a3b7e3d94bb", "is_disabled": 0, "is_reserved": 0}, {"rental_uris": {"ios": "https://dc.lft.to/lastmile_qr_scan", "android": "https://dc.lft.to/lastmile_qr_scan"}, "lon": -77.0153065, "type": "electric_scooter", "fusion_lat": 0.0, "lat": 38.901969666666666, "name": "c70a7d1bd688c7d3b0f715d28a5cb72f", "fusion_lon": 0.0, "bike_id": "c70a7d1bd688c7d3b0f715d28a5cb72f", "is_disabled": 0, "is_reserved": 0}, {"rental_uris": {"ios": "https://dc.lft.to/lastmile_qr_scan", "android": "https://dc.lft.to/lastmile_qr_scan"}, "lon": -77.01387283333334, "type": "electric_scooter", "fusion_lat": 0.0, "lat": 38.970177, "name": "d3520dce85e04853d83439937e9ca000", "fusion_lon": 0.0, "bike_id": "d3520dce85e04853d83439937e9ca000", "is_disabled": 0, "is_reserved": 0}, {"rental_uris": {"ios": "https://dc.lft.to/lastmile_qr_scan", "android": "https://dc.lft.to/lastmile_qr_scan"}, "lon": -77.03169816666667, "type": "electric_scooter", "fusion_lat": 0.0, "lat": 38.913336, "name": "515a0f4b416f21f854bfa84dd17c3559", "fusion_lon": 0.0, "bike_id": "515a0f4b416f21f854bfa84dd17c3559", "is_disabled": 0, "is_reserved": 0}, {"rental_uris": {"ios": "https://dc.lft.to/lastmile_qr_scan", "android": "https://dc.lft.to/lastmile_qr_scan"}, "lon": -77.1008965, "type": "electric_bike", "fusion_lat": 0.0, "lat": 38.9595615, "name": "9f2386c0886d4c30eff67c42c85ec152", "fusion_lon": 0.0, "bike_id": "9f2386c0886d4c30eff67c42c85ec152", "is_disabled": 0, "is_reserved": 0}, {"rental_uris": {"ios": "https://dc.lft.to/lastmile_qr_scan", "android": "https://dc.lft.to/lastmile_qr_scan"}, "lon": -77.03145233333333, "type": "electric_scooter", "fusion_lat": 0.0, "lat": 38.9111695, "name": "ed4929d536b50cf21aa597f268173e61", "fusion_lon": 0.0, "bike_id": "ed4929d536b50cf21aa597f268173e61", "is_disabled": 0, "is_reserved": 0}, {"rental_uris": {"ios": "https://dc.lft.to/lastmile_qr_scan", "android": "https://dc.lft.to/lastmile_qr_scan"}, "lon": -77.0446895, "type": "electric_scooter", "fusion_lat": 0.0, "lat": 38.9110555, "name": "ecf0fe133dc47c88ad91609efcc2f636", "fusion_lon": 0.0, "bike_id": "ecf0fe133dc47c88ad91609efcc2f636", "is_disabled": 0, "is_reserved": 0}, {"rental_uris": {"ios": "https://dc.lft.to/lastmile_qr_scan", "android": "https://dc.lft.to/lastmile_qr_scan"}, "lon": -77.02711866666667, "type": "electric_scooter", "fusion_lat": 0.0, "lat": 38.91804533333333, "name": "d552812b2444d85aa76e53a47f65f3be", "fusion_lon": 0.0, "bike_id": "d552812b2444d85aa76e53a47f65f3be", "is_disabled": 0, "is_reserved": 0}, {"rental_uris": {"ios": "https://dc.lft.to/lastmile_qr_scan", "android": "https://dc.lft.to/lastmile_qr_scan"}, "lon": -77.03664266666667, "type": "electric_scooter", "fusion_lat": 0.0, "lat": 38.9181495, "name": "c72a4c1203e2475eb24d06fb6c330c31", "fusion_lon": 0.0, "bike_id": "c72a4c1203e2475eb24d06fb6c330c31", "is_disabled": 0, "is_reserved": 0}, {"rental_uris": {"ios": "https://dc.lft.to/lastmile_qr_scan", "android": "https://dc.lft.to/lastmile_qr_scan"}, "lon": -76.98497183333333, "type": "electric_scooter", "fusion_lat": 0.0, "lat": 38.8604485, "name": "37bf5d75430dfd7cdd73e1cb6f573e38", "fusion_lon": 0.0, "bike_id": "37bf5d75430dfd7cdd73e1cb6f573e38", "is_disabled": 0, "is_reserved": 0}, {"rental_uris": {"ios": "https://dc.lft.to/lastmile_qr_scan", "android": "https://dc.lft.to/lastmile_qr_scan"}, "lon": -76.9788655, "type": "electric_scooter", "fusion_lat": 0.0, "lat": 38.9041935, "name": "a10e2f134ee236db569258afd07c1550", "fusion_lon": 0.0, "bike_id": "a10e2f134ee236db569258afd07c1550", "is_disabled": 0, "is_reserved": 0}, {"rental_uris": {"ios": "https://dc.lft.to/lastmile_qr_scan", "android": "https://dc.lft.to/lastmile_qr_scan"}, "lon": -76.987417, "type": "electric_bike", "fusion_lat": 0.0, "lat": 38.85789666666667, "name": "5fe5120382a9ce3f13bd5c4d65c24415", "fusion_lon": 0.0, "bike_id": "5fe5120382a9ce3f13bd5c4d65c24415", "is_disabled": 0, "is_reserved": 0}, {"rental_uris": {"ios": "https://dc.lft.to/lastmile_qr_scan", "android": "https://dc.lft.to/lastmile_qr_scan"}, "lon": -76.9576595, "type": "electric_scooter", "fusion_lat": 0.0, "lat": 38.88681, "name": "d8139d8cc0ce84214df5be196c0efaf7", "fusion_lon": 0.0, "bike_id": "d8139d8cc0ce84214df5be196c0efaf7", "is_disabled": 0, "is_reserved": 0}, {"rental_uris": {"ios": "https://dc.lft.to/lastmile_qr_scan", "android": "https://dc.lft.to/lastmile_qr_scan"}, "lon": -77.0033975, "type": "electric_scooter", "fusion_lat": 0.0, "lat": 38.887742, "name": "ae6537a603e7ae0d8c701ea1959f285f", "fusion_lon": 0.0, "bike_id": "ae6537a603e7ae0d8c701ea1959f285f", "is_disabled": 0, "is_reserved": 0}, {"rental_uris": {"ios": "https://dc.lft.to/lastmile_qr_scan", "android": "https://dc.lft.to/lastmile_qr_scan"}, "lon": -77.04608116666667, "type": "electric_scooter", "fusion_lat": 0.0, "lat": 38.90956416666667, "name": "91f88838b3a78b81e493be6f8b67d5bb", "fusion_lon": 0.0, "bike_id": "91f88838b3a78b81e493be6f8b67d5bb", "is_disabled": 0, "is_reserved": 0}, {"rental_uris": {"ios": "https://dc.lft.to/lastmile_qr_scan", "android": "https://dc.lft.to/lastmile_qr_scan"}, "lon": -77.04331816666667, "type": "electric_scooter", "fusion_lat": 0.0, "lat": 38.92792983333333, "name": "70b968a4bc8e4c98939dea5c3b573aca", "fusion_lon": 0.0, "bike_id": "70b968a4bc8e4c98939dea5c3b573aca", "is_disabled": 0, "is_reserved": 0}, {"rental_uris": {"ios": "https://dc.lft.to/lastmile_qr_scan", "android": "https://dc.lft.to/lastmile_qr_scan"}, "lon": -77.02383516666667, "type": "electric_scooter", "fusion_lat": 0.0, "lat": 38.897558333333336, "name": "6d01a85e2eba0c48d40bb0ee007a95ec", "fusion_lon": 0.0, "bike_id": "6d01a85e2eba0c48d40bb0ee007a95ec", "is_disabled": 0, "is_reserved": 0}, {"rental_uris": {"ios": "https://dc.lft.to/lastmile_qr_scan", "android": "https://dc.lft.to/lastmile_qr_scan"}, "lon": -76.95886683333333, "type": "electric_scooter", "fusion_lat": 0.0, "lat": 38.85843883333333, "name": "48abd7d67d4ddd6c7004b1ca5203f93a", "fusion_lon": 0.0, "bike_id": "48abd7d67d4ddd6c7004b1ca5203f93a", "is_disabled": 0, "is_reserved": 0}, {"rental_uris": {"ios": "https://dc.lft.to/lastmile_qr_scan", "android": "https://dc.lft.to/lastmile_qr_scan"}, "lon": -77.08165583333333, "type": "electric_bike", "fusion_lat": 0.0, "lat": 38.807881, "name": "a414180706c16888ec5a88a567007c8f", "fusion_lon": 0.0, "bike_id": "a414180706c16888ec5a88a567007c8f", "is_disabled": 0, "is_reserved": 0}, {"rental_uris": {"ios": "https://dc.lft.to/lastmile_qr_scan", "android": "https://dc.lft.to/lastmile_qr_scan"}, "lon": -77.0653685, "type": "electric_scooter", "fusion_lat": 0.0, "lat": 38.904823666666665, "name": "dda7160edec62901478a86841648e5f2", "fusion_lon": 0.0, "bike_id": "dda7160edec62901478a86841648e5f2", "is_disabled": 0, "is_reserved": 0}, {"rental_uris": {"ios": "https://dc.lft.to/lastmile_qr_scan", "android": "https://dc.lft.to/lastmile_qr_scan"}, "lon": -77.06525366666666, "type": "electric_bike", "fusion_lat": 0.0, "lat": 38.90455266666667, "name": "93770ed23306c0e38aab614b3e4f83b0", "fusion_lon": 0.0, "bike_id": "93770ed23306c0e38aab614b3e4f83b0", "is_disabled": 0, "is_reserved": 0}, {"rental_uris": {"ios": "https://dc.lft.to/lastmile_qr_scan", "android": "https://dc.lft.to/lastmile_qr_scan"}, "lon": -77.03349366666667, "type": "electric_scooter", "fusion_lat": 0.0, "lat": 38.91713333333333, "name": "86c888ea65150553fc22667d21569ce8", "fusion_lon": 0.0, "bike_id": "86c888ea65150553fc22667d21569ce8", "is_disabled": 0, "is_reserved": 0}, {"rental_uris": {"ios": "https://dc.lft.to/lastmile_qr_scan", "android": "https://dc.lft.to/lastmile_qr_scan"}, "lon": -77.01288833333334, "type": "electric_bike", "fusion_lat": 0.0, "lat": 38.8811995, "name": "50cb3abc1bc7cc350b04f519ab5de29e", "fusion_lon": 0.0, "bike_id": "50cb3abc1bc7cc350b04f519ab5de29e", "is_disabled": 0, "is_reserved": 0}, {"rental_uris": {"ios": "https://dc.lft.to/lastmile_qr_scan", "android": "https://dc.lft.to/lastmile_qr_scan"}, "lon": -77.031972, "type": "electric_scooter", "fusion_lat": 0.0, "lat": 38.907879333333334, "name": "453cb8a65cebc78157b8e7998d2380dc", "fusion_lon": 0.0, "bike_id": "453cb8a65cebc78157b8e7998d2380dc", "is_disabled": 0, "is_reserved": 0}, {"rental_uris": {"ios": "https://dc.lft.to/lastmile_qr_scan", "android": "https://dc.lft.to/lastmile_qr_scan"}, "lon": -77.04514333333333, "type": "electric_scooter", "fusion_lat": 0.0, "lat": 38.912858666666665, "name": "73fe28abc052c715de18ca97278fcc6b", "fusion_lon": 0.0, "bike_id": "73fe28abc052c715de18ca97278fcc6b", "is_disabled": 0, "is_reserved": 0}, {"rental_uris": {"ios": "https://dc.lft.to/lastmile_qr_scan", "android": "https://dc.lft.to/lastmile_qr_scan"}, "lon": -77.00495833333333, "type": "electric_scooter", "fusion_lat": 0.0, "lat": 38.91411683333333, "name": "451b1a2a5c70f05978b063f9c0b2e8e0", "fusion_lon": 0.0, "bike_id": "451b1a2a5c70f05978b063f9c0b2e8e0", "is_disabled": 0, "is_reserved": 0}, {"rental_uris": {"ios": "https://dc.lft.to/lastmile_qr_scan", "android": "https://dc.lft.to/lastmile_qr_scan"}, "lon": -77.04161566666667, "type": "electric_scooter", "fusion_lat": 0.0, "lat": 38.901271333333334, "name": "35477d4b40389ab081dcdccc96abe079", "fusion_lon": 0.0, "bike_id": "35477d4b40389ab081dcdccc96abe079", "is_disabled": 0, "is_reserved": 0}, {"rental_uris": {"ios": "https://dc.lft.to/lastmile_qr_scan", "android": "https://dc.lft.to/lastmile_qr_scan"}, "lon": -76.97342866666666, "type": "electric_scooter", "fusion_lat": 0.0, "lat": 38.917739166666664, "name": "10b2a44d4e8c5fae8730f0fc4daf4625", "fusion_lon": 0.0, "bike_id": "10b2a44d4e8c5fae8730f0fc4daf4625", "is_disabled": 0, "is_reserved": 0}, {"rental_uris": {"ios": "https://dc.lft.to/lastmile_qr_scan", "android": "https://dc.lft.to/lastmile_qr_scan"}, "lon": -77.0318865, "type": "electric_scooter", "fusion_lat": 0.0, "lat": 38.91480133333334, "name": "6de18041d61b1f42e86cd84955734a3d", "fusion_lon": 0.0, "bike_id": "6de18041d61b1f42e86cd84955734a3d", "is_disabled": 0, "is_reserved": 0}, {"rental_uris": {"ios": "https://dc.lft.to/lastmile_qr_scan", "android": "https://dc.lft.to/lastmile_qr_scan"}, "lon": -77.005785, "type": "electric_scooter", "fusion_lat": 0.0, "lat": 38.844964166666664, "name": "a1982b498712aaea51675ac082deb7ab", "fusion_lon": 0.0, "bike_id": "a1982b498712aaea51675ac082deb7ab", "is_disabled": 0, "is_reserved": 0}, {"rental_uris": {"ios": "https://dc.lft.to/lastmile_qr_scan", "android": "https://dc.lft.to/lastmile_qr_scan"}, "lon": -77.02157133333333, "type": "electric_scooter", "fusion_lat": 0.0, "lat": 38.9260375, "name": "c2709dc107af6c11fbf01f75c881f600", "fusion_lon": 0.0, "bike_id": "c2709dc107af6c11fbf01f75c881f600", "is_disabled": 0, "is_reserved": 0}, {"rental_uris": {"ios": "https://dc.lft.to/lastmile_qr_scan", "android": "https://dc.lft.to/lastmile_qr_scan"}, "lon": -77.0431405, "type": "electric_scooter", "fusion_lat": 0.0, "lat": 38.91878483333333, "name": "9542c5918e8fce4aceca755930df82d5", "fusion_lon": 0.0, "bike_id": "9542c5918e8fce4aceca755930df82d5", "is_disabled": 0, "is_reserved": 0}, {"rental_uris": {"ios": "https://dc.lft.to/lastmile_qr_scan", "android": "https://dc.lft.to/lastmile_qr_scan"}, "lon": -77.03166783333333, "type": "electric_scooter", "fusion_lat": 0.0, "lat": 38.897495166666666, "name": "ecc6415b45522cd86dbfdff0a63455e8", "fusion_lon": 0.0, "bike_id": "ecc6415b45522cd86dbfdff0a63455e8", "is_disabled": 0, "is_reserved": 0}, {"rental_uris": {"ios": "https://dc.lft.to/lastmile_qr_scan", "android": "https://dc.lft.to/lastmile_qr_scan"}, "lon": -77.089429, "type": "electric_bike", "fusion_lat": 0.0, "lat": 38.841064333333335, "name": "416b5ec1503d7b66920dfecc971458aa", "fusion_lon": 0.0, "bike_id": "416b5ec1503d7b66920dfecc971458aa", "is_disabled": 0, "is_reserved": 0}, {"rental_uris": {"ios": "https://dc.lft.to/lastmile_qr_scan", "android": "https://dc.lft.to/lastmile_qr_scan"}, "lon": -77.00354016666667, "type": "electric_scooter", "fusion_lat": 0.0, "lat": 38.898987166666664, "name": "0a585f4ace9b14f8ee21f7b6eb90fba6", "fusion_lon": 0.0, "bike_id": "0a585f4ace9b14f8ee21f7b6eb90fba6", "is_disabled": 0, "is_reserved": 0}, {"rental_uris": {"ios": "https://dc.lft.to/lastmile_qr_scan", "android": "https://dc.lft.to/lastmile_qr_scan"}, "lon": -77.04746716666666, "type": "electric_scooter", "fusion_lat": 0.0, "lat": 38.91770316666667, "name": "0974cca597e3581f2a356ffc6c3d1672", "fusion_lon": 0.0, "bike_id": "0974cca597e3581f2a356ffc6c3d1672", "is_disabled": 0, "is_reserved": 0}, {"rental_uris": {"ios": "https://dc.lft.to/lastmile_qr_scan", "android": "https://dc.lft.to/lastmile_qr_scan"}, "lon": -77.033951, "type": "electric_scooter", "fusion_lat": 0.0, "lat": 38.938429, "name": "a2fc9031a43081277dda1407da9efbf0", "fusion_lon": 0.0, "bike_id": "a2fc9031a43081277dda1407da9efbf0", "is_disabled": 0, "is_reserved": 0}, {"rental_uris": {"ios": "https://dc.lft.to/lastmile_qr_scan", "android": "https://dc.lft.to/lastmile_qr_scan"}, "lon": -77.03177283333333, "type": "electric_scooter", "fusion_lat": 0.0, "lat": 38.9196455, "name": "d96b66674b5a8c84b73031ab58b69b25", "fusion_lon": 0.0, "bike_id": "d96b66674b5a8c84b73031ab58b69b25", "is_disabled": 0, "is_reserved": 0}, {"rental_uris": {"ios": "https://dc.lft.to/lastmile_qr_scan", "android": "https://dc.lft.to/lastmile_qr_scan"}, "lon": -77.00185116666667, "type": "electric_scooter", "fusion_lat": 0.0, "lat": 38.873835666666665, "name": "1cebaffb6fcfa78ae2fa4bbce5b78343", "fusion_lon": 0.0, "bike_id": "1cebaffb6fcfa78ae2fa4bbce5b78343", "is_disabled": 0, "is_reserved": 0}, {"rental_uris": {"ios": "https://dc.lft.to/lastmile_qr_scan", "android": "https://dc.lft.to/lastmile_qr_scan"}, "lon": -77.06939983333334, "type": "electric_scooter", "fusion_lat": 0.0, "lat": 38.90517066666666, "name": "7213d4da02a8bd9ec4b7c9262105ed6c", "fusion_lon": 0.0, "bike_id": "7213d4da02a8bd9ec4b7c9262105ed6c", "is_disabled": 0, "is_reserved": 0}, {"rental_uris": {"ios": "https://dc.lft.to/lastmile_qr_scan", "android": "https://dc.lft.to/lastmile_qr_scan"}, "lon": -77.0418225, "type": "electric_scooter", "fusion_lat": 0.0, "lat": 38.90529983333333, "name": "05cbdeebb0d6d8ba4cb7176befd2b07f", "fusion_lon": 0.0, "bike_id": "05cbdeebb0d6d8ba4cb7176befd2b07f", "is_disabled": 0, "is_reserved": 0}, {"rental_uris": {"ios": "https://dc.lft.to/lastmile_qr_scan", "android": "https://dc.lft.to/lastmile_qr_scan"}, "lon": -77.022282, "type": "electric_scooter", "fusion_lat": 0.0, "lat": 38.89198366666667, "name": "8a3fa5a9d51bdc2452482f686565813a", "fusion_lon": 0.0, "bike_id": "8a3fa5a9d51bdc2452482f686565813a", "is_disabled": 0, "is_reserved": 0}, {"rental_uris": {"ios": "https://dc.lft.to/lastmile_qr_scan", "android": "https://dc.lft.to/lastmile_qr_scan"}, "lon": -77.03843016666667, "type": "electric_scooter", "fusion_lat": 0.0, "lat": 38.910889, "name": "3d319cc292ffa1c724dd91afc73fc331", "fusion_lon": 0.0, "bike_id": "3d319cc292ffa1c724dd91afc73fc331", "is_disabled": 0, "is_reserved": 0}, {"rental_uris": {"ios": "https://dc.lft.to/lastmile_qr_scan", "android": "https://dc.lft.to/lastmile_qr_scan"}, "lon": -77.036781, "type": "electric_scooter", "fusion_lat": 0.0, "lat": 38.91808666666667, "name": "e6034e99d8a86cde054e59c17744a91f", "fusion_lon": 0.0, "bike_id": "e6034e99d8a86cde054e59c17744a91f", "is_disabled": 0, "is_reserved": 0}, {"rental_uris": {"ios": "https://dc.lft.to/lastmile_qr_scan", "android": "https://dc.lft.to/lastmile_qr_scan"}, "lon": -77.09872966666667, "type": "electric_bike", "fusion_lat": 0.0, "lat": 38.85374733333333, "name": "aa46b71a8ff6ab4a143610a822823c38", "fusion_lon": 0.0, "bike_id": "aa46b71a8ff6ab4a143610a822823c38", "is_disabled": 0, "is_reserved": 0}, {"rental_uris": {"ios": "https://dc.lft.to/lastmile_qr_scan", "android": "https://dc.lft.to/lastmile_qr_scan"}, "lon": -77.04221116666666, "type": "electric_scooter", "fusion_lat": 0.0, "lat": 38.92093216666667, "name": "d081a8a8fe76fa1690a7c7a0b0e55536", "fusion_lon": 0.0, "bike_id": "d081a8a8fe76fa1690a7c7a0b0e55536", "is_disabled": 0, "is_reserved": 0}, {"rental_uris": {"ios": "https://dc.lft.to/lastmile_qr_scan", "android": "https://dc.lft.to/lastmile_qr_scan"}, "lon": -77.01354016666667, "type": "electric_scooter", "fusion_lat": 0.0, "lat": 38.919366333333336, "name": "164f1f92d15ca6513a697afc48f1fb58", "fusion_lon": 0.0, "bike_id": "164f1f92d15ca6513a697afc48f1fb58", "is_disabled": 0, "is_reserved": 0}, {"rental_uris": {"ios": "https://dc.lft.to/lastmile_qr_scan", "android": "https://dc.lft.to/lastmile_qr_scan"}, "lon": -76.99494533333333, "type": "electric_scooter", "fusion_lat": 0.0, "lat": 38.86240466666667, "name": "4d448bc1eee61f4da278c4bf842caa64", "fusion_lon": 0.0, "bike_id": "4d448bc1eee61f4da278c4bf842caa64", "is_disabled": 0, "is_reserved": 0}, {"rental_uris": {"ios": "https://dc.lft.to/lastmile_qr_scan", "android": "https://dc.lft.to/lastmile_qr_scan"}, "lon": -77.03989466666667, "type": "electric_scooter", "fusion_lat": 0.0, "lat": 38.899007833333336, "name": "8d5a17c7cbe2f50d9392f5ebb49fa9c1", "fusion_lon": 0.0, "bike_id": "8d5a17c7cbe2f50d9392f5ebb49fa9c1", "is_disabled": 0, "is_reserved": 0}, {"rental_uris": {"ios": "https://dc.lft.to/lastmile_qr_scan", "android": "https://dc.lft.to/lastmile_qr_scan"}, "lon": -77.036634, "type": "electric_scooter", "fusion_lat": 0.0, "lat": 38.918141, "name": "b93223747cbd2977e1ab39630b5071d1", "fusion_lon": 0.0, "bike_id": "b93223747cbd2977e1ab39630b5071d1", "is_disabled": 0, "is_reserved": 0}, {"rental_uris": {"ios": "https://dc.lft.to/lastmile_qr_scan", "android": "https://dc.lft.to/lastmile_qr_scan"}, "lon": -76.93170266666667, "type": "electric_scooter", "fusion_lat": 0.0, "lat": 38.89885266666667, "name": "119411a3089d575fef8bde4545e0df94", "fusion_lon": 0.0, "bike_id": "119411a3089d575fef8bde4545e0df94", "is_disabled": 0, "is_reserved": 0}, {"rental_uris": {"ios": "https://dc.lft.to/lastmile_qr_scan", "android": "https://dc.lft.to/lastmile_qr_scan"}, "lon": -77.036026, "type": "electric_scooter", "fusion_lat": 0.0, "lat": 38.92854716666667, "name": "d2bb586ab88584906e01655fc9562527", "fusion_lon": 0.0, "bike_id": "d2bb586ab88584906e01655fc9562527", "is_disabled": 0, "is_reserved": 0}, {"rental_uris": {"ios": "https://dc.lft.to/lastmile_qr_scan", "android": "https://dc.lft.to/lastmile_qr_scan"}, "lon": -77.02979516666667, "type": "electric_scooter", "fusion_lat": 0.0, "lat": 38.9460015, "name": "a64052932d7585ea88f3be3a3349c489", "fusion_lon": 0.0, "bike_id": "a64052932d7585ea88f3be3a3349c489", "is_disabled": 0, "is_reserved": 0}, {"rental_uris": {"ios": "https://dc.lft.to/lastmile_qr_scan", "android": "https://dc.lft.to/lastmile_qr_scan"}, "lon": -77.11293916666666, "type": "electric_bike", "fusion_lat": 0.0, "lat": 38.85621833333333, "name": "dfb2e2c76d39c14581fa76f4fb48674a", "fusion_lon": 0.0, "bike_id": "dfb2e2c76d39c14581fa76f4fb48674a", "is_disabled": 0, "is_reserved": 0}, {"rental_uris": {"ios": "https://dc.lft.to/lastmile_qr_scan", "android": "https://dc.lft.to/lastmile_qr_scan"}, "lon": -77.00197416666667, "type": "electric_scooter", "fusion_lat": 0.0, "lat": 38.9003705, "name": "f5a7d6cc9d6fb3232a4d21d243a7573c", "fusion_lon": 0.0, "bike_id": "f5a7d6cc9d6fb3232a4d21d243a7573c", "is_disabled": 0, "is_reserved": 0}, {"rental_uris": {"ios": "https://dc.lft.to/lastmile_qr_scan", "android": "https://dc.lft.to/lastmile_qr_scan"}, "lon": -77.0482365, "type": "electric_scooter", "fusion_lat": 0.0, "lat": 38.9078845, "name": "dba7e4f439a99130d072e18c8133e8d3", "fusion_lon": 0.0, "bike_id": "dba7e4f439a99130d072e18c8133e8d3", "is_disabled": 0, "is_reserved": 0}, {"rental_uris": {"ios": "https://dc.lft.to/lastmile_qr_scan", "android": "https://dc.lft.to/lastmile_qr_scan"}, "lon": -77.02171516666667, "type": "electric_scooter", "fusion_lat": 0.0, "lat": 38.9428995, "name": "972173f782595b128481fc30303d5a0a", "fusion_lon": 0.0, "bike_id": "972173f782595b128481fc30303d5a0a", "is_disabled": 0, "is_reserved": 0}, {"rental_uris": {"ios": "https://dc.lft.to/lastmile_qr_scan", "android": "https://dc.lft.to/lastmile_qr_scan"}, "lon": -77.0337225, "type": "electric_scooter", "fusion_lat": 0.0, "lat": 38.909866, "name": "122e9f89db2ff5e6bc0191b1b4d1dd7a", "fusion_lon": 0.0, "bike_id": "122e9f89db2ff5e6bc0191b1b4d1dd7a", "is_disabled": 0, "is_reserved": 0}, {"rental_uris": {"ios": "https://dc.lft.to/lastmile_qr_scan", "android": "https://dc.lft.to/lastmile_qr_scan"}, "lon": -77.03175033333333, "type": "electric_scooter", "fusion_lat": 0.0, "lat": 38.913381, "name": "385bb70c2c4b8b6528b469002312f3c3", "fusion_lon": 0.0, "bike_id": "385bb70c2c4b8b6528b469002312f3c3", "is_disabled": 0, "is_reserved": 0}, {"rental_uris": {"ios": "https://dc.lft.to/lastmile_qr_scan", "android": "https://dc.lft.to/lastmile_qr_scan"}, "lon": -77.06331883333333, "type": "electric_bike", "fusion_lat": 0.0, "lat": 38.9210585, "name": "ad85a651a07a2bbbcbc844ad8db692e6", "fusion_lon": 0.0, "bike_id": "ad85a651a07a2bbbcbc844ad8db692e6", "is_disabled": 0, "is_reserved": 0}, {"rental_uris": {"ios": "https://dc.lft.to/lastmile_qr_scan", "android": "https://dc.lft.to/lastmile_qr_scan"}, "lon": -76.94630716666667, "type": "electric_scooter", "fusion_lat": 0.0, "lat": 38.89842466666666, "name": "c83c18d10f6d8e42cbc67b6639b8eeb5", "fusion_lon": 0.0, "bike_id": "c83c18d10f6d8e42cbc67b6639b8eeb5", "is_disabled": 0, "is_reserved": 0}, {"rental_uris": {"ios": "https://dc.lft.to/lastmile_qr_scan", "android": "https://dc.lft.to/lastmile_qr_scan"}, "lon": -77.01365866666667, "type": "electric_scooter", "fusion_lat": 0.0, "lat": 38.86373316666667, "name": "500829f51a6c777187be08c9e4adfc9b", "fusion_lon": 0.0, "bike_id": "500829f51a6c777187be08c9e4adfc9b", "is_disabled": 0, "is_reserved": 0}, {"rental_uris": {"ios": "https://dc.lft.to/lastmile_qr_scan", "android": "https://dc.lft.to/lastmile_qr_scan"}, "lon": -77.06165633333333, "type": "electric_scooter", "fusion_lat": 0.0, "lat": 38.948048, "name": "e8643778ec1e31325e5e30e29bbd9e3e", "fusion_lon": 0.0, "bike_id": "e8643778ec1e31325e5e30e29bbd9e3e", "is_disabled": 0, "is_reserved": 0}, {"rental_uris": {"ios": "https://dc.lft.to/lastmile_qr_scan", "android": "https://dc.lft.to/lastmile_qr_scan"}, "lon": -77.06283416666666, "type": "electric_scooter", "fusion_lat": 0.0, "lat": 38.90636333333333, "name": "420f6388d85a8216b20bebb54f64efdb", "fusion_lon": 0.0, "bike_id": "420f6388d85a8216b20bebb54f64efdb", "is_disabled": 0, "is_reserved": 0}, {"rental_uris": {"ios": "https://dc.lft.to/lastmile_qr_scan", "android": "https://dc.lft.to/lastmile_qr_scan"}, "lon": -77.03586883333334, "type": "electric_scooter", "fusion_lat": 0.0, "lat": 38.93234533333333, "name": "c7bbbaebb76a2af8a4ba9c96adc18026", "fusion_lon": 0.0, "bike_id": "c7bbbaebb76a2af8a4ba9c96adc18026", "is_disabled": 0, "is_reserved": 0}, {"rental_uris": {"ios": "https://dc.lft.to/lastmile_qr_scan", "android": "https://dc.lft.to/lastmile_qr_scan"}, "lon": -77.041788, "type": "electric_scooter", "fusion_lat": 0.0, "lat": 38.900640333333335, "name": "f1ad6f8745cdd1cfb6dfccda8d282f12", "fusion_lon": 0.0, "bike_id": "f1ad6f8745cdd1cfb6dfccda8d282f12", "is_disabled": 0, "is_reserved": 0}, {"rental_uris": {"ios": "https://dc.lft.to/lastmile_qr_scan", "android": "https://dc.lft.to/lastmile_qr_scan"}, "lon": -77.08247416666667, "type": "electric_scooter", "fusion_lat": 0.0, "lat": 38.93574483333333, "name": "a3ebf75cf0bea07a6302def2c4034147", "fusion_lon": 0.0, "bike_id": "a3ebf75cf0bea07a6302def2c4034147", "is_disabled": 0, "is_reserved": 0}, {"rental_uris": {"ios": "https://dc.lft.to/lastmile_qr_scan", "android": "https://dc.lft.to/lastmile_qr_scan"}, "lon": -77.0126005, "type": "electric_scooter", "fusion_lat": 0.0, "lat": 38.899632, "name": "ee91bc716358f2f82550326713d453ea", "fusion_lon": 0.0, "bike_id": "ee91bc716358f2f82550326713d453ea", "is_disabled": 0, "is_reserved": 0}, {"rental_uris": {"ios": "https://dc.lft.to/lastmile_qr_scan", "android": "https://dc.lft.to/lastmile_qr_scan"}, "lon": -77.04183883333333, "type": "electric_scooter", "fusion_lat": 0.0, "lat": 38.920174, "name": "f77dec9847dc658af694713b81327a97", "fusion_lon": 0.0, "bike_id": "f77dec9847dc658af694713b81327a97", "is_disabled": 0, "is_reserved": 0}, {"rental_uris": {"ios": "https://dc.lft.to/lastmile_qr_scan", "android": "https://dc.lft.to/lastmile_qr_scan"}, "lon": -77.13595866666667, "type": "electric_bike", "fusion_lat": 0.0, "lat": 39.05346466666666, "name": "1b67cc2aa1061b38906402c07074c005", "fusion_lon": 0.0, "bike_id": "1b67cc2aa1061b38906402c07074c005", "is_disabled": 0, "is_reserved": 0}, {"rental_uris": {"ios": "https://dc.lft.to/lastmile_qr_scan", "android": "https://dc.lft.to/lastmile_qr_scan"}, "lon": -76.99145316666667, "type": "electric_scooter", "fusion_lat": 0.0, "lat": 38.90040783333333, "name": "cf553c18483c631d101d2f455d432eb0", "fusion_lon": 0.0, "bike_id": "cf553c18483c631d101d2f455d432eb0", "is_disabled": 0, "is_reserved": 0}, {"rental_uris": {"ios": "https://dc.lft.to/lastmile_qr_scan", "android": "https://dc.lft.to/lastmile_qr_scan"}, "lon": -76.98720900000001, "type": "electric_scooter", "fusion_lat": 0.0, "lat": 38.86260216666667, "name": "a8fd9dacca7b8ca4334536f45cf3b8bd", "fusion_lon": 0.0, "bike_id": "a8fd9dacca7b8ca4334536f45cf3b8bd", "is_disabled": 0, "is_reserved": 0}, {"rental_uris": {"ios": "https://dc.lft.to/lastmile_qr_scan", "android": "https://dc.lft.to/lastmile_qr_scan"}, "lon": -77.01173133333333, "type": "electric_scooter", "fusion_lat": 0.0, "lat": 38.900357, "name": "dd9e36a5dc92edf2c78010aec4884da2", "fusion_lon": 0.0, "bike_id": "dd9e36a5dc92edf2c78010aec4884da2", "is_disabled": 0, "is_reserved": 0}, {"rental_uris": {"ios": "https://dc.lft.to/lastmile_qr_scan", "android": "https://dc.lft.to/lastmile_qr_scan"}, "lon": -77.02211, "type": "electric_scooter", "fusion_lat": 0.0, "lat": 38.88736516666667, "name": "e9781ae471381bab0350b8b6f280fc63", "fusion_lon": 0.0, "bike_id": "e9781ae471381bab0350b8b6f280fc63", "is_disabled": 0, "is_reserved": 0}, {"rental_uris": {"ios": "https://dc.lft.to/lastmile_qr_scan", "android": "https://dc.lft.to/lastmile_qr_scan"}, "lon": -76.98770516666667, "type": "electric_scooter", "fusion_lat": 0.0, "lat": 38.91172783333333, "name": "c73436a8146d13a52171aceb7dce4296", "fusion_lon": 0.0, "bike_id": "c73436a8146d13a52171aceb7dce4296", "is_disabled": 0, "is_reserved": 0}, {"rental_uris": {"ios": "https://dc.lft.to/lastmile_qr_scan", "android": "https://dc.lft.to/lastmile_qr_scan"}, "lon": -77.0514285, "type": "electric_scooter", "fusion_lat": 0.0, "lat": 38.9023185, "name": "d9c635f6a41967c6b4f92642687d5f2b", "fusion_lon": 0.0, "bike_id": "d9c635f6a41967c6b4f92642687d5f2b", "is_disabled": 0, "is_reserved": 0}, {"rental_uris": {"ios": "https://dc.lft.to/lastmile_qr_scan", "android": "https://dc.lft.to/lastmile_qr_scan"}, "lon": -77.08366666666667, "type": "electric_scooter", "fusion_lat": 0.0, "lat": 38.93032316666667, "name": "fdf746b61dde1d2ba941561840d9fd3d", "fusion_lon": 0.0, "bike_id": "fdf746b61dde1d2ba941561840d9fd3d", "is_disabled": 0, "is_reserved": 0}, {"rental_uris": {"ios": "https://dc.lft.to/lastmile_qr_scan", "android": "https://dc.lft.to/lastmile_qr_scan"}, "lon": -77.12741566666666, "type": "electric_bike", "fusion_lat": 0.0, "lat": 38.88817483333333, "name": "4f1f751f531f72516eccf6e0cfaa3a0d", "fusion_lon": 0.0, "bike_id": "4f1f751f531f72516eccf6e0cfaa3a0d", "is_disabled": 0, "is_reserved": 0}, {"rental_uris": {"ios": "https://dc.lft.to/lastmile_qr_scan", "android": "https://dc.lft.to/lastmile_qr_scan"}, "lon": -77.04939816666666, "type": "electric_scooter", "fusion_lat": 0.0, "lat": 38.896697833333334, "name": "8d3b52d4231b4812d9df7b34555bd197", "fusion_lon": 0.0, "bike_id": "8d3b52d4231b4812d9df7b34555bd197", "is_disabled": 0, "is_reserved": 0}, {"rental_uris": {"ios": "https://dc.lft.to/lastmile_qr_scan", "android": "https://dc.lft.to/lastmile_qr_scan"}, "lon": -76.99538533333333, "type": "electric_scooter", "fusion_lat": 0.0, "lat": 38.92667383333333, "name": "c7487f5a0f9a7979095a5375b4d137ac", "fusion_lon": 0.0, "bike_id": "c7487f5a0f9a7979095a5375b4d137ac", "is_disabled": 0, "is_reserved": 0}, {"rental_uris": {"ios": "https://dc.lft.to/lastmile_qr_scan", "android": "https://dc.lft.to/lastmile_qr_scan"}, "lon": -77.0462255, "type": "electric_scooter", "fusion_lat": 0.0, "lat": 38.915705333333335, "name": "f2c91c6409a0147138df3da1ac87aea7", "fusion_lon": 0.0, "bike_id": "f2c91c6409a0147138df3da1ac87aea7", "is_disabled": 0, "is_reserved": 0}, {"rental_uris": {"ios": "https://dc.lft.to/lastmile_qr_scan", "android": "https://dc.lft.to/lastmile_qr_scan"}, "lon": -77.027132, "type": "electric_scooter", "fusion_lat": 0.0, "lat": 38.92481683333333, "name": "fccea37b85465a556ba8d25c431c0b3b", "fusion_lon": 0.0, "bike_id": "fccea37b85465a556ba8d25c431c0b3b", "is_disabled": 0, "is_reserved": 0}, {"rental_uris": {"ios": "https://dc.lft.to/lastmile_qr_scan", "android": "https://dc.lft.to/lastmile_qr_scan"}, "lon": -77.03085733333333, "type": "electric_scooter", "fusion_lat": 0.0, "lat": 38.9347045, "name": "6d63d5cb797eee9eaf24d0c3c0db75b6", "fusion_lon": 0.0, "bike_id": "6d63d5cb797eee9eaf24d0c3c0db75b6", "is_disabled": 0, "is_reserved": 0}, {"rental_uris": {"ios": "https://dc.lft.to/lastmile_qr_scan", "android": "https://dc.lft.to/lastmile_qr_scan"}, "lon": -77.0261235, "type": "electric_scooter", "fusion_lat": 0.0, "lat": 38.916906, "name": "51613e1e1da121e75be105d12e5265e8", "fusion_lon": 0.0, "bike_id": "51613e1e1da121e75be105d12e5265e8", "is_disabled": 0, "is_reserved": 0}, {"rental_uris": {"ios": "https://dc.lft.to/lastmile_qr_scan", "android": "https://dc.lft.to/lastmile_qr_scan"}, "lon": -77.00848866666666, "type": "electric_scooter", "fusion_lat": 0.0, "lat": 38.92592766666667, "name": "47f472a750d6a86eed128dd69ded5315", "fusion_lon": 0.0, "bike_id": "47f472a750d6a86eed128dd69ded5315", "is_disabled": 0, "is_reserved": 0}, {"rental_uris": {"ios": "https://dc.lft.to/lastmile_qr_scan", "android": "https://dc.lft.to/lastmile_qr_scan"}, "lon": -76.93793783333334, "type": "electric_scooter", "fusion_lat": 0.0, "lat": 38.91284366666667, "name": "6e2188d52c44bcfafcbe3ce42152ee35", "fusion_lon": 0.0, "bike_id": "6e2188d52c44bcfafcbe3ce42152ee35", "is_disabled": 0, "is_reserved": 0}, {"rental_uris": {"ios": "https://dc.lft.to/lastmile_qr_scan", "android": "https://dc.lft.to/lastmile_qr_scan"}, "lon": -77.01757066666667, "type": "electric_scooter", "fusion_lat": 0.0, "lat": 38.93898033333333, "name": "483776dbe5092df265504336739927e4", "fusion_lon": 0.0, "bike_id": "483776dbe5092df265504336739927e4", "is_disabled": 0, "is_reserved": 0}, {"rental_uris": {"ios": "https://dc.lft.to/lastmile_qr_scan", "android": "https://dc.lft.to/lastmile_qr_scan"}, "lon": -77.0360265, "type": "electric_scooter", "fusion_lat": 0.0, "lat": 38.906836, "name": "101ebe2b7a451f1b332e130d179664e0", "fusion_lon": 0.0, "bike_id": "101ebe2b7a451f1b332e130d179664e0", "is_disabled": 0, "is_reserved": 0}, {"rental_uris": {"ios": "https://dc.lft.to/lastmile_qr_scan", "android": "https://dc.lft.to/lastmile_qr_scan"}, "lon": -76.97887083333333, "type": "electric_scooter", "fusion_lat": 0.0, "lat": 38.916709, "name": "f67ea8d6ab5d87c323de8e3d909bf24d", "fusion_lon": 0.0, "bike_id": "f67ea8d6ab5d87c323de8e3d909bf24d", "is_disabled": 0, "is_reserved": 0}, {"rental_uris": {"ios": "https://dc.lft.to/lastmile_qr_scan", "android": "https://dc.lft.to/lastmile_qr_scan"}, "lon": -77.04368666666667, "type": "electric_scooter", "fusion_lat": 0.0, "lat": 38.9333155, "name": "1286426e3364bf5547462b5ce76b3aed", "fusion_lon": 0.0, "bike_id": "1286426e3364bf5547462b5ce76b3aed", "is_disabled": 0, "is_reserved": 0}, {"rental_uris": {"ios": "https://dc.lft.to/lastmile_qr_scan", "android": "https://dc.lft.to/lastmile_qr_scan"}, "lon": -76.9462245, "type": "electric_bike", "fusion_lat": 0.0, "lat": 38.8323215, "name": "c8a12fc7d7a3d38faeffcce196c0bbf6", "fusion_lon": 0.0, "bike_id": "c8a12fc7d7a3d38faeffcce196c0bbf6", "is_disabled": 0, "is_reserved": 0}, {"rental_uris": {"ios": "https://dc.lft.to/lastmile_qr_scan", "android": "https://dc.lft.to/lastmile_qr_scan"}, "lon": -76.98545433333334, "type": "electric_scooter", "fusion_lat": 0.0, "lat": 38.90419466666667, "name": "7cb15c0792c8b20d26d662c6a987b5f1", "fusion_lon": 0.0, "bike_id": "7cb15c0792c8b20d26d662c6a987b5f1", "is_disabled": 0, "is_reserved": 0}, {"rental_uris": {"ios": "https://dc.lft.to/lastmile_qr_scan", "android": "https://dc.lft.to/lastmile_qr_scan"}, "lon": -76.9392905, "type": "electric_scooter", "fusion_lat": 0.0, "lat": 38.89294483333333, "name": "3ce0c8fab563ba2d3c1646e83492990c", "fusion_lon": 0.0, "bike_id": "3ce0c8fab563ba2d3c1646e83492990c", "is_disabled": 0, "is_reserved": 0}, {"rental_uris": {"ios": "https://dc.lft.to/lastmile_qr_scan", "android": "https://dc.lft.to/lastmile_qr_scan"}, "lon": -76.98083983333333, "type": "electric_scooter", "fusion_lat": 0.0, "lat": 38.901764166666666, "name": "d306ac825e2cf30bb62f655a1476b274", "fusion_lon": 0.0, "bike_id": "d306ac825e2cf30bb62f655a1476b274", "is_disabled": 0, "is_reserved": 0}, {"rental_uris": {"ios": "https://dc.lft.to/lastmile_qr_scan", "android": "https://dc.lft.to/lastmile_qr_scan"}, "lon": -77.02531866666666, "type": "electric_scooter", "fusion_lat": 0.0, "lat": 38.9009995, "name": "ba8880d9cd24a5eb3fb6c3d48e267634", "fusion_lon": 0.0, "bike_id": "ba8880d9cd24a5eb3fb6c3d48e267634", "is_disabled": 0, "is_reserved": 0}, {"rental_uris": {"ios": "https://dc.lft.to/lastmile_qr_scan", "android": "https://dc.lft.to/lastmile_qr_scan"}, "lon": -77.02002216666666, "type": "electric_scooter", "fusion_lat": 0.0, "lat": 38.9005765, "name": "6aee35fd305005004344d7f2d945e341", "fusion_lon": 0.0, "bike_id": "6aee35fd305005004344d7f2d945e341", "is_disabled": 0, "is_reserved": 0}, {"rental_uris": {"ios": "https://dc.lft.to/lastmile_qr_scan", "android": "https://dc.lft.to/lastmile_qr_scan"}, "lon": -77.048665, "type": "electric_scooter", "fusion_lat": 0.0, "lat": 38.892206333333334, "name": "4029eab7cdb337a0d9f3d3db83f16adb", "fusion_lon": 0.0, "bike_id": "4029eab7cdb337a0d9f3d3db83f16adb", "is_disabled": 0, "is_reserved": 0}, {"rental_uris": {"ios": "https://dc.lft.to/lastmile_qr_scan", "android": "https://dc.lft.to/lastmile_qr_scan"}, "lon": -77.055444, "type": "electric_bike", "fusion_lat": 0.0, "lat": 38.92527033333333, "name": "99bef0ee22fba52a680f9efdb1994576", "fusion_lon": 0.0, "bike_id": "99bef0ee22fba52a680f9efdb1994576", "is_disabled": 0, "is_reserved": 0}, {"rental_uris": {"ios": "https://dc.lft.to/lastmile_qr_scan", "android": "https://dc.lft.to/lastmile_qr_scan"}, "lon": -77.06366716666666, "type": "electric_scooter", "fusion_lat": 0.0, "lat": 38.909333833333335, "name": "90b49af1b08261766009710c8e282401", "fusion_lon": 0.0, "bike_id": "90b49af1b08261766009710c8e282401", "is_disabled": 0, "is_reserved": 0}, {"rental_uris": {"ios": "https://dc.lft.to/lastmile_qr_scan", "android": "https://dc.lft.to/lastmile_qr_scan"}, "lon": -77.04369283333334, "type": "electric_scooter", "fusion_lat": 0.0, "lat": 38.92119, "name": "2d4f80fad171cb0c7092e800ce299aa3", "fusion_lon": 0.0, "bike_id": "2d4f80fad171cb0c7092e800ce299aa3", "is_disabled": 0, "is_reserved": 0}, {"rental_uris": {"ios": "https://dc.lft.to/lastmile_qr_scan", "android": "https://dc.lft.to/lastmile_qr_scan"}, "lon": -77.05417866666667, "type": "electric_scooter", "fusion_lat": 0.0, "lat": 38.92835216666667, "name": "8e05227607f85991396d172f71aa74c8", "fusion_lon": 0.0, "bike_id": "8e05227607f85991396d172f71aa74c8", "is_disabled": 0, "is_reserved": 0}, {"rental_uris": {"ios": "https://dc.lft.to/lastmile_qr_scan", "android": "https://dc.lft.to/lastmile_qr_scan"}, "lon": -76.97722533333334, "type": "electric_scooter", "fusion_lat": 0.0, "lat": 38.8724665, "name": "e9f4454749e0c7a545cf8022c7ef50a2", "fusion_lon": 0.0, "bike_id": "e9f4454749e0c7a545cf8022c7ef50a2", "is_disabled": 0, "is_reserved": 0}, {"rental_uris": {"ios": "https://dc.lft.to/lastmile_qr_scan", "android": "https://dc.lft.to/lastmile_qr_scan"}, "lon": -77.045935, "type": "electric_scooter", "fusion_lat": 0.0, "lat": 38.902557333333334, "name": "22ebf95737b6a1c560822ad1fdd64f49", "fusion_lon": 0.0, "bike_id": "22ebf95737b6a1c560822ad1fdd64f49", "is_disabled": 0, "is_reserved": 0}, {"rental_uris": {"ios": "https://dc.lft.to/lastmile_qr_scan", "android": "https://dc.lft.to/lastmile_qr_scan"}, "lon": -77.02452083333333, "type": "electric_scooter", "fusion_lat": 0.0, "lat": 38.9793505, "name": "8704072edda006e63ccbfaef0bf6c3fa", "fusion_lon": 0.0, "bike_id": "8704072edda006e63ccbfaef0bf6c3fa", "is_disabled": 0, "is_reserved": 0}, {"rental_uris": {"ios": "https://dc.lft.to/lastmile_qr_scan", "android": "https://dc.lft.to/lastmile_qr_scan"}, "lon": -77.03226166666667, "type": "electric_scooter", "fusion_lat": 0.0, "lat": 38.93876516666667, "name": "b43b8c735bab6154e89476adad0daaec", "fusion_lon": 0.0, "bike_id": "b43b8c735bab6154e89476adad0daaec", "is_disabled": 0, "is_reserved": 0}, {"rental_uris": {"ios": "https://dc.lft.to/lastmile_qr_scan", "android": "https://dc.lft.to/lastmile_qr_scan"}, "lon": -76.97329533333334, "type": "electric_bike", "fusion_lat": 0.0, "lat": 38.85058133333333, "name": "6cd2a439a909e23267701d99ccd44647", "fusion_lon": 0.0, "bike_id": "6cd2a439a909e23267701d99ccd44647", "is_disabled": 0, "is_reserved": 0}, {"rental_uris": {"ios": "https://dc.lft.to/lastmile_qr_scan", "android": "https://dc.lft.to/lastmile_qr_scan"}, "lon": -77.03670883333334, "type": "electric_scooter", "fusion_lat": 0.0, "lat": 38.92992816666667, "name": "6f0648dc1a57b4f788c78ad813049eba", "fusion_lon": 0.0, "bike_id": "6f0648dc1a57b4f788c78ad813049eba", "is_disabled": 0, "is_reserved": 0}, {"rental_uris": {"ios": "https://dc.lft.to/lastmile_qr_scan", "android": "https://dc.lft.to/lastmile_qr_scan"}, "lon": -77.05024866666666, "type": "electric_scooter", "fusion_lat": 0.0, "lat": 38.896562833333334, "name": "52335b4dd75d08a0c09fad9522b0c843", "fusion_lon": 0.0, "bike_id": "52335b4dd75d08a0c09fad9522b0c843", "is_disabled": 0, "is_reserved": 0}, {"rental_uris": {"ios": "https://dc.lft.to/lastmile_qr_scan", "android": "https://dc.lft.to/lastmile_qr_scan"}, "lon": -77.0468715, "type": "electric_scooter", "fusion_lat": 0.0, "lat": 38.896064, "name": "5373d85560f8c64f4f16b6b0cb504a45", "fusion_lon": 0.0, "bike_id": "5373d85560f8c64f4f16b6b0cb504a45", "is_disabled": 0, "is_reserved": 0}, {"rental_uris": {"ios": "https://dc.lft.to/lastmile_qr_scan", "android": "https://dc.lft.to/lastmile_qr_scan"}, "lon": -77.06529383333333, "type": "electric_scooter", "fusion_lat": 0.0, "lat": 38.90530366666667, "name": "7dc5ed037938c695dcb4cc9cbb796014", "fusion_lon": 0.0, "bike_id": "7dc5ed037938c695dcb4cc9cbb796014", "is_disabled": 0, "is_reserved": 0}, {"rental_uris": {"ios": "https://dc.lft.to/lastmile_qr_scan", "android": "https://dc.lft.to/lastmile_qr_scan"}, "lon": -77.03201816666666, "type": "electric_scooter", "fusion_lat": 0.0, "lat": 38.9098705, "name": "232dd733c754a43ae9db5b39ac63f13f", "fusion_lon": 0.0, "bike_id": "232dd733c754a43ae9db5b39ac63f13f", "is_disabled": 0, "is_reserved": 0}, {"rental_uris": {"ios": "https://dc.lft.to/lastmile_qr_scan", "android": "https://dc.lft.to/lastmile_qr_scan"}, "lon": -76.9721885, "type": "electric_bike", "fusion_lat": 0.0, "lat": 38.8448025, "name": "f491da5e030e94e903a1ad88be342ccb", "fusion_lon": 0.0, "bike_id": "f491da5e030e94e903a1ad88be342ccb", "is_disabled": 0, "is_reserved": 0}, {"rental_uris": {"ios": "https://dc.lft.to/lastmile_qr_scan", "android": "https://dc.lft.to/lastmile_qr_scan"}, "lon": -76.9443885, "type": "electric_bike", "fusion_lat": 0.0, "lat": 38.90296933333333, "name": "8ed412dc72a17819efe15c4a7dab23b5", "fusion_lon": 0.0, "bike_id": "8ed412dc72a17819efe15c4a7dab23b5", "is_disabled": 0, "is_reserved": 0}, {"rental_uris": {"ios": "https://dc.lft.to/lastmile_qr_scan", "android": "https://dc.lft.to/lastmile_qr_scan"}, "lon": -77.03174133333333, "type": "electric_scooter", "fusion_lat": 0.0, "lat": 38.90968816666667, "name": "01aecaafac130b38f12188c88a990e5d", "fusion_lon": 0.0, "bike_id": "01aecaafac130b38f12188c88a990e5d", "is_disabled": 0, "is_reserved": 0}, {"rental_uris": {"ios": "https://dc.lft.to/lastmile_qr_scan", "android": "https://dc.lft.to/lastmile_qr_scan"}, "lon": -77.03214933333334, "type": "electric_scooter", "fusion_lat": 0.0, "lat": 38.93380616666666, "name": "4d7838e6df52623deb5a305bbadd8595", "fusion_lon": 0.0, "bike_id": "4d7838e6df52623deb5a305bbadd8595", "is_disabled": 0, "is_reserved": 0}, {"rental_uris": {"ios": "https://dc.lft.to/lastmile_qr_scan", "android": "https://dc.lft.to/lastmile_qr_scan"}, "lon": -77.0112505, "type": "electric_scooter", "fusion_lat": 0.0, "lat": 38.912660833333334, "name": "34ec6f71d2d035140cc4b52613f2deae", "fusion_lon": 0.0, "bike_id": "34ec6f71d2d035140cc4b52613f2deae", "is_disabled": 0, "is_reserved": 0}, {"rental_uris": {"ios": "https://dc.lft.to/lastmile_qr_scan", "android": "https://dc.lft.to/lastmile_qr_scan"}, "lon": -77.04195916666667, "type": "electric_scooter", "fusion_lat": 0.0, "lat": 38.91675583333333, "name": "f8b52d565605efcce6136a9b25f43265", "fusion_lon": 0.0, "bike_id": "f8b52d565605efcce6136a9b25f43265", "is_disabled": 0, "is_reserved": 0}, {"rental_uris": {"ios": "https://dc.lft.to/lastmile_qr_scan", "android": "https://dc.lft.to/lastmile_qr_scan"}, "lon": -77.03210233333333, "type": "electric_scooter", "fusion_lat": 0.0, "lat": 38.91108783333333, "name": "d949f46955ec56d09c9375f0b630f5b6", "fusion_lon": 0.0, "bike_id": "d949f46955ec56d09c9375f0b630f5b6", "is_disabled": 0, "is_reserved": 0}, {"rental_uris": {"ios": "https://dc.lft.to/lastmile_qr_scan", "android": "https://dc.lft.to/lastmile_qr_scan"}, "lon": -77.03663816666666, "type": "electric_scooter", "fusion_lat": 0.0, "lat": 38.92932366666667, "name": "199b7aa95b023273fc79ed5fe1869798", "fusion_lon": 0.0, "bike_id": "199b7aa95b023273fc79ed5fe1869798", "is_disabled": 0, "is_reserved": 0}, {"rental_uris": {"ios": "https://dc.lft.to/lastmile_qr_scan", "android": "https://dc.lft.to/lastmile_qr_scan"}, "lon": -77.0281995, "type": "electric_scooter", "fusion_lat": 0.0, "lat": 38.89636266666667, "name": "84611ecdaa6230d5e7a547a7bfabb84d", "fusion_lon": 0.0, "bike_id": "84611ecdaa6230d5e7a547a7bfabb84d", "is_disabled": 0, "is_reserved": 0}, {"rental_uris": {"ios": "https://dc.lft.to/lastmile_qr_scan", "android": "https://dc.lft.to/lastmile_qr_scan"}, "lon": -77.07328916666667, "type": "electric_scooter", "fusion_lat": 0.0, "lat": 38.924834, "name": "05171ec3c54dac14556de9c11db0b64d", "fusion_lon": 0.0, "bike_id": "05171ec3c54dac14556de9c11db0b64d", "is_disabled": 0, "is_reserved": 0}, {"rental_uris": {"ios": "https://dc.lft.to/lastmile_qr_scan", "android": "https://dc.lft.to/lastmile_qr_scan"}, "lon": -77.06767366666666, "type": "electric_scooter", "fusion_lat": 0.0, "lat": 38.947918666666666, "name": "765d3b3602bcb83a5d4390232efe7ca2", "fusion_lon": 0.0, "bike_id": "765d3b3602bcb83a5d4390232efe7ca2", "is_disabled": 0, "is_reserved": 0}, {"rental_uris": {"ios": "https://dc.lft.to/lastmile_qr_scan", "android": "https://dc.lft.to/lastmile_qr_scan"}, "lon": -77.07559516666667, "type": "electric_scooter", "fusion_lat": 0.0, "lat": 38.914268166666666, "name": "3a14a1f2f6d88d26194d806ef2215840", "fusion_lon": 0.0, "bike_id": "3a14a1f2f6d88d26194d806ef2215840", "is_disabled": 0, "is_reserved": 0}, {"rental_uris": {"ios": "https://dc.lft.to/lastmile_qr_scan", "android": "https://dc.lft.to/lastmile_qr_scan"}, "lon": -77.01771516666666, "type": "electric_scooter", "fusion_lat": 0.0, "lat": 38.884036333333334, "name": "4e9f4cac839577a3652e1ba1840a3249", "fusion_lon": 0.0, "bike_id": "4e9f4cac839577a3652e1ba1840a3249", "is_disabled": 0, "is_reserved": 0}, {"rental_uris": {"ios": "https://dc.lft.to/lastmile_qr_scan", "android": "https://dc.lft.to/lastmile_qr_scan"}, "lon": -77.03873233333333, "type": "electric_scooter", "fusion_lat": 0.0, "lat": 38.93156316666666, "name": "bf318a0d1973ad054433b9feb190d959", "fusion_lon": 0.0, "bike_id": "bf318a0d1973ad054433b9feb190d959", "is_disabled": 0, "is_reserved": 0}, {"rental_uris": {"ios": "https://dc.lft.to/lastmile_qr_scan", "android": "https://dc.lft.to/lastmile_qr_scan"}, "lon": -77.02230416666667, "type": "electric_scooter", "fusion_lat": 0.0, "lat": 38.89195133333333, "name": "19a8f844eeca6f058a83e61972747085", "fusion_lon": 0.0, "bike_id": "19a8f844eeca6f058a83e61972747085", "is_disabled": 0, "is_reserved": 0}, {"rental_uris": {"ios": "https://dc.lft.to/lastmile_qr_scan", "android": "https://dc.lft.to/lastmile_qr_scan"}, "lon": -76.9374615, "type": "electric_scooter", "fusion_lat": 0.0, "lat": 38.912881, "name": "89999aa954aac14c7e8f5383329f8f2c", "fusion_lon": 0.0, "bike_id": "89999aa954aac14c7e8f5383329f8f2c", "is_disabled": 0, "is_reserved": 0}, {"rental_uris": {"ios": "https://dc.lft.to/lastmile_qr_scan", "android": "https://dc.lft.to/lastmile_qr_scan"}, "lon": -77.03037283333333, "type": "electric_scooter", "fusion_lat": 0.0, "lat": 38.93359916666667, "name": "6278d31e82875dd421c70c5b7acbbb65", "fusion_lon": 0.0, "bike_id": "6278d31e82875dd421c70c5b7acbbb65", "is_disabled": 0, "is_reserved": 0}, {"rental_uris": {"ios": "https://dc.lft.to/lastmile_qr_scan", "android": "https://dc.lft.to/lastmile_qr_scan"}, "lon": -77.042517, "type": "electric_scooter", "fusion_lat": 0.0, "lat": 38.92058216666667, "name": "063d0290d696b4e347dbaeb710bc1b18", "fusion_lon": 0.0, "bike_id": "063d0290d696b4e347dbaeb710bc1b18", "is_disabled": 0, "is_reserved": 0}, {"rental_uris": {"ios": "https://dc.lft.to/lastmile_qr_scan", "android": "https://dc.lft.to/lastmile_qr_scan"}, "lon": -77.0335105, "type": "electric_scooter", "fusion_lat": 0.0, "lat": 38.9171175, "name": "90da5a8f1d721e74afa83fe922518f82", "fusion_lon": 0.0, "bike_id": "90da5a8f1d721e74afa83fe922518f82", "is_disabled": 0, "is_reserved": 0}, {"rental_uris": {"ios": "https://dc.lft.to/lastmile_qr_scan", "android": "https://dc.lft.to/lastmile_qr_scan"}, "lon": -77.02230816666666, "type": "electric_scooter", "fusion_lat": 0.0, "lat": 38.89191616666667, "name": "0df640d32d3e229c40f94686d440d8ab", "fusion_lon": 0.0, "bike_id": "0df640d32d3e229c40f94686d440d8ab", "is_disabled": 0, "is_reserved": 0}, {"rental_uris": {"ios": "https://dc.lft.to/lastmile_qr_scan", "android": "https://dc.lft.to/lastmile_qr_scan"}, "lon": -77.0967365, "type": "electric_scooter", "fusion_lat": 0.0, "lat": 38.9176895, "name": "5ab30c9c127fdd7b2809f2bbc1ffd6ef", "fusion_lon": 0.0, "bike_id": "5ab30c9c127fdd7b2809f2bbc1ffd6ef", "is_disabled": 0, "is_reserved": 0}, {"rental_uris": {"ios": "https://dc.lft.to/lastmile_qr_scan", "android": "https://dc.lft.to/lastmile_qr_scan"}, "lon": -77.03222666666667, "type": "electric_scooter", "fusion_lat": 0.0, "lat": 38.90864333333333, "name": "87ddfabf9cc1853b82ac61ffa390cc2e", "fusion_lon": 0.0, "bike_id": "87ddfabf9cc1853b82ac61ffa390cc2e", "is_disabled": 0, "is_reserved": 0}, {"rental_uris": {"ios": "https://dc.lft.to/lastmile_qr_scan", "android": "https://dc.lft.to/lastmile_qr_scan"}, "lon": -76.98880883333334, "type": "electric_scooter", "fusion_lat": 0.0, "lat": 38.86656583333333, "name": "748836bdd70321a2b0d340c0da922a4f", "fusion_lon": 0.0, "bike_id": "748836bdd70321a2b0d340c0da922a4f", "is_disabled": 0, "is_reserved": 0}, {"rental_uris": {"ios": "https://dc.lft.to/lastmile_qr_scan", "android": "https://dc.lft.to/lastmile_qr_scan"}, "lon": -77.03901866666666, "type": "electric_scooter", "fusion_lat": 0.0, "lat": 38.92187766666667, "name": "1f911ba1e1982673e8c2b63f3748e987", "fusion_lon": 0.0, "bike_id": "1f911ba1e1982673e8c2b63f3748e987", "is_disabled": 0, "is_reserved": 0}, {"rental_uris": {"ios": "https://dc.lft.to/lastmile_qr_scan", "android": "https://dc.lft.to/lastmile_qr_scan"}, "lon": -77.046866, "type": "electric_scooter", "fusion_lat": 0.0, "lat": 38.896073, "name": "32031d2820688e3d85b1432c83a7208b", "fusion_lon": 0.0, "bike_id": "32031d2820688e3d85b1432c83a7208b", "is_disabled": 0, "is_reserved": 0}, {"rental_uris": {"ios": "https://dc.lft.to/lastmile_qr_scan", "android": "https://dc.lft.to/lastmile_qr_scan"}, "lon": -76.97706416666666, "type": "electric_scooter", "fusion_lat": 0.0, "lat": 38.902527666666664, "name": "2eb07f4136b67bfb00a6a06fde9a4687", "fusion_lon": 0.0, "bike_id": "2eb07f4136b67bfb00a6a06fde9a4687", "is_disabled": 0, "is_reserved": 0}, {"rental_uris": {"ios": "https://dc.lft.to/lastmile_qr_scan", "android": "https://dc.lft.to/lastmile_qr_scan"}, "lon": -77.01061516666667, "type": "electric_scooter", "fusion_lat": 0.0, "lat": 38.8757725, "name": "ee6365c8775a85845a99689b6c86571b", "fusion_lon": 0.0, "bike_id": "ee6365c8775a85845a99689b6c86571b", "is_disabled": 0, "is_reserved": 0}, {"rental_uris": {"ios": "https://dc.lft.to/lastmile_qr_scan", "android": "https://dc.lft.to/lastmile_qr_scan"}, "lon": -77.03174616666666, "type": "electric_scooter", "fusion_lat": 0.0, "lat": 38.9180525, "name": "87a84daf6eefa3e7a5ea8e9ef4ac98c0", "fusion_lon": 0.0, "bike_id": "87a84daf6eefa3e7a5ea8e9ef4ac98c0", "is_disabled": 0, "is_reserved": 0}, {"rental_uris": {"ios": "https://dc.lft.to/lastmile_qr_scan", "android": "https://dc.lft.to/lastmile_qr_scan"}, "lon": -77.04129983333333, "type": "electric_scooter", "fusion_lat": 0.0, "lat": 38.9243225, "name": "ff2d1151e10e921c3126d0fe358707b0", "fusion_lon": 0.0, "bike_id": "ff2d1151e10e921c3126d0fe358707b0", "is_disabled": 0, "is_reserved": 0}, {"rental_uris": {"ios": "https://dc.lft.to/lastmile_qr_scan", "android": "https://dc.lft.to/lastmile_qr_scan"}, "lon": -76.97354933333334, "type": "electric_scooter", "fusion_lat": 0.0, "lat": 38.8620485, "name": "aa4ee76644e6842c8e0f7bfc2478b860", "fusion_lon": 0.0, "bike_id": "aa4ee76644e6842c8e0f7bfc2478b860", "is_disabled": 0, "is_reserved": 0}, {"rental_uris": {"ios": "https://dc.lft.to/lastmile_qr_scan", "android": "https://dc.lft.to/lastmile_qr_scan"}, "lon": -77.03323366666666, "type": "electric_scooter", "fusion_lat": 0.0, "lat": 38.919903166666664, "name": "ed85cdad10e2f6b593acbf9dbf7c5325", "fusion_lon": 0.0, "bike_id": "ed85cdad10e2f6b593acbf9dbf7c5325", "is_disabled": 0, "is_reserved": 0}, {"rental_uris": {"ios": "https://dc.lft.to/lastmile_qr_scan", "android": "https://dc.lft.to/lastmile_qr_scan"}, "lon": -77.03315533333334, "type": "electric_scooter", "fusion_lat": 0.0, "lat": 38.919884, "name": "6906fb97176dd4c4b934130d4a4bb522", "fusion_lon": 0.0, "bike_id": "6906fb97176dd4c4b934130d4a4bb522", "is_disabled": 0, "is_reserved": 0}, {"rental_uris": {"ios": "https://dc.lft.to/lastmile_qr_scan", "android": "https://dc.lft.to/lastmile_qr_scan"}, "lon": -77.0417315, "type": "electric_scooter", "fusion_lat": 0.0, "lat": 38.91766466666667, "name": "8af4c5bb28882f2a0937486635bcb4bf", "fusion_lon": 0.0, "bike_id": "8af4c5bb28882f2a0937486635bcb4bf", "is_disabled": 0, "is_reserved": 0}, {"rental_uris": {"ios": "https://dc.lft.to/lastmile_qr_scan", "android": "https://dc.lft.to/lastmile_qr_scan"}, "lon": -77.03213633333333, "type": "electric_scooter", "fusion_lat": 0.0, "lat": 38.9142575, "name": "ddad6a7c0715f797532f28b375da63ca", "fusion_lon": 0.0, "bike_id": "ddad6a7c0715f797532f28b375da63ca", "is_disabled": 0, "is_reserved": 0}, {"rental_uris": {"ios": "https://dc.lft.to/lastmile_qr_scan", "android": "https://dc.lft.to/lastmile_qr_scan"}, "lon": -77.027446, "type": "electric_scooter", "fusion_lat": 0.0, "lat": 38.927664, "name": "a7ddda66529953249d73d47ee2388705", "fusion_lon": 0.0, "bike_id": "a7ddda66529953249d73d47ee2388705", "is_disabled": 0, "is_reserved": 0}, {"rental_uris": {"ios": "https://dc.lft.to/lastmile_qr_scan", "android": "https://dc.lft.to/lastmile_qr_scan"}, "lon": -77.05454016666667, "type": "electric_scooter", "fusion_lat": 0.0, "lat": 38.92904333333333, "name": "a091018f347e0c9c85e37b2bc646f92f", "fusion_lon": 0.0, "bike_id": "a091018f347e0c9c85e37b2bc646f92f", "is_disabled": 0, "is_reserved": 0}, {"rental_uris": {"ios": "https://dc.lft.to/lastmile_qr_scan", "android": "https://dc.lft.to/lastmile_qr_scan"}, "lon": -77.024782, "type": "electric_scooter", "fusion_lat": 0.0, "lat": 38.93097733333333, "name": "8b2dbdba2aa6f1a8f189bb753f5af120", "fusion_lon": 0.0, "bike_id": "8b2dbdba2aa6f1a8f189bb753f5af120", "is_disabled": 0, "is_reserved": 0}, {"rental_uris": {"ios": "https://dc.lft.to/lastmile_qr_scan", "android": "https://dc.lft.to/lastmile_qr_scan"}, "lon": -77.1050825, "type": "electric_bike", "fusion_lat": 0.0, "lat": 38.928495833333336, "name": "5757d81d2c358a576cfddd308c1255ed", "fusion_lon": 0.0, "bike_id": "5757d81d2c358a576cfddd308c1255ed", "is_disabled": 0, "is_reserved": 0}, {"rental_uris": {"ios": "https://dc.lft.to/lastmile_qr_scan", "android": "https://dc.lft.to/lastmile_qr_scan"}, "lon": -77.07386883333334, "type": "electric_bike", "fusion_lat": 0.0, "lat": 38.96167783333333, "name": "7b0f909bb75df2f90d4201c155c42118", "fusion_lon": 0.0, "bike_id": "7b0f909bb75df2f90d4201c155c42118", "is_disabled": 0, "is_reserved": 0}, {"rental_uris": {"ios": "https://dc.lft.to/lastmile_qr_scan", "android": "https://dc.lft.to/lastmile_qr_scan"}, "lon": -77.03092516666666, "type": "electric_scooter", "fusion_lat": 0.0, "lat": 38.894711666666666, "name": "bd434bc807151244ed28305b0cc40b40", "fusion_lon": 0.0, "bike_id": "bd434bc807151244ed28305b0cc40b40", "is_disabled": 0, "is_reserved": 0}, {"rental_uris": {"ios": "https://dc.lft.to/lastmile_qr_scan", "android": "https://dc.lft.to/lastmile_qr_scan"}, "lon": -77.0153345, "type": "electric_scooter", "fusion_lat": 0.0, "lat": 38.887362833333334, "name": "df4cb962d77e3e19d79fc6325c5baeb9", "fusion_lon": 0.0, "bike_id": "df4cb962d77e3e19d79fc6325c5baeb9", "is_disabled": 0, "is_reserved": 0}, {"rental_uris": {"ios": "https://dc.lft.to/lastmile_qr_scan", "android": "https://dc.lft.to/lastmile_qr_scan"}, "lon": -77.0257235, "type": "electric_scooter", "fusion_lat": 0.0, "lat": 38.89221166666667, "name": "05f4476696b22e530bfabf78135ed8aa", "fusion_lon": 0.0, "bike_id": "05f4476696b22e530bfabf78135ed8aa", "is_disabled": 0, "is_reserved": 0}, {"rental_uris": {"ios": "https://dc.lft.to/lastmile_qr_scan", "android": "https://dc.lft.to/lastmile_qr_scan"}, "lon": -77.029211, "type": "electric_scooter", "fusion_lat": 0.0, "lat": 38.895487333333335, "name": "046226aee5dd5fdb1a72c34fbcaa9a40", "fusion_lon": 0.0, "bike_id": "046226aee5dd5fdb1a72c34fbcaa9a40", "is_disabled": 0, "is_reserved": 0}, {"rental_uris": {"ios": "https://dc.lft.to/lastmile_qr_scan", "android": "https://dc.lft.to/lastmile_qr_scan"}, "lon": -77.05010016666667, "type": "electric_scooter", "fusion_lat": 0.0, "lat": 38.901286999999996, "name": "cc5b8ad5632b6f8f0a38dda23f6763bf", "fusion_lon": 0.0, "bike_id": "cc5b8ad5632b6f8f0a38dda23f6763bf", "is_disabled": 0, "is_reserved": 0}, {"rental_uris": {"ios": "https://dc.lft.to/lastmile_qr_scan", "android": "https://dc.lft.to/lastmile_qr_scan"}, "lon": -77.04366266666666, "type": "electric_scooter", "fusion_lat": 0.0, "lat": 38.928073499999996, "name": "cab50ed35d629b9db7cb0f530f838697", "fusion_lon": 0.0, "bike_id": "cab50ed35d629b9db7cb0f530f838697", "is_disabled": 0, "is_reserved": 0}, {"rental_uris": {"ios": "https://dc.lft.to/lastmile_qr_scan", "android": "https://dc.lft.to/lastmile_qr_scan"}, "lon": -77.02068983333334, "type": "electric_scooter", "fusion_lat": 0.0, "lat": 38.91549666666667, "name": "5d2b07fe7cc20e01e0899fbbfeb8c6a7", "fusion_lon": 0.0, "bike_id": "5d2b07fe7cc20e01e0899fbbfeb8c6a7", "is_disabled": 0, "is_reserved": 0}, {"rental_uris": {"ios": "https://dc.lft.to/lastmile_qr_scan", "android": "https://dc.lft.to/lastmile_qr_scan"}, "lon": -76.99490916666667, "type": "electric_scooter", "fusion_lat": 0.0, "lat": 38.899514, "name": "7a7144bef47982ed20d17b553b3eae17", "fusion_lon": 0.0, "bike_id": "7a7144bef47982ed20d17b553b3eae17", "is_disabled": 0, "is_reserved": 0}, {"rental_uris": {"ios": "https://dc.lft.to/lastmile_qr_scan", "android": "https://dc.lft.to/lastmile_qr_scan"}, "lon": -77.0531415, "type": "electric_scooter", "fusion_lat": 0.0, "lat": 38.92623533333333, "name": "6747d8ad5696e758ac4cebd574b5e3f8", "fusion_lon": 0.0, "bike_id": "6747d8ad5696e758ac4cebd574b5e3f8", "is_disabled": 0, "is_reserved": 0}, {"rental_uris": {"ios": "https://dc.lft.to/lastmile_qr_scan", "android": "https://dc.lft.to/lastmile_qr_scan"}, "lon": -76.9317635, "type": "electric_scooter", "fusion_lat": 0.0, "lat": 38.898838833333336, "name": "d43fe27aa892546a4e0d4949a2a489fc", "fusion_lon": 0.0, "bike_id": "d43fe27aa892546a4e0d4949a2a489fc", "is_disabled": 0, "is_reserved": 0}, {"rental_uris": {"ios": "https://dc.lft.to/lastmile_qr_scan", "android": "https://dc.lft.to/lastmile_qr_scan"}, "lon": -76.975001, "type": "electric_scooter", "fusion_lat": 0.0, "lat": 38.86916466666667, "name": "ccf1a05fda11685caa9efeb10789cc1f", "fusion_lon": 0.0, "bike_id": "ccf1a05fda11685caa9efeb10789cc1f", "is_disabled": 0, "is_reserved": 0}, {"rental_uris": {"ios": "https://dc.lft.to/lastmile_qr_scan", "android": "https://dc.lft.to/lastmile_qr_scan"}, "lon": -77.00776216666667, "type": "electric_scooter", "fusion_lat": 0.0, "lat": 38.897363, "name": "5dd2ae7e56f1cdd8960bd6260d0f356c", "fusion_lon": 0.0, "bike_id": "5dd2ae7e56f1cdd8960bd6260d0f356c", "is_disabled": 0, "is_reserved": 0}, {"rental_uris": {"ios": "https://dc.lft.to/lastmile_qr_scan", "android": "https://dc.lft.to/lastmile_qr_scan"}, "lon": -77.12372166666667, "type": "electric_bike", "fusion_lat": 0.0, "lat": 38.847391, "name": "cf369079af5a62ef2e1e31a29d3ec86a", "fusion_lon": 0.0, "bike_id": "cf369079af5a62ef2e1e31a29d3ec86a", "is_disabled": 0, "is_reserved": 0}, {"rental_uris": {"ios": "https://dc.lft.to/lastmile_qr_scan", "android": "https://dc.lft.to/lastmile_qr_scan"}, "lon": -76.9882825, "type": "electric_scooter", "fusion_lat": 0.0, "lat": 38.880221666666664, "name": "219509cada619b48e0493fc550f164a7", "fusion_lon": 0.0, "bike_id": "219509cada619b48e0493fc550f164a7", "is_disabled": 0, "is_reserved": 0}, {"rental_uris": {"ios": "https://dc.lft.to/lastmile_qr_scan", "android": "https://dc.lft.to/lastmile_qr_scan"}, "lon": -77.03217866666667, "type": "electric_scooter", "fusion_lat": 0.0, "lat": 38.918059666666664, "name": "d9b34d681c176c2063946e971ed9209c", "fusion_lon": 0.0, "bike_id": "d9b34d681c176c2063946e971ed9209c", "is_disabled": 0, "is_reserved": 0}, {"rental_uris": {"ios": "https://dc.lft.to/lastmile_qr_scan", "android": "https://dc.lft.to/lastmile_qr_scan"}, "lon": -77.02531616666667, "type": "electric_scooter", "fusion_lat": 0.0, "lat": 38.940585666666664, "name": "e37b950e97e143fb4c08ebccbe5dc88b", "fusion_lon": 0.0, "bike_id": "e37b950e97e143fb4c08ebccbe5dc88b", "is_disabled": 0, "is_reserved": 0}, {"rental_uris": {"ios": "https://dc.lft.to/lastmile_qr_scan", "android": "https://dc.lft.to/lastmile_qr_scan"}, "lon": -77.03584366666666, "type": "electric_scooter", "fusion_lat": 0.0, "lat": 38.931372333333336, "name": "b341548d31019b51e6c857423f370887", "fusion_lon": 0.0, "bike_id": "b341548d31019b51e6c857423f370887", "is_disabled": 0, "is_reserved": 0}, {"rental_uris": {"ios": "https://dc.lft.to/lastmile_qr_scan", "android": "https://dc.lft.to/lastmile_qr_scan"}, "lon": -77.049369, "type": "electric_scooter", "fusion_lat": 0.0, "lat": 38.908917333333335, "name": "a885cef70e178a5a5348771897204ed5", "fusion_lon": 0.0, "bike_id": "a885cef70e178a5a5348771897204ed5", "is_disabled": 0, "is_reserved": 0}, {"rental_uris": {"ios": "https://dc.lft.to/lastmile_qr_scan", "android": "https://dc.lft.to/lastmile_qr_scan"}, "lon": -76.9963465, "type": "electric_bike", "fusion_lat": 0.0, "lat": 38.84665433333333, "name": "7a83df76085d8f3752f3d4893e609161", "fusion_lon": 0.0, "bike_id": "7a83df76085d8f3752f3d4893e609161", "is_disabled": 0, "is_reserved": 0}, {"rental_uris": {"ios": "https://dc.lft.to/lastmile_qr_scan", "android": "https://dc.lft.to/lastmile_qr_scan"}, "lon": -77.06879, "type": "electric_scooter", "fusion_lat": 0.0, "lat": 38.90508633333334, "name": "c807f78244cddccecacd71a4e95a6ff8", "fusion_lon": 0.0, "bike_id": "c807f78244cddccecacd71a4e95a6ff8", "is_disabled": 0, "is_reserved": 0}, {"rental_uris": {"ios": "https://dc.lft.to/lastmile_qr_scan", "android": "https://dc.lft.to/lastmile_qr_scan"}, "lon": -77.070617, "type": "electric_scooter", "fusion_lat": 0.0, "lat": 38.901098166666664, "name": "277240ed289ba381d857604693672119", "fusion_lon": 0.0, "bike_id": "277240ed289ba381d857604693672119", "is_disabled": 0, "is_reserved": 0}, {"rental_uris": {"ios": "https://dc.lft.to/lastmile_qr_scan", "android": "https://dc.lft.to/lastmile_qr_scan"}, "lon": -77.035719, "type": "electric_scooter", "fusion_lat": 0.0, "lat": 38.927382333333334, "name": "0b75ecd1962646a5b667dc91775b1ea4", "fusion_lon": 0.0, "bike_id": "0b75ecd1962646a5b667dc91775b1ea4", "is_disabled": 0, "is_reserved": 0}, {"rental_uris": {"ios": "https://dc.lft.to/lastmile_qr_scan", "android": "https://dc.lft.to/lastmile_qr_scan"}, "lon": -77.00804216666667, "type": "electric_bike", "fusion_lat": 0.0, "lat": 38.926686833333335, "name": "4b096f1d0c23debb612358dcfcb556bc", "fusion_lon": 0.0, "bike_id": "4b096f1d0c23debb612358dcfcb556bc", "is_disabled": 0, "is_reserved": 0}, {"rental_uris": {"ios": "https://dc.lft.to/lastmile_qr_scan", "android": "https://dc.lft.to/lastmile_qr_scan"}, "lon": -77.02723866666666, "type": "electric_scooter", "fusion_lat": 0.0, "lat": 38.934289, "name": "973a18ca53ec1eab4489aa2a22693038", "fusion_lon": 0.0, "bike_id": "973a18ca53ec1eab4489aa2a22693038", "is_disabled": 0, "is_reserved": 0}, {"rental_uris": {"ios": "https://dc.lft.to/lastmile_qr_scan", "android": "https://dc.lft.to/lastmile_qr_scan"}, "lon": -76.9865615, "type": "electric_scooter", "fusion_lat": 0.0, "lat": 38.858051833333334, "name": "9f93b217e9bbca13c0f271b388cdf0ab", "fusion_lon": 0.0, "bike_id": "9f93b217e9bbca13c0f271b388cdf0ab", "is_disabled": 0, "is_reserved": 0}, {"rental_uris": {"ios": "https://dc.lft.to/lastmile_qr_scan", "android": "https://dc.lft.to/lastmile_qr_scan"}, "lon": -77.04668, "type": "electric_scooter", "fusion_lat": 0.0, "lat": 38.90753266666667, "name": "8d32d50ab0f6c3a0ddfd537923794626", "fusion_lon": 0.0, "bike_id": "8d32d50ab0f6c3a0ddfd537923794626", "is_disabled": 0, "is_reserved": 0}, {"rental_uris": {"ios": "https://dc.lft.to/lastmile_qr_scan", "android": "https://dc.lft.to/lastmile_qr_scan"}, "lon": -77.044984, "type": "electric_scooter", "fusion_lat": 0.0, "lat": 38.90023566666667, "name": "010254d01eee764aab3845cac340b213", "fusion_lon": 0.0, "bike_id": "010254d01eee764aab3845cac340b213", "is_disabled": 0, "is_reserved": 0}, {"rental_uris": {"ios": "https://dc.lft.to/lastmile_qr_scan", "android": "https://dc.lft.to/lastmile_qr_scan"}, "lon": -76.99670566666667, "type": "electric_scooter", "fusion_lat": 0.0, "lat": 38.91015016666667, "name": "5062b6e910ae8b2aca93bbf026d8b4bb", "fusion_lon": 0.0, "bike_id": "5062b6e910ae8b2aca93bbf026d8b4bb", "is_disabled": 0, "is_reserved": 0}, {"rental_uris": {"ios": "https://dc.lft.to/lastmile_qr_scan", "android": "https://dc.lft.to/lastmile_qr_scan"}, "lon": -77.061055, "type": "electric_scooter", "fusion_lat": 0.0, "lat": 38.937035, "name": "8d2d807f3119196c31afbdf461f154ef", "fusion_lon": 0.0, "bike_id": "8d2d807f3119196c31afbdf461f154ef", "is_disabled": 0, "is_reserved": 0}, {"rental_uris": {"ios": "https://dc.lft.to/lastmile_qr_scan", "android": "https://dc.lft.to/lastmile_qr_scan"}, "lon": -77.03459866666667, "type": "electric_scooter", "fusion_lat": 0.0, "lat": 38.921580666666664, "name": "53bc2a5b3adebfccc23ebb7937f2d28a", "fusion_lon": 0.0, "bike_id": "53bc2a5b3adebfccc23ebb7937f2d28a", "is_disabled": 0, "is_reserved": 0}, {"rental_uris": {"ios": "https://dc.lft.to/lastmile_qr_scan", "android": "https://dc.lft.to/lastmile_qr_scan"}, "lon": -77.00653183333333, "type": "electric_scooter", "fusion_lat": 0.0, "lat": 38.87178316666667, "name": "584f921bf0870db471d9d7da271cffe4", "fusion_lon": 0.0, "bike_id": "584f921bf0870db471d9d7da271cffe4", "is_disabled": 0, "is_reserved": 0}, {"rental_uris": {"ios": "https://dc.lft.to/lastmile_qr_scan", "android": "https://dc.lft.to/lastmile_qr_scan"}, "lon": -77.055332, "type": "electric_scooter", "fusion_lat": 0.0, "lat": 38.9278775, "name": "7dc6c833d324aaf73dde0a4c288a4032", "fusion_lon": 0.0, "bike_id": "7dc6c833d324aaf73dde0a4c288a4032", "is_disabled": 0, "is_reserved": 0}, {"rental_uris": {"ios": "https://dc.lft.to/lastmile_qr_scan", "android": "https://dc.lft.to/lastmile_qr_scan"}, "lon": -77.02750916666666, "type": "electric_scooter", "fusion_lat": 0.0, "lat": 38.939598833333335, "name": "4f0dab6e7352a4a208a780bf0e23334a", "fusion_lon": 0.0, "bike_id": "4f0dab6e7352a4a208a780bf0e23334a", "is_disabled": 0, "is_reserved": 0}, {"rental_uris": {"ios": "https://dc.lft.to/lastmile_qr_scan", "android": "https://dc.lft.to/lastmile_qr_scan"}, "lon": -77.05706433333333, "type": "electric_scooter", "fusion_lat": 0.0, "lat": 38.905506, "name": "124dc1ba0f79d7b2826264cf0d37e0a0", "fusion_lon": 0.0, "bike_id": "124dc1ba0f79d7b2826264cf0d37e0a0", "is_disabled": 0, "is_reserved": 0}, {"rental_uris": {"ios": "https://dc.lft.to/lastmile_qr_scan", "android": "https://dc.lft.to/lastmile_qr_scan"}, "lon": -77.0213435, "type": "electric_scooter", "fusion_lat": 0.0, "lat": 38.894924333333336, "name": "7e9a82ad7708e1be8451c9b16922e1b3", "fusion_lon": 0.0, "bike_id": "7e9a82ad7708e1be8451c9b16922e1b3", "is_disabled": 0, "is_reserved": 0}, {"rental_uris": {"ios": "https://dc.lft.to/lastmile_qr_scan", "android": "https://dc.lft.to/lastmile_qr_scan"}, "lon": -77.01342666666666, "type": "electric_bike", "fusion_lat": 0.0, "lat": 38.999947666666664, "name": "e0d9998ba3d8a049f21e82d51db30089", "fusion_lon": 0.0, "bike_id": "e0d9998ba3d8a049f21e82d51db30089", "is_disabled": 0, "is_reserved": 0}, {"rental_uris": {"ios": "https://dc.lft.to/lastmile_qr_scan", "android": "https://dc.lft.to/lastmile_qr_scan"}, "lon": -77.0612415, "type": "electric_bike", "fusion_lat": 0.0, "lat": 38.9019625, "name": "fa5a280e10945d715e1038f3018da648", "fusion_lon": 0.0, "bike_id": "fa5a280e10945d715e1038f3018da648", "is_disabled": 0, "is_reserved": 0}, {"rental_uris": {"ios": "https://dc.lft.to/lastmile_qr_scan", "android": "https://dc.lft.to/lastmile_qr_scan"}, "lon": -77.01896966666666, "type": "electric_scooter", "fusion_lat": 0.0, "lat": 38.87663516666667, "name": "bd0198ba796d6bcffff72c9779b4b692", "fusion_lon": 0.0, "bike_id": "bd0198ba796d6bcffff72c9779b4b692", "is_disabled": 0, "is_reserved": 0}, {"rental_uris": {"ios": "https://dc.lft.to/lastmile_qr_scan", "android": "https://dc.lft.to/lastmile_qr_scan"}, "lon": -77.03179466666667, "type": "electric_scooter", "fusion_lat": 0.0, "lat": 38.909693, "name": "653de1c167396c5e0c302491c039838a", "fusion_lon": 0.0, "bike_id": "653de1c167396c5e0c302491c039838a", "is_disabled": 0, "is_reserved": 0}, {"rental_uris": {"ios": "https://dc.lft.to/lastmile_qr_scan", "android": "https://dc.lft.to/lastmile_qr_scan"}, "lon": -76.9309785, "type": "electric_scooter", "fusion_lat": 0.0, "lat": 38.901412, "name": "fdecd70bb8f301a7a635018a03ea869b", "fusion_lon": 0.0, "bike_id": "fdecd70bb8f301a7a635018a03ea869b", "is_disabled": 0, "is_reserved": 0}, {"rental_uris": {"ios": "https://dc.lft.to/lastmile_qr_scan", "android": "https://dc.lft.to/lastmile_qr_scan"}, "lon": -77.0315965, "type": "electric_scooter", "fusion_lat": 0.0, "lat": 38.912565, "name": "06208165ff91cd90068fdcb8243dbb6f", "fusion_lon": 0.0, "bike_id": "06208165ff91cd90068fdcb8243dbb6f", "is_disabled": 0, "is_reserved": 0}, {"rental_uris": {"ios": "https://dc.lft.to/lastmile_qr_scan", "android": "https://dc.lft.to/lastmile_qr_scan"}, "lon": -77.0091815, "type": "electric_scooter", "fusion_lat": 0.0, "lat": 38.910948166666664, "name": "80b4871ab04ce8f7a7aa8d16e1972efe", "fusion_lon": 0.0, "bike_id": "80b4871ab04ce8f7a7aa8d16e1972efe", "is_disabled": 0, "is_reserved": 0}, {"rental_uris": {"ios": "https://dc.lft.to/lastmile_qr_scan", "android": "https://dc.lft.to/lastmile_qr_scan"}, "lon": -77.05353583333333, "type": "electric_scooter", "fusion_lat": 0.0, "lat": 38.9027055, "name": "8e14facdb7319934d626b829998e3d06", "fusion_lon": 0.0, "bike_id": "8e14facdb7319934d626b829998e3d06", "is_disabled": 0, "is_reserved": 0}, {"rental_uris": {"ios": "https://dc.lft.to/lastmile_qr_scan", "android": "https://dc.lft.to/lastmile_qr_scan"}, "lon": -77.032868, "type": "electric_scooter", "fusion_lat": 0.0, "lat": 38.928758333333334, "name": "0506ee99a4b29925635ab8759cf1fe32", "fusion_lon": 0.0, "bike_id": "0506ee99a4b29925635ab8759cf1fe32", "is_disabled": 0, "is_reserved": 0}, {"rental_uris": {"ios": "https://dc.lft.to/lastmile_qr_scan", "android": "https://dc.lft.to/lastmile_qr_scan"}, "lon": -77.04700433333333, "type": "electric_scooter", "fusion_lat": 0.0, "lat": 38.9096805, "name": "f71a3d3e66966d44047b142ee2c2fe57", "fusion_lon": 0.0, "bike_id": "f71a3d3e66966d44047b142ee2c2fe57", "is_disabled": 0, "is_reserved": 0}, {"rental_uris": {"ios": "https://dc.lft.to/lastmile_qr_scan", "android": "https://dc.lft.to/lastmile_qr_scan"}, "lon": -76.98006466666666, "type": "electric_bike", "fusion_lat": 0.0, "lat": 38.862779, "name": "8013acdee6b87ca2f25398caa7b08d81", "fusion_lon": 0.0, "bike_id": "8013acdee6b87ca2f25398caa7b08d81", "is_disabled": 0, "is_reserved": 0}, {"rental_uris": {"ios": "https://dc.lft.to/lastmile_qr_scan", "android": "https://dc.lft.to/lastmile_qr_scan"}, "lon": -76.98617316666666, "type": "electric_scooter", "fusion_lat": 0.0, "lat": 38.8681965, "name": "95b22625b9bb64e191f5cb95d84d2131", "fusion_lon": 0.0, "bike_id": "95b22625b9bb64e191f5cb95d84d2131", "is_disabled": 0, "is_reserved": 0}, {"rental_uris": {"ios": "https://dc.lft.to/lastmile_qr_scan", "android": "https://dc.lft.to/lastmile_qr_scan"}, "lon": -77.0952055, "type": "electric_bike", "fusion_lat": 0.0, "lat": 38.838123333333336, "name": "0faa8d214374322b8d94917fe2ca8382", "fusion_lon": 0.0, "bike_id": "0faa8d214374322b8d94917fe2ca8382", "is_disabled": 0, "is_reserved": 0}, {"rental_uris": {"ios": "https://dc.lft.to/lastmile_qr_scan", "android": "https://dc.lft.to/lastmile_qr_scan"}, "lon": -77.0388945, "type": "electric_scooter", "fusion_lat": 0.0, "lat": 38.93265616666667, "name": "ffb666eab4a8d575bb32e46c53626d8d", "fusion_lon": 0.0, "bike_id": "ffb666eab4a8d575bb32e46c53626d8d", "is_disabled": 0, "is_reserved": 0}, {"rental_uris": {"ios": "https://dc.lft.to/lastmile_qr_scan", "android": "https://dc.lft.to/lastmile_qr_scan"}, "lon": -77.04166016666667, "type": "electric_bike", "fusion_lat": 0.0, "lat": 38.89961516666666, "name": "3beb9a28e1ca3e1d3da4fa7640ed36e1", "fusion_lon": 0.0, "bike_id": "3beb9a28e1ca3e1d3da4fa7640ed36e1", "is_disabled": 0, "is_reserved": 0}, {"rental_uris": {"ios": "https://dc.lft.to/lastmile_qr_scan", "android": "https://dc.lft.to/lastmile_qr_scan"}, "lon": -77.055912, "type": "electric_scooter", "fusion_lat": 0.0, "lat": 38.927795333333336, "name": "606033043cbf5031078854fb4e15590b", "fusion_lon": 0.0, "bike_id": "606033043cbf5031078854fb4e15590b", "is_disabled": 0, "is_reserved": 0}, {"rental_uris": {"ios": "https://dc.lft.to/lastmile_qr_scan", "android": "https://dc.lft.to/lastmile_qr_scan"}, "lon": -77.03023166666667, "type": "electric_scooter", "fusion_lat": 0.0, "lat": 38.8972935, "name": "4333ae205a53c035c253812f39c1f621", "fusion_lon": 0.0, "bike_id": "4333ae205a53c035c253812f39c1f621", "is_disabled": 0, "is_reserved": 0}, {"rental_uris": {"ios": "https://dc.lft.to/lastmile_qr_scan", "android": "https://dc.lft.to/lastmile_qr_scan"}, "lon": -77.03446916666667, "type": "electric_scooter", "fusion_lat": 0.0, "lat": 38.90734416666667, "name": "d9073fa133c30978dffd044053edcc34", "fusion_lon": 0.0, "bike_id": "d9073fa133c30978dffd044053edcc34", "is_disabled": 0, "is_reserved": 0}, {"rental_uris": {"ios": "https://dc.lft.to/lastmile_qr_scan", "android": "https://dc.lft.to/lastmile_qr_scan"}, "lon": -77.03214033333333, "type": "electric_scooter", "fusion_lat": 0.0, "lat": 38.9082295, "name": "594b30f76cb72a8a9bc7e401c2283493", "fusion_lon": 0.0, "bike_id": "594b30f76cb72a8a9bc7e401c2283493", "is_disabled": 0, "is_reserved": 0}, {"rental_uris": {"ios": "https://dc.lft.to/lastmile_qr_scan", "android": "https://dc.lft.to/lastmile_qr_scan"}, "lon": -77.04499216666666, "type": "electric_scooter", "fusion_lat": 0.0, "lat": 38.9128375, "name": "f8b6f80102b6b8b8b8e290674690e235", "fusion_lon": 0.0, "bike_id": "f8b6f80102b6b8b8b8e290674690e235", "is_disabled": 0, "is_reserved": 0}, {"rental_uris": {"ios": "https://dc.lft.to/lastmile_qr_scan", "android": "https://dc.lft.to/lastmile_qr_scan"}, "lon": -77.04128566666667, "type": "electric_scooter", "fusion_lat": 0.0, "lat": 38.92166483333333, "name": "e9a79583aa39f086a2dabd4cfc183753", "fusion_lon": 0.0, "bike_id": "e9a79583aa39f086a2dabd4cfc183753", "is_disabled": 0, "is_reserved": 0}, {"rental_uris": {"ios": "https://dc.lft.to/lastmile_qr_scan", "android": "https://dc.lft.to/lastmile_qr_scan"}, "lon": -76.95736016666666, "type": "electric_scooter", "fusion_lat": 0.0, "lat": 38.89179883333333, "name": "d1fe41cd279c58d2a42b9a0f6dc478f7", "fusion_lon": 0.0, "bike_id": "d1fe41cd279c58d2a42b9a0f6dc478f7", "is_disabled": 0, "is_reserved": 0}, {"rental_uris": {"ios": "https://dc.lft.to/lastmile_qr_scan", "android": "https://dc.lft.to/lastmile_qr_scan"}, "lon": -77.0490225, "type": "electric_scooter", "fusion_lat": 0.0, "lat": 38.90596016666667, "name": "63d1143774976c1d2bbb548953fb6d08", "fusion_lon": 0.0, "bike_id": "63d1143774976c1d2bbb548953fb6d08", "is_disabled": 0, "is_reserved": 0}, {"rental_uris": {"ios": "https://dc.lft.to/lastmile_qr_scan", "android": "https://dc.lft.to/lastmile_qr_scan"}, "lon": -77.00192116666666, "type": "electric_scooter", "fusion_lat": 0.0, "lat": 38.90034283333333, "name": "ff076321e8d2cc21e47e97f43aa81df6", "fusion_lon": 0.0, "bike_id": "ff076321e8d2cc21e47e97f43aa81df6", "is_disabled": 0, "is_reserved": 0}, {"rental_uris": {"ios": "https://dc.lft.to/lastmile_qr_scan", "android": "https://dc.lft.to/lastmile_qr_scan"}, "lon": -77.01116383333333, "type": "electric_scooter", "fusion_lat": 0.0, "lat": 38.903590666666666, "name": "85a78503bcc8ab43c1382e9f83890450", "fusion_lon": 0.0, "bike_id": "85a78503bcc8ab43c1382e9f83890450", "is_disabled": 0, "is_reserved": 0}, {"rental_uris": {"ios": "https://dc.lft.to/lastmile_qr_scan", "android": "https://dc.lft.to/lastmile_qr_scan"}, "lon": -76.95185033333334, "type": "electric_bike", "fusion_lat": 0.0, "lat": 38.90683816666667, "name": "2b0666e3cbbfaf3c8942fa057deb60c3", "fusion_lon": 0.0, "bike_id": "2b0666e3cbbfaf3c8942fa057deb60c3", "is_disabled": 0, "is_reserved": 0}, {"rental_uris": {"ios": "https://dc.lft.to/lastmile_qr_scan", "android": "https://dc.lft.to/lastmile_qr_scan"}, "lon": -77.06315583333334, "type": "electric_scooter", "fusion_lat": 0.0, "lat": 38.943692, "name": "c3da78707ba517d022f6ae7003cdfe0a", "fusion_lon": 0.0, "bike_id": "c3da78707ba517d022f6ae7003cdfe0a", "is_disabled": 0, "is_reserved": 0}, {"rental_uris": {"ios": "https://dc.lft.to/lastmile_qr_scan", "android": "https://dc.lft.to/lastmile_qr_scan"}, "lon": -77.03665616666666, "type": "electric_scooter", "fusion_lat": 0.0, "lat": 38.918655666666666, "name": "a6be30fa6caaf34011eb1890ad21237c", "fusion_lon": 0.0, "bike_id": "a6be30fa6caaf34011eb1890ad21237c", "is_disabled": 0, "is_reserved": 0}, {"rental_uris": {"ios": "https://dc.lft.to/lastmile_qr_scan", "android": "https://dc.lft.to/lastmile_qr_scan"}, "lon": -77.04417333333333, "type": "electric_scooter", "fusion_lat": 0.0, "lat": 38.913131166666666, "name": "defae4d3edf31b4ee6a5e59ef61c2dbd", "fusion_lon": 0.0, "bike_id": "defae4d3edf31b4ee6a5e59ef61c2dbd", "is_disabled": 0, "is_reserved": 0}, {"rental_uris": {"ios": "https://dc.lft.to/lastmile_qr_scan", "android": "https://dc.lft.to/lastmile_qr_scan"}, "lon": -76.95903016666666, "type": "electric_scooter", "fusion_lat": 0.0, "lat": 38.926893166666666, "name": "4110e8afda259d896dfceee542057723", "fusion_lon": 0.0, "bike_id": "4110e8afda259d896dfceee542057723", "is_disabled": 0, "is_reserved": 0}, {"rental_uris": {"ios": "https://dc.lft.to/lastmile_qr_scan", "android": "https://dc.lft.to/lastmile_qr_scan"}, "lon": -76.93174733333333, "type": "electric_scooter", "fusion_lat": 0.0, "lat": 38.89880983333333, "name": "4f8148579dfaca1a370aee8cb1fb0346", "fusion_lon": 0.0, "bike_id": "4f8148579dfaca1a370aee8cb1fb0346", "is_disabled": 0, "is_reserved": 0}, {"rental_uris": {"ios": "https://dc.lft.to/lastmile_qr_scan", "android": "https://dc.lft.to/lastmile_qr_scan"}, "lon": -77.01367666666667, "type": "electric_scooter", "fusion_lat": 0.0, "lat": 38.88652416666667, "name": "9ba4c46df8b02b4a18da1b9e6ead19b9", "fusion_lon": 0.0, "bike_id": "9ba4c46df8b02b4a18da1b9e6ead19b9", "is_disabled": 0, "is_reserved": 0}, {"rental_uris": {"ios": "https://dc.lft.to/lastmile_qr_scan", "android": "https://dc.lft.to/lastmile_qr_scan"}, "lon": -77.042864, "type": "electric_scooter", "fusion_lat": 0.0, "lat": 38.89531383333333, "name": "246cda87bbfcc9bbc62e1a18f21fb162", "fusion_lon": 0.0, "bike_id": "246cda87bbfcc9bbc62e1a18f21fb162", "is_disabled": 0, "is_reserved": 0}, {"rental_uris": {"ios": "https://dc.lft.to/lastmile_qr_scan", "android": "https://dc.lft.to/lastmile_qr_scan"}, "lon": -77.05791616666667, "type": "electric_scooter", "fusion_lat": 0.0, "lat": 38.934732833333335, "name": "9888150dbaa22321e2c37648239818fe", "fusion_lon": 0.0, "bike_id": "9888150dbaa22321e2c37648239818fe", "is_disabled": 0, "is_reserved": 0}, {"rental_uris": {"ios": "https://dc.lft.to/lastmile_qr_scan", "android": "https://dc.lft.to/lastmile_qr_scan"}, "lon": -77.0819895, "type": "electric_bike", "fusion_lat": 0.0, "lat": 38.9220245, "name": "17416100171c11db5ec5221b3d10133b", "fusion_lon": 0.0, "bike_id": "17416100171c11db5ec5221b3d10133b", "is_disabled": 0, "is_reserved": 0}, {"rental_uris": {"ios": "https://dc.lft.to/lastmile_qr_scan", "android": "https://dc.lft.to/lastmile_qr_scan"}, "lon": -76.99696833333333, "type": "electric_scooter", "fusion_lat": 0.0, "lat": 38.90794066666667, "name": "31b82e12eaf64929103eb056b55cd023", "fusion_lon": 0.0, "bike_id": "31b82e12eaf64929103eb056b55cd023", "is_disabled": 0, "is_reserved": 0}, {"rental_uris": {"ios": "https://dc.lft.to/lastmile_qr_scan", "android": "https://dc.lft.to/lastmile_qr_scan"}, "lon": -77.06362483333334, "type": "electric_scooter", "fusion_lat": 0.0, "lat": 38.90929666666667, "name": "0512532917481a0bfe91492bbab9e8ef", "fusion_lon": 0.0, "bike_id": "0512532917481a0bfe91492bbab9e8ef", "is_disabled": 0, "is_reserved": 0}, {"rental_uris": {"ios": "https://dc.lft.to/lastmile_qr_scan", "android": "https://dc.lft.to/lastmile_qr_scan"}, "lon": -77.06933766666667, "type": "electric_scooter", "fusion_lat": 0.0, "lat": 38.90515383333333, "name": "7de135cbc3c6ebb6295567143995ef3e", "fusion_lon": 0.0, "bike_id": "7de135cbc3c6ebb6295567143995ef3e", "is_disabled": 0, "is_reserved": 0}, {"rental_uris": {"ios": "https://dc.lft.to/lastmile_qr_scan", "android": "https://dc.lft.to/lastmile_qr_scan"}, "lon": -77.0218195, "type": "electric_bike", "fusion_lat": 0.0, "lat": 38.892466666666664, "name": "8be4c5e4e5630dfc3bb85cc4b9dd1d60", "fusion_lon": 0.0, "bike_id": "8be4c5e4e5630dfc3bb85cc4b9dd1d60", "is_disabled": 0, "is_reserved": 0}, {"rental_uris": {"ios": "https://dc.lft.to/lastmile_qr_scan", "android": "https://dc.lft.to/lastmile_qr_scan"}, "lon": -77.03843366666666, "type": "electric_scooter", "fusion_lat": 0.0, "lat": 38.910858833333336, "name": "351fc247a8cb2e1180a7aaeb8d44b8aa", "fusion_lon": 0.0, "bike_id": "351fc247a8cb2e1180a7aaeb8d44b8aa", "is_disabled": 0, "is_reserved": 0}, {"rental_uris": {"ios": "https://dc.lft.to/lastmile_qr_scan", "android": "https://dc.lft.to/lastmile_qr_scan"}, "lon": -77.03230966666666, "type": "electric_scooter", "fusion_lat": 0.0, "lat": 38.929929666666666, "name": "197188be21557a05fb3e490c6f0be6f3", "fusion_lon": 0.0, "bike_id": "197188be21557a05fb3e490c6f0be6f3", "is_disabled": 0, "is_reserved": 0}, {"rental_uris": {"ios": "https://dc.lft.to/lastmile_qr_scan", "android": "https://dc.lft.to/lastmile_qr_scan"}, "lon": -77.04638816666667, "type": "electric_scooter", "fusion_lat": 0.0, "lat": 38.915292, "name": "32106077f352892fddb3c5bf6413e8b8", "fusion_lon": 0.0, "bike_id": "32106077f352892fddb3c5bf6413e8b8", "is_disabled": 0, "is_reserved": 0}, {"rental_uris": {"ios": "https://dc.lft.to/lastmile_qr_scan", "android": "https://dc.lft.to/lastmile_qr_scan"}, "lon": -77.03840933333333, "type": "electric_scooter", "fusion_lat": 0.0, "lat": 38.9310965, "name": "c9b5da80ce03a8ea12bb90068f10e7ac", "fusion_lon": 0.0, "bike_id": "c9b5da80ce03a8ea12bb90068f10e7ac", "is_disabled": 0, "is_reserved": 0}, {"rental_uris": {"ios": "https://dc.lft.to/lastmile_qr_scan", "android": "https://dc.lft.to/lastmile_qr_scan"}, "lon": -77.0163925, "type": "electric_scooter", "fusion_lat": 0.0, "lat": 38.929363333333335, "name": "1694ac77c0594b00b36c4bedb056d776", "fusion_lon": 0.0, "bike_id": "1694ac77c0594b00b36c4bedb056d776", "is_disabled": 0, "is_reserved": 0}, {"rental_uris": {"ios": "https://dc.lft.to/lastmile_qr_scan", "android": "https://dc.lft.to/lastmile_qr_scan"}, "lon": -77.07683133333333, "type": "electric_bike", "fusion_lat": 0.0, "lat": 38.83191983333333, "name": "10678b0d37ce0dd00ef5c639e3bc46d3", "fusion_lon": 0.0, "bike_id": "10678b0d37ce0dd00ef5c639e3bc46d3", "is_disabled": 0, "is_reserved": 0}, {"rental_uris": {"ios": "https://dc.lft.to/lastmile_qr_scan", "android": "https://dc.lft.to/lastmile_qr_scan"}, "lon": -77.05131683333333, "type": "electric_scooter", "fusion_lat": 0.0, "lat": 38.9023835, "name": "3d4ac11accd4881fd693ffba332c2bef", "fusion_lon": 0.0, "bike_id": "3d4ac11accd4881fd693ffba332c2bef", "is_disabled": 0, "is_reserved": 0}, {"rental_uris": {"ios": "https://dc.lft.to/lastmile_qr_scan", "android": "https://dc.lft.to/lastmile_qr_scan"}, "lon": -77.04168083333333, "type": "electric_scooter", "fusion_lat": 0.0, "lat": 38.911365333333336, "name": "b71595ba5d47b7aa0a67d507ae90223f", "fusion_lon": 0.0, "bike_id": "b71595ba5d47b7aa0a67d507ae90223f", "is_disabled": 0, "is_reserved": 0}, {"rental_uris": {"ios": "https://dc.lft.to/lastmile_qr_scan", "android": "https://dc.lft.to/lastmile_qr_scan"}, "lon": -77.02369766666666, "type": "electric_scooter", "fusion_lat": 0.0, "lat": 38.91910216666667, "name": "20563ee023aa9b86b481175741887aa4", "fusion_lon": 0.0, "bike_id": "20563ee023aa9b86b481175741887aa4", "is_disabled": 0, "is_reserved": 0}, {"rental_uris": {"ios": "https://dc.lft.to/lastmile_qr_scan", "android": "https://dc.lft.to/lastmile_qr_scan"}, "lon": -77.02415183333333, "type": "electric_scooter", "fusion_lat": 0.0, "lat": 38.892187, "name": "5a1f969d4f5db35b87b8a3480c2be6d2", "fusion_lon": 0.0, "bike_id": "5a1f969d4f5db35b87b8a3480c2be6d2", "is_disabled": 0, "is_reserved": 0}, {"rental_uris": {"ios": "https://dc.lft.to/lastmile_qr_scan", "android": "https://dc.lft.to/lastmile_qr_scan"}, "lon": -77.0296425, "type": "electric_scooter", "fusion_lat": 0.0, "lat": 38.884366666666665, "name": "f9d335224297be194697c2f735a8d45d", "fusion_lon": 0.0, "bike_id": "f9d335224297be194697c2f735a8d45d", "is_disabled": 0, "is_reserved": 0}, {"rental_uris": {"ios": "https://dc.lft.to/lastmile_qr_scan", "android": "https://dc.lft.to/lastmile_qr_scan"}, "lon": -77.0437855, "type": "electric_scooter", "fusion_lat": 0.0, "lat": 38.920696, "name": "b4d936b3029a1e11cc9a1d673b4a90f1", "fusion_lon": 0.0, "bike_id": "b4d936b3029a1e11cc9a1d673b4a90f1", "is_disabled": 0, "is_reserved": 0}, {"rental_uris": {"ios": "https://dc.lft.to/lastmile_qr_scan", "android": "https://dc.lft.to/lastmile_qr_scan"}, "lon": -77.0322165, "type": "electric_scooter", "fusion_lat": 0.0, "lat": 38.9258565, "name": "fd9b50e84b04591ddb1ab9bf00569c30", "fusion_lon": 0.0, "bike_id": "fd9b50e84b04591ddb1ab9bf00569c30", "is_disabled": 0, "is_reserved": 0}, {"rental_uris": {"ios": "https://dc.lft.to/lastmile_qr_scan", "android": "https://dc.lft.to/lastmile_qr_scan"}, "lon": -76.97812816666666, "type": "electric_scooter", "fusion_lat": 0.0, "lat": 38.90671916666667, "name": "5f1bb15ce3517c256aa78963b4d722c2", "fusion_lon": 0.0, "bike_id": "5f1bb15ce3517c256aa78963b4d722c2", "is_disabled": 0, "is_reserved": 0}, {"rental_uris": {"ios": "https://dc.lft.to/lastmile_qr_scan", "android": "https://dc.lft.to/lastmile_qr_scan"}, "lon": -77.0308755, "type": "electric_scooter", "fusion_lat": 0.0, "lat": 38.92247033333334, "name": "2c99652ea105275d9037f51f0ad3a2e6", "fusion_lon": 0.0, "bike_id": "2c99652ea105275d9037f51f0ad3a2e6", "is_disabled": 0, "is_reserved": 0}, {"rental_uris": {"ios": "https://dc.lft.to/lastmile_qr_scan", "android": "https://dc.lft.to/lastmile_qr_scan"}, "lon": -77.11205966666667, "type": "electric_bike", "fusion_lat": 0.0, "lat": 38.813053333333336, "name": "9b08f60bb6e087328328376a1ebb430b", "fusion_lon": 0.0, "bike_id": "9b08f60bb6e087328328376a1ebb430b", "is_disabled": 0, "is_reserved": 0}, {"rental_uris": {"ios": "https://dc.lft.to/lastmile_qr_scan", "android": "https://dc.lft.to/lastmile_qr_scan"}, "lon": -77.03725533333333, "type": "electric_scooter", "fusion_lat": 0.0, "lat": 38.93356216666667, "name": "c0fc224d20dab98745e12b3d41a57b21", "fusion_lon": 0.0, "bike_id": "c0fc224d20dab98745e12b3d41a57b21", "is_disabled": 0, "is_reserved": 0}, {"rental_uris": {"ios": "https://dc.lft.to/lastmile_qr_scan", "android": "https://dc.lft.to/lastmile_qr_scan"}, "lon": -77.12260316666666, "type": "electric_bike", "fusion_lat": 0.0, "lat": 38.891891, "name": "8e4d0b4d6a899159cedf652893685c18", "fusion_lon": 0.0, "bike_id": "8e4d0b4d6a899159cedf652893685c18", "is_disabled": 0, "is_reserved": 0}, {"rental_uris": {"ios": "https://dc.lft.to/lastmile_qr_scan", "android": "https://dc.lft.to/lastmile_qr_scan"}, "lon": -76.935434, "type": "electric_bike", "fusion_lat": 0.0, "lat": 38.955518, "name": "bd0f345e95810e286270ef1835f5a023", "fusion_lon": 0.0, "bike_id": "bd0f345e95810e286270ef1835f5a023", "is_disabled": 0, "is_reserved": 0}, {"rental_uris": {"ios": "https://dc.lft.to/lastmile_qr_scan", "android": "https://dc.lft.to/lastmile_qr_scan"}, "lon": -77.02022133333334, "type": "electric_scooter", "fusion_lat": 0.0, "lat": 38.93247783333333, "name": "281397ccdb716414385f87ed363c1e7e", "fusion_lon": 0.0, "bike_id": "281397ccdb716414385f87ed363c1e7e", "is_disabled": 0, "is_reserved": 0}, {"rental_uris": {"ios": "https://dc.lft.to/lastmile_qr_scan", "android": "https://dc.lft.to/lastmile_qr_scan"}, "lon": -77.02196, "type": "electric_scooter", "fusion_lat": 0.0, "lat": 38.8977645, "name": "99f8f44683d77516ffe27c6740add92b", "fusion_lon": 0.0, "bike_id": "99f8f44683d77516ffe27c6740add92b", "is_disabled": 0, "is_reserved": 0}, {"rental_uris": {"ios": "https://dc.lft.to/lastmile_qr_scan", "android": "https://dc.lft.to/lastmile_qr_scan"}, "lon": -77.04741233333333, "type": "electric_scooter", "fusion_lat": 0.0, "lat": 38.90518933333333, "name": "33f0ac5bd53790edf97d4525cbfca4b8", "fusion_lon": 0.0, "bike_id": "33f0ac5bd53790edf97d4525cbfca4b8", "is_disabled": 0, "is_reserved": 0}, {"rental_uris": {"ios": "https://dc.lft.to/lastmile_qr_scan", "android": "https://dc.lft.to/lastmile_qr_scan"}, "lon": -77.02951616666667, "type": "electric_scooter", "fusion_lat": 0.0, "lat": 38.905048666666666, "name": "9b7b660e4082f065c85ea68ac4a9c6e6", "fusion_lon": 0.0, "bike_id": "9b7b660e4082f065c85ea68ac4a9c6e6", "is_disabled": 0, "is_reserved": 0}, {"rental_uris": {"ios": "https://dc.lft.to/lastmile_qr_scan", "android": "https://dc.lft.to/lastmile_qr_scan"}, "lon": -76.99778316666666, "type": "electric_scooter", "fusion_lat": 0.0, "lat": 38.844254, "name": "57a8555408af6727d8a5b50c40706128", "fusion_lon": 0.0, "bike_id": "57a8555408af6727d8a5b50c40706128", "is_disabled": 0, "is_reserved": 0}, {"rental_uris": {"ios": "https://dc.lft.to/lastmile_qr_scan", "android": "https://dc.lft.to/lastmile_qr_scan"}, "lon": -77.017898, "type": "electric_scooter", "fusion_lat": 0.0, "lat": 38.941146, "name": "d5abffd69dd7494fdf6dc6fe4ce8bb7e", "fusion_lon": 0.0, "bike_id": "d5abffd69dd7494fdf6dc6fe4ce8bb7e", "is_disabled": 0, "is_reserved": 0}, {"rental_uris": {"ios": "https://dc.lft.to/lastmile_qr_scan", "android": "https://dc.lft.to/lastmile_qr_scan"}, "lon": -77.03260666666667, "type": "electric_scooter", "fusion_lat": 0.0, "lat": 38.944152, "name": "184b7e521861153db1e6fd250689bdf9", "fusion_lon": 0.0, "bike_id": "184b7e521861153db1e6fd250689bdf9", "is_disabled": 0, "is_reserved": 0}, {"rental_uris": {"ios": "https://dc.lft.to/lastmile_qr_scan", "android": "https://dc.lft.to/lastmile_qr_scan"}, "lon": -77.05115233333333, "type": "electric_scooter", "fusion_lat": 0.0, "lat": 38.923439, "name": "9d8d3ade12aa7f89228ce183623a9132", "fusion_lon": 0.0, "bike_id": "9d8d3ade12aa7f89228ce183623a9132", "is_disabled": 0, "is_reserved": 0}, {"rental_uris": {"ios": "https://dc.lft.to/lastmile_qr_scan", "android": "https://dc.lft.to/lastmile_qr_scan"}, "lon": -77.02487716666667, "type": "electric_scooter", "fusion_lat": 0.0, "lat": 38.91714016666667, "name": "b735d5c4e88303379713234a926bf9f7", "fusion_lon": 0.0, "bike_id": "b735d5c4e88303379713234a926bf9f7", "is_disabled": 0, "is_reserved": 0}, {"rental_uris": {"ios": "https://dc.lft.to/lastmile_qr_scan", "android": "https://dc.lft.to/lastmile_qr_scan"}, "lon": -77.04116583333334, "type": "electric_scooter", "fusion_lat": 0.0, "lat": 38.900178833333335, "name": "d4c7b6926f2cdc38a4cc800207a99c36", "fusion_lon": 0.0, "bike_id": "d4c7b6926f2cdc38a4cc800207a99c36", "is_disabled": 0, "is_reserved": 0}, {"rental_uris": {"ios": "https://dc.lft.to/lastmile_qr_scan", "android": "https://dc.lft.to/lastmile_qr_scan"}, "lon": -77.12505033333333, "type": "electric_bike", "fusion_lat": 0.0, "lat": 39.02420133333333, "name": "ffd2db0aa5e2397236f1758b1665f962", "fusion_lon": 0.0, "bike_id": "ffd2db0aa5e2397236f1758b1665f962", "is_disabled": 0, "is_reserved": 0}, {"rental_uris": {"ios": "https://dc.lft.to/lastmile_qr_scan", "android": "https://dc.lft.to/lastmile_qr_scan"}, "lon": -77.05496416666666, "type": "electric_scooter", "fusion_lat": 0.0, "lat": 38.929602333333335, "name": "9947b12eaec8c79ae44950c0b202bdfc", "fusion_lon": 0.0, "bike_id": "9947b12eaec8c79ae44950c0b202bdfc", "is_disabled": 0, "is_reserved": 0}, {"rental_uris": {"ios": "https://dc.lft.to/lastmile_qr_scan", "android": "https://dc.lft.to/lastmile_qr_scan"}, "lon": -76.9575615, "type": "electric_scooter", "fusion_lat": 0.0, "lat": 38.884301666666666, "name": "f0f2a4adab389e02e2d31ea555408635", "fusion_lon": 0.0, "bike_id": "f0f2a4adab389e02e2d31ea555408635", "is_disabled": 0, "is_reserved": 0}, {"rental_uris": {"ios": "https://dc.lft.to/lastmile_qr_scan", "android": "https://dc.lft.to/lastmile_qr_scan"}, "lon": -77.03406166666667, "type": "electric_scooter", "fusion_lat": 0.0, "lat": 38.92264316666667, "name": "654402c444424b33992feef342e8e04e", "fusion_lon": 0.0, "bike_id": "654402c444424b33992feef342e8e04e", "is_disabled": 0, "is_reserved": 0}, {"rental_uris": {"ios": "https://dc.lft.to/lastmile_qr_scan", "android": "https://dc.lft.to/lastmile_qr_scan"}, "lon": -77.05217183333333, "type": "electric_scooter", "fusion_lat": 0.0, "lat": 38.92588583333333, "name": "71e7527561fc5d9a2e9ee07d26d2f20e", "fusion_lon": 0.0, "bike_id": "71e7527561fc5d9a2e9ee07d26d2f20e", "is_disabled": 0, "is_reserved": 0}, {"rental_uris": {"ios": "https://dc.lft.to/lastmile_qr_scan", "android": "https://dc.lft.to/lastmile_qr_scan"}, "lon": -77.048134, "type": "electric_scooter", "fusion_lat": 0.0, "lat": 38.913342, "name": "bb8196365ee184041a89e82f00949fb8", "fusion_lon": 0.0, "bike_id": "bb8196365ee184041a89e82f00949fb8", "is_disabled": 0, "is_reserved": 0}, {"rental_uris": {"ios": "https://dc.lft.to/lastmile_qr_scan", "android": "https://dc.lft.to/lastmile_qr_scan"}, "lon": -77.02693983333333, "type": "electric_scooter", "fusion_lat": 0.0, "lat": 38.925963, "name": "0e8e0c68a9728e628c0dd76cbdc7abb6", "fusion_lon": 0.0, "bike_id": "0e8e0c68a9728e628c0dd76cbdc7abb6", "is_disabled": 0, "is_reserved": 0}, {"rental_uris": {"ios": "https://dc.lft.to/lastmile_qr_scan", "android": "https://dc.lft.to/lastmile_qr_scan"}, "lon": -77.02580033333334, "type": "electric_scooter", "fusion_lat": 0.0, "lat": 38.88737866666666, "name": "9b6f02bec915cce8e0a55574b6a5597e", "fusion_lon": 0.0, "bike_id": "9b6f02bec915cce8e0a55574b6a5597e", "is_disabled": 0, "is_reserved": 0}, {"rental_uris": {"ios": "https://dc.lft.to/lastmile_qr_scan", "android": "https://dc.lft.to/lastmile_qr_scan"}, "lon": -77.041656, "type": "electric_scooter", "fusion_lat": 0.0, "lat": 38.91201916666667, "name": "418cb6e349ed906e3109b9fd7b20c8a1", "fusion_lon": 0.0, "bike_id": "418cb6e349ed906e3109b9fd7b20c8a1", "is_disabled": 0, "is_reserved": 0}, {"rental_uris": {"ios": "https://dc.lft.to/lastmile_qr_scan", "android": "https://dc.lft.to/lastmile_qr_scan"}, "lon": -77.08194933333333, "type": "electric_scooter", "fusion_lat": 0.0, "lat": 38.94924016666667, "name": "c4d3af27c78e5f6546cd4736d17bbc42", "fusion_lon": 0.0, "bike_id": "c4d3af27c78e5f6546cd4736d17bbc42", "is_disabled": 0, "is_reserved": 0}, {"rental_uris": {"ios": "https://dc.lft.to/lastmile_qr_scan", "android": "https://dc.lft.to/lastmile_qr_scan"}, "lon": -77.03866633333334, "type": "electric_scooter", "fusion_lat": 0.0, "lat": 38.9324845, "name": "0f39ad524c3ba580a8eeb8ce8e9b56cd", "fusion_lon": 0.0, "bike_id": "0f39ad524c3ba580a8eeb8ce8e9b56cd", "is_disabled": 0, "is_reserved": 0}, {"rental_uris": {"ios": "https://dc.lft.to/lastmile_qr_scan", "android": "https://dc.lft.to/lastmile_qr_scan"}, "lon": -77.0114545, "type": "electric_scooter", "fusion_lat": 0.0, "lat": 38.89532833333333, "name": "5bd292db09452f14fd986260055f4a7b", "fusion_lon": 0.0, "bike_id": "5bd292db09452f14fd986260055f4a7b", "is_disabled": 0, "is_reserved": 0}, {"rental_uris": {"ios": "https://dc.lft.to/lastmile_qr_scan", "android": "https://dc.lft.to/lastmile_qr_scan"}, "lon": -76.983515, "type": "electric_bike", "fusion_lat": 0.0, "lat": 38.915499, "name": "a742ba91f2d25f9224f5cd2b07944ab6", "fusion_lon": 0.0, "bike_id": "a742ba91f2d25f9224f5cd2b07944ab6", "is_disabled": 0, "is_reserved": 0}, {"rental_uris": {"ios": "https://dc.lft.to/lastmile_qr_scan", "android": "https://dc.lft.to/lastmile_qr_scan"}, "lon": -77.03208, "type": "electric_scooter", "fusion_lat": 0.0, "lat": 38.91537833333334, "name": "ed2242f0fb3c1b15cfe265abf200e56a", "fusion_lon": 0.0, "bike_id": "ed2242f0fb3c1b15cfe265abf200e56a", "is_disabled": 0, "is_reserved": 0}, {"rental_uris": {"ios": "https://dc.lft.to/lastmile_qr_scan", "android": "https://dc.lft.to/lastmile_qr_scan"}, "lon": -77.007455, "type": "electric_scooter", "fusion_lat": 0.0, "lat": 38.89833316666667, "name": "f9c466757245cfb68082fc5252bf2e62", "fusion_lon": 0.0, "bike_id": "f9c466757245cfb68082fc5252bf2e62", "is_disabled": 0, "is_reserved": 0}, {"rental_uris": {"ios": "https://dc.lft.to/lastmile_qr_scan", "android": "https://dc.lft.to/lastmile_qr_scan"}, "lon": -76.90813833333333, "type": "electric_bike", "fusion_lat": 0.0, "lat": 38.99453316666666, "name": "b17a846ec1b1c816ea14124311037e34", "fusion_lon": 0.0, "bike_id": "b17a846ec1b1c816ea14124311037e34", "is_disabled": 0, "is_reserved": 0}, {"rental_uris": {"ios": "https://dc.lft.to/lastmile_qr_scan", "android": "https://dc.lft.to/lastmile_qr_scan"}, "lon": -76.9602085, "type": "electric_bike", "fusion_lat": 0.0, "lat": 38.8700895, "name": "26f7d9901a544dad1d441d625f4e736d", "fusion_lon": 0.0, "bike_id": "26f7d9901a544dad1d441d625f4e736d", "is_disabled": 0, "is_reserved": 0}, {"rental_uris": {"ios": "https://dc.lft.to/lastmile_qr_scan", "android": "https://dc.lft.to/lastmile_qr_scan"}, "lon": -77.0436035, "type": "electric_scooter", "fusion_lat": 0.0, "lat": 38.92348533333333, "name": "564f9df54fb14bc0eb567ed391567d3b", "fusion_lon": 0.0, "bike_id": "564f9df54fb14bc0eb567ed391567d3b", "is_disabled": 0, "is_reserved": 0}, {"rental_uris": {"ios": "https://dc.lft.to/lastmile_qr_scan", "android": "https://dc.lft.to/lastmile_qr_scan"}, "lon": -77.00710833333333, "type": "electric_scooter", "fusion_lat": 0.0, "lat": 38.884904666666664, "name": "16ebae6aed44dd28a09bf5e5670fce26", "fusion_lon": 0.0, "bike_id": "16ebae6aed44dd28a09bf5e5670fce26", "is_disabled": 0, "is_reserved": 0}, {"rental_uris": {"ios": "https://dc.lft.to/lastmile_qr_scan", "android": "https://dc.lft.to/lastmile_qr_scan"}, "lon": -77.103355, "type": "electric_bike", "fusion_lat": 0.0, "lat": 38.852303, "name": "432f256fc20f24e7b72be5c837398d60", "fusion_lon": 0.0, "bike_id": "432f256fc20f24e7b72be5c837398d60", "is_disabled": 0, "is_reserved": 0}, {"rental_uris": {"ios": "https://dc.lft.to/lastmile_qr_scan", "android": "https://dc.lft.to/lastmile_qr_scan"}, "lon": -77.03763966666666, "type": "electric_scooter", "fusion_lat": 0.0, "lat": 38.91688383333333, "name": "76905d75cc0dd85163294b4679c1f666", "fusion_lon": 0.0, "bike_id": "76905d75cc0dd85163294b4679c1f666", "is_disabled": 0, "is_reserved": 0}, {"rental_uris": {"ios": "https://dc.lft.to/lastmile_qr_scan", "android": "https://dc.lft.to/lastmile_qr_scan"}, "lon": -77.03021216666667, "type": "electric_scooter", "fusion_lat": 0.0, "lat": 38.89729766666667, "name": "824243a43316d21aeaa1a6b8d8cc6780", "fusion_lon": 0.0, "bike_id": "824243a43316d21aeaa1a6b8d8cc6780", "is_disabled": 0, "is_reserved": 0}, {"rental_uris": {"ios": "https://dc.lft.to/lastmile_qr_scan", "android": "https://dc.lft.to/lastmile_qr_scan"}, "lon": -77.001342, "type": "electric_scooter", "fusion_lat": 0.0, "lat": 38.90407916666667, "name": "aa4cedeef0c3e5781db331033ac66a08", "fusion_lon": 0.0, "bike_id": "aa4cedeef0c3e5781db331033ac66a08", "is_disabled": 0, "is_reserved": 0}, {"rental_uris": {"ios": "https://dc.lft.to/lastmile_qr_scan", "android": "https://dc.lft.to/lastmile_qr_scan"}, "lon": -76.927256, "type": "electric_scooter", "fusion_lat": 0.0, "lat": 38.88038133333333, "name": "f27698a4f02bed52598569e9f34d6a71", "fusion_lon": 0.0, "bike_id": "f27698a4f02bed52598569e9f34d6a71", "is_disabled": 0, "is_reserved": 0}, {"rental_uris": {"ios": "https://dc.lft.to/lastmile_qr_scan", "android": "https://dc.lft.to/lastmile_qr_scan"}, "lon": -77.00882716666666, "type": "electric_scooter", "fusion_lat": 0.0, "lat": 38.91401883333333, "name": "bab15de45cc94eb7eacf92ae778cca71", "fusion_lon": 0.0, "bike_id": "bab15de45cc94eb7eacf92ae778cca71", "is_disabled": 0, "is_reserved": 0}, {"rental_uris": {"ios": "https://dc.lft.to/lastmile_qr_scan", "android": "https://dc.lft.to/lastmile_qr_scan"}, "lon": -77.022141, "type": "electric_scooter", "fusion_lat": 0.0, "lat": 38.90563983333333, "name": "4b0a55e2aed124b4bcdd0b84387d9d94", "fusion_lon": 0.0, "bike_id": "4b0a55e2aed124b4bcdd0b84387d9d94", "is_disabled": 0, "is_reserved": 0}, {"rental_uris": {"ios": "https://dc.lft.to/lastmile_qr_scan", "android": "https://dc.lft.to/lastmile_qr_scan"}, "lon": -77.026707, "type": "electric_scooter", "fusion_lat": 0.0, "lat": 38.881507, "name": "2d8df0e528209fc000fc6de4d33312b8", "fusion_lon": 0.0, "bike_id": "2d8df0e528209fc000fc6de4d33312b8", "is_disabled": 0, "is_reserved": 0}, {"rental_uris": {"ios": "https://dc.lft.to/lastmile_qr_scan", "android": "https://dc.lft.to/lastmile_qr_scan"},