{"data": {"bikes": [{"is_disabled": 0, "fusion_lon": 0.0, "fusion_lat": 0.0, "lat": 38.91050333333333, "type": "electric_scooter", "lon": -77.0228745, "bike_id": "534731477233efa191cfc0206ccc90e6", "rental_uris": {"android": "https://dc.lft.to/lastmile_qr_scan", "ios": "https://dc.lft.to/lastmile_qr_scan"}, "name": "534731477233efa191cfc0206ccc90e6", "is_reserved": 0}, {"is_disabled": 0, "fusion_lon": 0.0, "fusion_lat": 0.0, "lat": 38.9171275, "type": "electric_scooter", "lon": -77.03320516666666, "bike_id": "969afbee401a1dab27ca1ae7163af96e", "rental_uris": {"android": "https://dc.lft.to/lastmile_qr_scan", "ios": "https://dc.lft.to/lastmile_qr_scan"}, "name": "969afbee401a1dab27ca1ae7163af96e", "is_reserved": 0}, {"is_disabled": 0, "fusion_lon": 0.0, "fusion_lat": 0.0, "lat": 38.951849333333335, "type": "electric_scooter", "lon": -77.02613316666667, "bike_id": "86c42b3176ec38b83529428669a859a7", "rental_uris": {"android": "https://dc.lft.to/lastmile_qr_scan", "ios": "https://dc.lft.to/lastmile_qr_scan"}, "name": "86c42b3176ec38b83529428669a859a7", "is_reserved": 0}, {"is_disabled": 0, "fusion_lon": 0.0, "fusion_lat": 0.0, "lat": 38.903853833333336, "type": "electric_scooter", "lon": -76.99006833333334, "bike_id": "e400bec0b75eea6de853cc0ec0c87519", "rental_uris": {"android": "https://dc.lft.to/lastmile_qr_scan", "ios": "https://dc.lft.to/lastmile_qr_scan"}, "name": "e400bec0b75eea6de853cc0ec0c87519", "is_reserved": 0}, {"is_disabled": 0, "fusion_lon": 0.0, "fusion_lat": 0.0, "lat": 38.8982285, "type": "electric_scooter", "lon": -76.94654866666667, "bike_id": "f5a3f4c61ac51aeffb5fc8d08ef64a8d", "rental_uris": {"android": "https://dc.lft.to/lastmile_qr_scan", "ios": "https://dc.lft.to/lastmile_qr_scan"}, "name": "f5a3f4c61ac51aeffb5fc8d08ef64a8d", "is_reserved": 0}, {"is_disabled": 0, "fusion_lon": 0.0, "fusion_lat": 0.0, "lat": 38.9068325, "type": "electric_scooter", "lon": -77.026933, "bike_id": "591a8a2685ed6f4020755b791a91763d", "rental_uris": {"android": "https://dc.lft.to/lastmile_qr_scan", "ios": "https://dc.lft.to/lastmile_qr_scan"}, "name": "591a8a2685ed6f4020755b791a91763d", "is_reserved": 0}, {"is_disabled": 0, "fusion_lon": 0.0, "fusion_lat": 0.0, "lat": 38.946228833333336, "type": "electric_bike", "lon": -76.9341375, "bike_id": "57b6bf53ff41db7629c836f4c27d0064", "rental_uris": {"android": "https://dc.lft.to/lastmile_qr_scan", "ios": "https://dc.lft.to/lastmile_qr_scan"}, "name": "57b6bf53ff41db7629c836f4c27d0064", "is_reserved": 0}, {"is_disabled": 0, "fusion_lon": 0.0, "fusion_lat": 0.0, "lat": 38.924589833333336, "type": "electric_scooter", "lon": -77.0297, "bike_id": "2ca98410b467e44fca3c1d73906945a7", "rental_uris": {"android": "https://dc.lft.to/lastmile_qr_scan", "ios": "https://dc.lft.to/lastmile_qr_scan"}, "name": "2ca98410b467e44fca3c1d73906945a7", "is_reserved": 0}, {"is_disabled": 0, "fusion_lon": 0.0, "fusion_lat": 0.0, "lat": 38.9185665, "type": "electric_bike", "lon": -76.960938, "bike_id": "8f19ea20acd4b13c9563e63079ea103d", "rental_uris": {"android": "https://dc.lft.to/lastmile_qr_scan", "ios": "https://dc.lft.to/lastmile_qr_scan"}, "name": "8f19ea20acd4b13c9563e63079ea103d", "is_reserved": 0}, {"is_disabled": 0, "fusion_lon": 0.0, "fusion_lat": 0.0, "lat": 38.833508333333334, "type": "electric_bike", "lon": -76.96560033333333, "bike_id": "76b116f3fe29fc32f9036efeedde30a3", "rental_uris": {"android": "https://dc.lft.to/lastmile_qr_scan", "ios": "https://dc.lft.to/lastmile_qr_scan"}, "name": "76b116f3fe29fc32f9036efeedde30a3", "is_reserved": 0}, {"is_disabled": 0, "fusion_lon": 0.0, "fusion_lat": 0.0, "lat": 38.89063183333333, "type": "electric_scooter", "lon": -77.0013815, "bike_id": "9606455bc815ea980e199f45ec67520e", "rental_uris": {"android": "https://dc.lft.to/lastmile_qr_scan", "ios": "https://dc.lft.to/lastmile_qr_scan"}, "name": "9606455bc815ea980e199f45ec67520e", "is_reserved": 0}, {"is_disabled": 0, "fusion_lon": 0.0, "fusion_lat": 0.0, "lat": 38.9012585, "type": "electric_scooter", "lon": -77.03044983333334, "bike_id": "109b5aac3e70d177b21a733c9fde9e65", "rental_uris": {"android": "https://dc.lft.to/lastmile_qr_scan", "ios": "https://dc.lft.to/lastmile_qr_scan"}, "name": "109b5aac3e70d177b21a733c9fde9e65", "is_reserved": 0}, {"is_disabled": 0, "fusion_lon": 0.0, "fusion_lat": 0.0, "lat": 38.91636183333333, "type": "electric_scooter", "lon": -77.03468683333334, "bike_id": "eace182caaf5945f20499819da43569e", "rental_uris": {"android": "https://dc.lft.to/lastmile_qr_scan", "ios": "https://dc.lft.to/lastmile_qr_scan"}, "name": "eace182caaf5945f20499819da43569e", "is_reserved": 0}, {"is_disabled": 0, "fusion_lon": 0.0, "fusion_lat": 0.0, "lat": 38.9047435, "type": "electric_scooter", "lon": -77.03799633333334, "bike_id": "bc2a21a67a2d93926960c5893ec00369", "rental_uris": {"android": "https://dc.lft.to/lastmile_qr_scan", "ios": "https://dc.lft.to/lastmile_qr_scan"}, "name": "bc2a21a67a2d93926960c5893ec00369", "is_reserved": 0}, {"is_disabled": 0, "fusion_lon": 0.0, "fusion_lat": 0.0, "lat": 38.882491333333334, "type": "electric_scooter", "lon": -77.0034755, "bike_id": "9bd1caa98b85677fb79cc586485aaca8", "rental_uris": {"android": "https://dc.lft.to/lastmile_qr_scan", "ios": "https://dc.lft.to/lastmile_qr_scan"}, "name": "9bd1caa98b85677fb79cc586485aaca8", "is_reserved": 0}, {"is_disabled": 0, "fusion_lon": 0.0, "fusion_lat": 0.0, "lat": 38.895391833333335, "type": "electric_scooter", "lon": -77.011203, "bike_id": "e01a5468668040e30fc31f69e2c590ba", "rental_uris": {"android": "https://dc.lft.to/lastmile_qr_scan", "ios": "https://dc.lft.to/lastmile_qr_scan"}, "name": "e01a5468668040e30fc31f69e2c590ba", "is_reserved": 0}, {"is_disabled": 0, "fusion_lon": 0.0, "fusion_lat": 0.0, "lat": 38.8684375, "type": "electric_bike", "lon": -77.09735583333334, "bike_id": "5888ce2f1806942cad54d590258d2d70", "rental_uris": {"android": "https://dc.lft.to/lastmile_qr_scan", "ios": "https://dc.lft.to/lastmile_qr_scan"}, "name": "5888ce2f1806942cad54d590258d2d70", "is_reserved": 0}, {"is_disabled": 0, "fusion_lon": 0.0, "fusion_lat": 0.0, "lat": 38.91704466666667, "type": "electric_scooter", "lon": -77.03673316666666, "bike_id": "4222e94681d2f7c0bbf697276dff494c", "rental_uris": {"android": "https://dc.lft.to/lastmile_qr_scan", "ios": "https://dc.lft.to/lastmile_qr_scan"}, "name": "4222e94681d2f7c0bbf697276dff494c", "is_reserved": 0}, {"is_disabled": 0, "fusion_lon": 0.0, "fusion_lat": 0.0, "lat": 38.8951605, "type": "electric_scooter", "lon": -77.02820816666667, "bike_id": "e94aa5544bad7543e392d37b804cb08f", "rental_uris": {"android": "https://dc.lft.to/lastmile_qr_scan", "ios": "https://dc.lft.to/lastmile_qr_scan"}, "name": "e94aa5544bad7543e392d37b804cb08f", "is_reserved": 0}, {"is_disabled": 0, "fusion_lon": 0.0, "fusion_lat": 0.0, "lat": 38.90056233333333, "type": "electric_scooter", "lon": -77.03462483333334, "bike_id": "1c4aa48b8b75de01d6eb48cba777f536", "rental_uris": {"android": "https://dc.lft.to/lastmile_qr_scan", "ios": "https://dc.lft.to/lastmile_qr_scan"}, "name": "1c4aa48b8b75de01d6eb48cba777f536", "is_reserved": 0}, {"is_disabled": 0, "fusion_lon": 0.0, "fusion_lat": 0.0, "lat": 38.8966735, "type": "electric_scooter", "lon": -76.94719816666667, "bike_id": "cfbfb15ee104ef827242e778bf2982f6", "rental_uris": {"android": "https://dc.lft.to/lastmile_qr_scan", "ios": "https://dc.lft.to/lastmile_qr_scan"}, "name": "cfbfb15ee104ef827242e778bf2982f6", "is_reserved": 0}, {"is_disabled": 0, "fusion_lon": 0.0, "fusion_lat": 0.0, "lat": 38.87574033333333, "type": "electric_scooter", "lon": -77.0199605, "bike_id": "e91180b14f4e00ee0d66cbf393af55b3", "rental_uris": {"android": "https://dc.lft.to/lastmile_qr_scan", "ios": "https://dc.lft.to/lastmile_qr_scan"}, "name": "e91180b14f4e00ee0d66cbf393af55b3", "is_reserved": 0}, {"is_disabled": 0, "fusion_lon": 0.0, "fusion_lat": 0.0, "lat": 38.912577, "type": "electric_scooter", "lon": -77.03667466666667, "bike_id": "b0a5ed8c32f10370f91f4e57fa847d85", "rental_uris": {"android": "https://dc.lft.to/lastmile_qr_scan", "ios": "https://dc.lft.to/lastmile_qr_scan"}, "name": "b0a5ed8c32f10370f91f4e57fa847d85", "is_reserved": 0}, {"is_disabled": 0, "fusion_lon": 0.0, "fusion_lat": 0.0, "lat": 38.902417666666665, "type": "electric_bike", "lon": -76.970166, "bike_id": "7d4a524dc38833bf968f9a68c4fd8de3", "rental_uris": {"android": "https://dc.lft.to/lastmile_qr_scan", "ios": "https://dc.lft.to/lastmile_qr_scan"}, "name": "7d4a524dc38833bf968f9a68c4fd8de3", "is_reserved": 0}, {"is_disabled": 0, "fusion_lon": 0.0, "fusion_lat": 0.0, "lat": 38.9055205, "type": "electric_scooter", "lon": -77.02716866666667, "bike_id": "3561f09b122b9c367d4848b8cdee72e5", "rental_uris": {"android": "https://dc.lft.to/lastmile_qr_scan", "ios": "https://dc.lft.to/lastmile_qr_scan"}, "name": "3561f09b122b9c367d4848b8cdee72e5", "is_reserved": 0}, {"is_disabled": 0, "fusion_lon": 0.0, "fusion_lat": 0.0, "lat": 38.892664, "type": "electric_scooter", "lon": -77.03209916666667, "bike_id": "191537ca23b966fde2b6c9712c243aac", "rental_uris": {"android": "https://dc.lft.to/lastmile_qr_scan", "ios": "https://dc.lft.to/lastmile_qr_scan"}, "name": "191537ca23b966fde2b6c9712c243aac", "is_reserved": 0}, {"is_disabled": 0, "fusion_lon": 0.0, "fusion_lat": 0.0, "lat": 38.92995633333334, "type": "electric_scooter", "lon": -77.02182766666667, "bike_id": "babc83ba8597cd54a03041de04e39ce6", "rental_uris": {"android": "https://dc.lft.to/lastmile_qr_scan", "ios": "https://dc.lft.to/lastmile_qr_scan"}, "name": "babc83ba8597cd54a03041de04e39ce6", "is_reserved": 0}, {"is_disabled": 0, "fusion_lon": 0.0, "fusion_lat": 0.0, "lat": 38.9226875, "type": "electric_scooter", "lon": -76.9939505, "bike_id": "31908394fc9b9bd2f6e3adcd44f86c68", "rental_uris": {"android": "https://dc.lft.to/lastmile_qr_scan", "ios": "https://dc.lft.to/lastmile_qr_scan"}, "name": "31908394fc9b9bd2f6e3adcd44f86c68", "is_reserved": 0}, {"is_disabled": 0, "fusion_lon": 0.0, "fusion_lat": 0.0, "lat": 38.9234195, "type": "electric_scooter", "lon": -77.036176, "bike_id": "8120f89acb73688c0798bce9beb7223b", "rental_uris": {"android": "https://dc.lft.to/lastmile_qr_scan", "ios": "https://dc.lft.to/lastmile_qr_scan"}, "name": "8120f89acb73688c0798bce9beb7223b", "is_reserved": 0}, {"is_disabled": 0, "fusion_lon": 0.0, "fusion_lat": 0.0, "lat": 38.8484355, "type": "electric_bike", "lon": -77.080497, "bike_id": "838645705a59882962183413737b90a8", "rental_uris": {"android": "https://dc.lft.to/lastmile_qr_scan", "ios": "https://dc.lft.to/lastmile_qr_scan"}, "name": "838645705a59882962183413737b90a8", "is_reserved": 0}, {"is_disabled": 0, "fusion_lon": 0.0, "fusion_lat": 0.0, "lat": 38.970484666666664, "type": "electric_bike", "lon": -77.0308465, "bike_id": "a4c6bc580cef9b3dd0592f0aae1e0d06", "rental_uris": {"android": "https://dc.lft.to/lastmile_qr_scan", "ios": "https://dc.lft.to/lastmile_qr_scan"}, "name": "a4c6bc580cef9b3dd0592f0aae1e0d06", "is_reserved": 0}, {"is_disabled": 0, "fusion_lon": 0.0, "fusion_lat": 0.0, "lat": 38.905628666666665, "type": "electric_scooter", "lon": -77.04672733333334, "bike_id": "6f674655664b7ef86c63017ff402c5f1", "rental_uris": {"android": "https://dc.lft.to/lastmile_qr_scan", "ios": "https://dc.lft.to/lastmile_qr_scan"}, "name": "6f674655664b7ef86c63017ff402c5f1", "is_reserved": 0}, {"is_disabled": 0, "fusion_lon": 0.0, "fusion_lat": 0.0, "lat": 38.9070515, "type": "electric_scooter", "lon": -77.02697683333334, "bike_id": "e048d62a0b9ae5a69179a7e741da8bef", "rental_uris": {"android": "https://dc.lft.to/lastmile_qr_scan", "ios": "https://dc.lft.to/lastmile_qr_scan"}, "name": "e048d62a0b9ae5a69179a7e741da8bef", "is_reserved": 0}, {"is_disabled": 0, "fusion_lon": 0.0, "fusion_lat": 0.0, "lat": 38.93399683333333, "type": "electric_scooter", "lon": -77.02736183333333, "bike_id": "8d2f4c3097a08092ec216145812c7c83", "rental_uris": {"android": "https://dc.lft.to/lastmile_qr_scan", "ios": "https://dc.lft.to/lastmile_qr_scan"}, "name": "8d2f4c3097a08092ec216145812c7c83", "is_reserved": 0}, {"is_disabled": 0, "fusion_lon": 0.0, "fusion_lat": 0.0, "lat": 38.917278, "type": "electric_scooter", "lon": -77.04178716666667, "bike_id": "75363a219d5fd8cb4fb2bee8b26ac522", "rental_uris": {"android": "https://dc.lft.to/lastmile_qr_scan", "ios": "https://dc.lft.to/lastmile_qr_scan"}, "name": "75363a219d5fd8cb4fb2bee8b26ac522", "is_reserved": 0}, {"is_disabled": 0, "fusion_lon": 0.0, "fusion_lat": 0.0, "lat": 38.914587833333336, "type": "electric_scooter", "lon": -77.028163, "bike_id": "d3e77775e2d4b010e576b44d773559fd", "rental_uris": {"android": "https://dc.lft.to/lastmile_qr_scan", "ios": "https://dc.lft.to/lastmile_qr_scan"}, "name": "d3e77775e2d4b010e576b44d773559fd", "is_reserved": 0}, {"is_disabled": 0, "fusion_lon": 0.0, "fusion_lat": 0.0, "lat": 38.88689433333333, "type": "electric_scooter", "lon": -76.987987, "bike_id": "691c06422d95b8c6494d80793653d2ee", "rental_uris": {"android": "https://dc.lft.to/lastmile_qr_scan", "ios": "https://dc.lft.to/lastmile_qr_scan"}, "name": "691c06422d95b8c6494d80793653d2ee", "is_reserved": 0}, {"is_disabled": 0, "fusion_lon": 0.0, "fusion_lat": 0.0, "lat": 38.916917166666664, "type": "electric_scooter", "lon": -77.011725, "bike_id": "5f918cb7854ec36a354527850f4c8c60", "rental_uris": {"android": "https://dc.lft.to/lastmile_qr_scan", "ios": "https://dc.lft.to/lastmile_qr_scan"}, "name": "5f918cb7854ec36a354527850f4c8c60", "is_reserved": 0}, {"is_disabled": 0, "fusion_lon": 0.0, "fusion_lat": 0.0, "lat": 38.892171166666664, "type": "electric_scooter", "lon": -77.02223666666667, "bike_id": "5e883eafb23f67856f9679dd13b4c69e", "rental_uris": {"android": "https://dc.lft.to/lastmile_qr_scan", "ios": "https://dc.lft.to/lastmile_qr_scan"}, "name": "5e883eafb23f67856f9679dd13b4c69e", "is_reserved": 0}, {"is_disabled": 0, "fusion_lon": 0.0, "fusion_lat": 0.0, "lat": 38.936992333333336, "type": "electric_scooter", "lon": -77.05600916666667, "bike_id": "9ef9f2497e8a44ec0feda65e91dd89be", "rental_uris": {"android": "https://dc.lft.to/lastmile_qr_scan", "ios": "https://dc.lft.to/lastmile_qr_scan"}, "name": "9ef9f2497e8a44ec0feda65e91dd89be", "is_reserved": 0}, {"is_disabled": 0, "fusion_lon": 0.0, "fusion_lat": 0.0, "lat": 38.856441333333336, "type": "electric_bike", "lon": -77.08532433333333, "bike_id": "c4539c6f928acf7651cbab952bc65a69", "rental_uris": {"android": "https://dc.lft.to/lastmile_qr_scan", "ios": "https://dc.lft.to/lastmile_qr_scan"}, "name": "c4539c6f928acf7651cbab952bc65a69", "is_reserved": 0}, {"is_disabled": 0, "fusion_lon": 0.0, "fusion_lat": 0.0, "lat": 38.849290833333335, "type": "electric_bike", "lon": -77.100174, "bike_id": "526ef90e9b0b553e153e407ac49e37b0", "rental_uris": {"android": "https://dc.lft.to/lastmile_qr_scan", "ios": "https://dc.lft.to/lastmile_qr_scan"}, "name": "526ef90e9b0b553e153e407ac49e37b0", "is_reserved": 0}, {"is_disabled": 0, "fusion_lon": 0.0, "fusion_lat": 0.0, "lat": 38.91315483333333, "type": "electric_scooter", "lon": -77.01435616666667, "bike_id": "f565dad1a137aa82a9f26b04ee0e37cf", "rental_uris": {"android": "https://dc.lft.to/lastmile_qr_scan", "ios": "https://dc.lft.to/lastmile_qr_scan"}, "name": "f565dad1a137aa82a9f26b04ee0e37cf", "is_reserved": 0}, {"is_disabled": 0, "fusion_lon": 0.0, "fusion_lat": 0.0, "lat": 38.90390716666667, "type": "electric_scooter", "lon": -77.05371916666667, "bike_id": "c80aba545312cee3b0d782ef174bf3eb", "rental_uris": {"android": "https://dc.lft.to/lastmile_qr_scan", "ios": "https://dc.lft.to/lastmile_qr_scan"}, "name": "c80aba545312cee3b0d782ef174bf3eb", "is_reserved": 0}, {"is_disabled": 0, "fusion_lon": 0.0, "fusion_lat": 0.0, "lat": 38.886063166666666, "type": "electric_scooter", "lon": -77.00579916666666, "bike_id": "5aa7b1932fa2199117fdde0afd7e0fa4", "rental_uris": {"android": "https://dc.lft.to/lastmile_qr_scan", "ios": "https://dc.lft.to/lastmile_qr_scan"}, "name": "5aa7b1932fa2199117fdde0afd7e0fa4", "is_reserved": 0}, {"is_disabled": 0, "fusion_lon": 0.0, "fusion_lat": 0.0, "lat": 38.870547, "type": "electric_scooter", "lon": -76.98086433333333, "bike_id": "5b6b50deaac9e1affbc0dbc5f0fb0f65", "rental_uris": {"android": "https://dc.lft.to/lastmile_qr_scan", "ios": "https://dc.lft.to/lastmile_qr_scan"}, "name": "5b6b50deaac9e1affbc0dbc5f0fb0f65", "is_reserved": 0}, {"is_disabled": 0, "fusion_lon": 0.0, "fusion_lat": 0.0, "lat": 38.9563775, "type": "electric_scooter", "lon": -77.0909945, "bike_id": "a6a206db794ed78e218a983540c8cb0f", "rental_uris": {"android": "https://dc.lft.to/lastmile_qr_scan", "ios": "https://dc.lft.to/lastmile_qr_scan"}, "name": "a6a206db794ed78e218a983540c8cb0f", "is_reserved": 0}, {"is_disabled": 0, "fusion_lon": 0.0, "fusion_lat": 0.0, "lat": 38.91804366666667, "type": "electric_scooter", "lon": -77.04033016666666, "bike_id": "58144e833d1f88160a6c83853afd267c", "rental_uris": {"android": "https://dc.lft.to/lastmile_qr_scan", "ios": "https://dc.lft.to/lastmile_qr_scan"}, "name": "58144e833d1f88160a6c83853afd267c", "is_reserved": 0}, {"is_disabled": 0, "fusion_lon": 0.0, "fusion_lat": 0.0, "lat": 38.881249333333336, "type": "electric_scooter", "lon": -77.02075016666667, "bike_id": "545f265de34d2adbc5d395e7fa3d87c3", "rental_uris": {"android": "https://dc.lft.to/lastmile_qr_scan", "ios": "https://dc.lft.to/lastmile_qr_scan"}, "name": "545f265de34d2adbc5d395e7fa3d87c3", "is_reserved": 0}, {"is_disabled": 0, "fusion_lon": 0.0, "fusion_lat": 0.0, "lat": 38.90731316666667, "type": "electric_scooter", "lon": -77.022499, "bike_id": "f66e51cc7bc0bdaeca7248c68c883305", "rental_uris": {"android": "https://dc.lft.to/lastmile_qr_scan", "ios": "https://dc.lft.to/lastmile_qr_scan"}, "name": "f66e51cc7bc0bdaeca7248c68c883305", "is_reserved": 0}, {"is_disabled": 0, "fusion_lon": 0.0, "fusion_lat": 0.0, "lat": 38.896709666666666, "type": "electric_scooter", "lon": -77.01178866666666, "bike_id": "862b46ab9d2d3dbb2660b3d2b8aff05a", "rental_uris": {"android": "https://dc.lft.to/lastmile_qr_scan", "ios": "https://dc.lft.to/lastmile_qr_scan"}, "name": "862b46ab9d2d3dbb2660b3d2b8aff05a", "is_reserved": 0}, {"is_disabled": 0, "fusion_lon": 0.0, "fusion_lat": 0.0, "lat": 38.9085435, "type": "electric_scooter", "lon": -77.06350183333333, "bike_id": "3639b489abfea00f6487ea9cd68508a9", "rental_uris": {"android": "https://dc.lft.to/lastmile_qr_scan", "ios": "https://dc.lft.to/lastmile_qr_scan"}, "name": "3639b489abfea00f6487ea9cd68508a9", "is_reserved": 0}, {"is_disabled": 0, "fusion_lon": 0.0, "fusion_lat": 0.0, "lat": 38.91786533333333, "type": "electric_scooter", "lon": -77.04357133333333, "bike_id": "002cb00a6bb6f53f01428330e227da1c", "rental_uris": {"android": "https://dc.lft.to/lastmile_qr_scan", "ios": "https://dc.lft.to/lastmile_qr_scan"}, "name": "002cb00a6bb6f53f01428330e227da1c", "is_reserved": 0}, {"is_disabled": 0, "fusion_lon": 0.0, "fusion_lat": 0.0, "lat": 38.909452, "type": "electric_scooter", "lon": -77.03447066666666, "bike_id": "dfbc8b422bc4f31eeca5c6648fb3d369", "rental_uris": {"android": "https://dc.lft.to/lastmile_qr_scan", "ios": "https://dc.lft.to/lastmile_qr_scan"}, "name": "dfbc8b422bc4f31eeca5c6648fb3d369", "is_reserved": 0}, {"is_disabled": 0, "fusion_lon": 0.0, "fusion_lat": 0.0, "lat": 38.91176733333333, "type": "electric_bike", "lon": -77.011447, "bike_id": "44414c0cdc2cc858289a84c71e8e82c3", "rental_uris": {"android": "https://dc.lft.to/lastmile_qr_scan", "ios": "https://dc.lft.to/lastmile_qr_scan"}, "name": "44414c0cdc2cc858289a84c71e8e82c3", "is_reserved": 0}, {"is_disabled": 0, "fusion_lon": 0.0, "fusion_lat": 0.0, "lat": 38.92349133333333, "type": "electric_bike", "lon": -76.99251533333333, "bike_id": "955469ba62dea1014dbdd948f79778bf", "rental_uris": {"android": "https://dc.lft.to/lastmile_qr_scan", "ios": "https://dc.lft.to/lastmile_qr_scan"}, "name": "955469ba62dea1014dbdd948f79778bf", "is_reserved": 0}, {"is_disabled": 0, "fusion_lon": 0.0, "fusion_lat": 0.0, "lat": 38.8974275, "type": "electric_scooter", "lon": -77.04653533333334, "bike_id": "8546ae4ced7525a6407be58bc5011995", "rental_uris": {"android": "https://dc.lft.to/lastmile_qr_scan", "ios": "https://dc.lft.to/lastmile_qr_scan"}, "name": "8546ae4ced7525a6407be58bc5011995", "is_reserved": 0}, {"is_disabled": 0, "fusion_lon": 0.0, "fusion_lat": 0.0, "lat": 38.90952383333333, "type": "electric_scooter", "lon": -77.0218545, "bike_id": "0fbeb9dc54f1de0696761dcca19cb068", "rental_uris": {"android": "https://dc.lft.to/lastmile_qr_scan", "ios": "https://dc.lft.to/lastmile_qr_scan"}, "name": "0fbeb9dc54f1de0696761dcca19cb068", "is_reserved": 0}, {"is_disabled": 0, "fusion_lon": 0.0, "fusion_lat": 0.0, "lat": 38.9907645, "type": "electric_bike", "lon": -77.02379833333333, "bike_id": "58ca054b9845e1f5a6a324b33efe3c45", "rental_uris": {"android": "https://dc.lft.to/lastmile_qr_scan", "ios": "https://dc.lft.to/lastmile_qr_scan"}, "name": "58ca054b9845e1f5a6a324b33efe3c45", "is_reserved": 0}, {"is_disabled": 0, "fusion_lon": 0.0, "fusion_lat": 0.0, "lat": 38.900243, "type": "electric_scooter", "lon": -77.04406266666666, "bike_id": "1b619b60c624423ab9c351d2b7804f0a", "rental_uris": {"android": "https://dc.lft.to/lastmile_qr_scan", "ios": "https://dc.lft.to/lastmile_qr_scan"}, "name": "1b619b60c624423ab9c351d2b7804f0a", "is_reserved": 0}, {"is_disabled": 0, "fusion_lon": 0.0, "fusion_lat": 0.0, "lat": 38.9014375, "type": "electric_scooter", "lon": -77.02939716666667, "bike_id": "21198cfa8c1f166a89e91f5859462997", "rental_uris": {"android": "https://dc.lft.to/lastmile_qr_scan", "ios": "https://dc.lft.to/lastmile_qr_scan"}, "name": "21198cfa8c1f166a89e91f5859462997", "is_reserved": 0}, {"is_disabled": 0, "fusion_lon": 0.0, "fusion_lat": 0.0, "lat": 38.927087, "type": "electric_scooter", "lon": -77.023321, "bike_id": "3e1de3bf6c82a59307716a98c8fc4112", "rental_uris": {"android": "https://dc.lft.to/lastmile_qr_scan", "ios": "https://dc.lft.to/lastmile_qr_scan"}, "name": "3e1de3bf6c82a59307716a98c8fc4112", "is_reserved": 0}, {"is_disabled": 0, "fusion_lon": 0.0, "fusion_lat": 0.0, "lat": 38.92787716666667, "type": "electric_scooter", "lon": -77.014056, "bike_id": "4f078d247a2aa0623a6b9e799126e439", "rental_uris": {"android": "https://dc.lft.to/lastmile_qr_scan", "ios": "https://dc.lft.to/lastmile_qr_scan"}, "name": "4f078d247a2aa0623a6b9e799126e439", "is_reserved": 0}, {"is_disabled": 0, "fusion_lon": 0.0, "fusion_lat": 0.0, "lat": 38.93476016666666, "type": "electric_scooter", "lon": -77.07214733333333, "bike_id": "ba60c9568888a1712f3bb3d80768c3d0", "rental_uris": {"android": "https://dc.lft.to/lastmile_qr_scan", "ios": "https://dc.lft.to/lastmile_qr_scan"}, "name": "ba60c9568888a1712f3bb3d80768c3d0", "is_reserved": 0}, {"is_disabled": 0, "fusion_lon": 0.0, "fusion_lat": 0.0, "lat": 38.9004125, "type": "electric_scooter", "lon": -76.92274983333333, "bike_id": "6b66cd18a3710c9b7f9ab60ed10ecdb4", "rental_uris": {"android": "https://dc.lft.to/lastmile_qr_scan", "ios": "https://dc.lft.to/lastmile_qr_scan"}, "name": "6b66cd18a3710c9b7f9ab60ed10ecdb4", "is_reserved": 0}, {"is_disabled": 0, "fusion_lon": 0.0, "fusion_lat": 0.0, "lat": 38.927338, "type": "electric_scooter", "lon": -77.022458, "bike_id": "320b384bbf150d1bbae57ac1e5b4c5be", "rental_uris": {"android": "https://dc.lft.to/lastmile_qr_scan", "ios": "https://dc.lft.to/lastmile_qr_scan"}, "name": "320b384bbf150d1bbae57ac1e5b4c5be", "is_reserved": 0}, {"is_disabled": 0, "fusion_lon": 0.0, "fusion_lat": 0.0, "lat": 38.93672933333333, "type": "electric_scooter", "lon": -77.02467733333333, "bike_id": "8d852d112e6a2630e91e4399b4faa552", "rental_uris": {"android": "https://dc.lft.to/lastmile_qr_scan", "ios": "https://dc.lft.to/lastmile_qr_scan"}, "name": "8d852d112e6a2630e91e4399b4faa552", "is_reserved": 0}, {"is_disabled": 0, "fusion_lon": 0.0, "fusion_lat": 0.0, "lat": 38.887575, "type": "electric_bike", "lon": -76.90079283333333, "bike_id": "9545e29f9a280d954220fd751fed0b86", "rental_uris": {"android": "https://dc.lft.to/lastmile_qr_scan", "ios": "https://dc.lft.to/lastmile_qr_scan"}, "name": "9545e29f9a280d954220fd751fed0b86", "is_reserved": 0}, {"is_disabled": 0, "fusion_lon": 0.0, "fusion_lat": 0.0, "lat": 38.89369716666667, "type": "electric_scooter", "lon": -76.95002, "bike_id": "3446e4bf86698691cb5f6cfc2db3cbc4", "rental_uris": {"android": "https://dc.lft.to/lastmile_qr_scan", "ios": "https://dc.lft.to/lastmile_qr_scan"}, "name": "3446e4bf86698691cb5f6cfc2db3cbc4", "is_reserved": 0}, {"is_disabled": 0, "fusion_lon": 0.0, "fusion_lat": 0.0, "lat": 38.86131816666666, "type": "electric_scooter", "lon": -76.985333, "bike_id": "c82da4aba6d15dd39f6ecaf83bc3991e", "rental_uris": {"android": "https://dc.lft.to/lastmile_qr_scan", "ios": "https://dc.lft.to/lastmile_qr_scan"}, "name": "c82da4aba6d15dd39f6ecaf83bc3991e", "is_reserved": 0}, {"is_disabled": 0, "fusion_lon": 0.0, "fusion_lat": 0.0, "lat": 38.91178516666667, "type": "electric_scooter", "lon": -77.03508166666667, "bike_id": "00e76b0ef66d50dccae24e7a1f37ec37", "rental_uris": {"android": "https://dc.lft.to/lastmile_qr_scan", "ios": "https://dc.lft.to/lastmile_qr_scan"}, "name": "00e76b0ef66d50dccae24e7a1f37ec37", "is_reserved": 0}, {"is_disabled": 0, "fusion_lon": 0.0, "fusion_lat": 0.0, "lat": 38.89674183333333, "type": "electric_scooter", "lon": -76.99785816666666, "bike_id": "cf880ea75339232de69922d41d326c42", "rental_uris": {"android": "https://dc.lft.to/lastmile_qr_scan", "ios": "https://dc.lft.to/lastmile_qr_scan"}, "name": "cf880ea75339232de69922d41d326c42", "is_reserved": 0}, {"is_disabled": 0, "fusion_lon": 0.0, "fusion_lat": 0.0, "lat": 38.885955833333334, "type": "electric_bike", "lon": -76.99613066666667, "bike_id": "db51fbfdc6ac2fcc5a4daecebf13beea", "rental_uris": {"android": "https://dc.lft.to/lastmile_qr_scan", "ios": "https://dc.lft.to/lastmile_qr_scan"}, "name": "db51fbfdc6ac2fcc5a4daecebf13beea", "is_reserved": 0}, {"is_disabled": 0, "fusion_lon": 0.0, "fusion_lat": 0.0, "lat": 38.921606833333335, "type": "electric_scooter", "lon": -77.03395233333333, "bike_id": "43db7f2274bc425356370855527fff24", "rental_uris": {"android": "https://dc.lft.to/lastmile_qr_scan", "ios": "https://dc.lft.to/lastmile_qr_scan"}, "name": "43db7f2274bc425356370855527fff24", "is_reserved": 0}, {"is_disabled": 0, "fusion_lon": 0.0, "fusion_lat": 0.0, "lat": 38.900168, "type": "electric_scooter", "lon": -77.05216066666667, "bike_id": "b35d7c63583808cf6b84b2d3fa8adba2", "rental_uris": {"android": "https://dc.lft.to/lastmile_qr_scan", "ios": "https://dc.lft.to/lastmile_qr_scan"}, "name": "b35d7c63583808cf6b84b2d3fa8adba2", "is_reserved": 0}, {"is_disabled": 0, "fusion_lon": 0.0, "fusion_lat": 0.0, "lat": 38.920544166666666, "type": "electric_scooter", "lon": -77.04191933333334, "bike_id": "1bf83904ab6a8bd3f7fc1e892d3485c4", "rental_uris": {"android": "https://dc.lft.to/lastmile_qr_scan", "ios": "https://dc.lft.to/lastmile_qr_scan"}, "name": "1bf83904ab6a8bd3f7fc1e892d3485c4", "is_reserved": 0}, {"is_disabled": 0, "fusion_lon": 0.0, "fusion_lat": 0.0, "lat": 39.02684633333333, "type": "electric_bike", "lon": -77.12598016666666, "bike_id": "5ba6cb0025b06aff5a6cf0e0ceb7048f", "rental_uris": {"android": "https://dc.lft.to/lastmile_qr_scan", "ios": "https://dc.lft.to/lastmile_qr_scan"}, "name": "5ba6cb0025b06aff5a6cf0e0ceb7048f", "is_reserved": 0}, {"is_disabled": 0, "fusion_lon": 0.0, "fusion_lat": 0.0, "lat": 38.8984845, "type": "electric_scooter", "lon": -77.03350466666667, "bike_id": "a01176543e74142fc74e1a65fe542913", "rental_uris": {"android": "https://dc.lft.to/lastmile_qr_scan", "ios": "https://dc.lft.to/lastmile_qr_scan"}, "name": "a01176543e74142fc74e1a65fe542913", "is_reserved": 0}, {"is_disabled": 0, "fusion_lon": 0.0, "fusion_lat": 0.0, "lat": 38.9307945, "type": "electric_scooter", "lon": -77.036285, "bike_id": "2e85de0456cdb5a0ad7ac379b1e6f117", "rental_uris": {"android": "https://dc.lft.to/lastmile_qr_scan", "ios": "https://dc.lft.to/lastmile_qr_scan"}, "name": "2e85de0456cdb5a0ad7ac379b1e6f117", "is_reserved": 0}, {"is_disabled": 0, "fusion_lon": 0.0, "fusion_lat": 0.0, "lat": 38.913946833333334, "type": "electric_scooter", "lon": -77.02385333333334, "bike_id": "f404be6bc72d594e7599464e13512a2d", "rental_uris": {"android": "https://dc.lft.to/lastmile_qr_scan", "ios": "https://dc.lft.to/lastmile_qr_scan"}, "name": "f404be6bc72d594e7599464e13512a2d", "is_reserved": 0}, {"is_disabled": 0, "fusion_lon": 0.0, "fusion_lat": 0.0, "lat": 38.898848666666666, "type": "electric_scooter", "lon": -76.99140666666666, "bike_id": "fa478969b0a2b7be8ef8428a73db56ca", "rental_uris": {"android": "https://dc.lft.to/lastmile_qr_scan", "ios": "https://dc.lft.to/lastmile_qr_scan"}, "name": "fa478969b0a2b7be8ef8428a73db56ca", "is_reserved": 0}, {"is_disabled": 0, "fusion_lon": 0.0, "fusion_lat": 0.0, "lat": 38.92316733333333, "type": "electric_scooter", "lon": -77.04005033333334, "bike_id": "19ed32e4ed55453ec9ae9b298f43872e", "rental_uris": {"android": "https://dc.lft.to/lastmile_qr_scan", "ios": "https://dc.lft.to/lastmile_qr_scan"}, "name": "19ed32e4ed55453ec9ae9b298f43872e", "is_reserved": 0}, {"is_disabled": 0, "fusion_lon": 0.0, "fusion_lat": 0.0, "lat": 38.848926666666664, "type": "electric_scooter", "lon": -77.00522166666667, "bike_id": "259b1ff4d8060602c8042ed50bd0bd60", "rental_uris": {"android": "https://dc.lft.to/lastmile_qr_scan", "ios": "https://dc.lft.to/lastmile_qr_scan"}, "name": "259b1ff4d8060602c8042ed50bd0bd60", "is_reserved": 0}, {"is_disabled": 0, "fusion_lon": 0.0, "fusion_lat": 0.0, "lat": 38.93703, "type": "electric_scooter", "lon": -77.06101716666667, "bike_id": "637c9291f6d8c25927fa8a4a220877c2", "rental_uris": {"android": "https://dc.lft.to/lastmile_qr_scan", "ios": "https://dc.lft.to/lastmile_qr_scan"}, "name": "637c9291f6d8c25927fa8a4a220877c2", "is_reserved": 0}, {"is_disabled": 0, "fusion_lon": 0.0, "fusion_lat": 0.0, "lat": 38.913374166666664, "type": "electric_scooter", "lon": -77.04188233333333, "bike_id": "9c0acdff42ba24a40d5245163a1e6be5", "rental_uris": {"android": "https://dc.lft.to/lastmile_qr_scan", "ios": "https://dc.lft.to/lastmile_qr_scan"}, "name": "9c0acdff42ba24a40d5245163a1e6be5", "is_reserved": 0}, {"is_disabled": 0, "fusion_lon": 0.0, "fusion_lat": 0.0, "lat": 38.8984785, "type": "electric_scooter", "lon": -77.00745383333333, "bike_id": "d51ead612e3b5c988e9344177c76b446", "rental_uris": {"android": "https://dc.lft.to/lastmile_qr_scan", "ios": "https://dc.lft.to/lastmile_qr_scan"}, "name": "d51ead612e3b5c988e9344177c76b446", "is_reserved": 0}, {"is_disabled": 0, "fusion_lon": 0.0, "fusion_lat": 0.0, "lat": 38.9141665, "type": "electric_scooter", "lon": -77.035823, "bike_id": "e09dde00185aa3e4ad4c552277c64b6a", "rental_uris": {"android": "https://dc.lft.to/lastmile_qr_scan", "ios": "https://dc.lft.to/lastmile_qr_scan"}, "name": "e09dde00185aa3e4ad4c552277c64b6a", "is_reserved": 0}, {"is_disabled": 0, "fusion_lon": 0.0, "fusion_lat": 0.0, "lat": 38.90584533333333, "type": "electric_scooter", "lon": -77.05136116666667, "bike_id": "fd873715057b58218d7db82100977b7a", "rental_uris": {"android": "https://dc.lft.to/lastmile_qr_scan", "ios": "https://dc.lft.to/lastmile_qr_scan"}, "name": "fd873715057b58218d7db82100977b7a", "is_reserved": 0}, {"is_disabled": 0, "fusion_lon": 0.0, "fusion_lat": 0.0, "lat": 38.91035433333333, "type": "electric_scooter", "lon": -77.0138345, "bike_id": "7a4961cae82cebb54ff79d5e6f130822", "rental_uris": {"android": "https://dc.lft.to/lastmile_qr_scan", "ios": "https://dc.lft.to/lastmile_qr_scan"}, "name": "7a4961cae82cebb54ff79d5e6f130822", "is_reserved": 0}, {"is_disabled": 0, "fusion_lon": 0.0, "fusion_lat": 0.0, "lat": 38.86359216666666, "type": "electric_scooter", "lon": -76.99065316666666, "bike_id": "b0e2ce05ae56697f2364fdb35d066892", "rental_uris": {"android": "https://dc.lft.to/lastmile_qr_scan", "ios": "https://dc.lft.to/lastmile_qr_scan"}, "name": "b0e2ce05ae56697f2364fdb35d066892", "is_reserved": 0}, {"is_disabled": 0, "fusion_lon": 0.0, "fusion_lat": 0.0, "lat": 38.981309, "type": "electric_bike", "lon": -77.0077005, "bike_id": "1821e6326b26739fbc73cf01e5d18585", "rental_uris": {"android": "https://dc.lft.to/lastmile_qr_scan", "ios": "https://dc.lft.to/lastmile_qr_scan"}, "name": "1821e6326b26739fbc73cf01e5d18585", "is_reserved": 0}, {"is_disabled": 0, "fusion_lon": 0.0, "fusion_lat": 0.0, "lat": 38.877782, "type": "electric_scooter", "lon": -77.01433783333333, "bike_id": "43457ce8abf9bf2b2d7410dac6bb7d82", "rental_uris": {"android": "https://dc.lft.to/lastmile_qr_scan", "ios": "https://dc.lft.to/lastmile_qr_scan"}, "name": "43457ce8abf9bf2b2d7410dac6bb7d82", "is_reserved": 0}, {"is_disabled": 0, "fusion_lon": 0.0, "fusion_lat": 0.0, "lat": 38.89936766666667, "type": "electric_scooter", "lon": -77.0392075, "bike_id": "d4c7c0efbb29a98f2344dc06ff58da0e", "rental_uris": {"android": "https://dc.lft.to/lastmile_qr_scan", "ios": "https://dc.lft.to/lastmile_qr_scan"}, "name": "d4c7c0efbb29a98f2344dc06ff58da0e", "is_reserved": 0}, {"is_disabled": 0, "fusion_lon": 0.0, "fusion_lat": 0.0, "lat": 38.902056, "type": "electric_scooter", "lon": -77.02378633333333, "bike_id": "e07945f4e585603dc7eb3f1c1db643a5", "rental_uris": {"android": "https://dc.lft.to/lastmile_qr_scan", "ios": "https://dc.lft.to/lastmile_qr_scan"}, "name": "e07945f4e585603dc7eb3f1c1db643a5", "is_reserved": 0}, {"is_disabled": 0, "fusion_lon": 0.0, "fusion_lat": 0.0, "lat": 38.87958416666667, "type": "electric_scooter", "lon": -77.02421633333333, "bike_id": "b63a0e95803d9bd00f7c3275c319bc36", "rental_uris": {"android": "https://dc.lft.to/lastmile_qr_scan", "ios": "https://dc.lft.to/lastmile_qr_scan"}, "name": "b63a0e95803d9bd00f7c3275c319bc36", "is_reserved": 0}, {"is_disabled": 0, "fusion_lon": 0.0, "fusion_lat": 0.0, "lat": 38.9133625, "type": "electric_scooter", "lon": -77.0324905, "bike_id": "4188e269f63f9e8f716ed5c431d71db9", "rental_uris": {"android": "https://dc.lft.to/lastmile_qr_scan", "ios": "https://dc.lft.to/lastmile_qr_scan"}, "name": "4188e269f63f9e8f716ed5c431d71db9", "is_reserved": 0}, {"is_disabled": 0, "fusion_lon": 0.0, "fusion_lat": 0.0, "lat": 38.905343333333334, "type": "electric_scooter", "lon": -77.03417333333333, "bike_id": "7edca050729d15a0a70c26a1b37cfe83", "rental_uris": {"android": "https://dc.lft.to/lastmile_qr_scan", "ios": "https://dc.lft.to/lastmile_qr_scan"}, "name": "7edca050729d15a0a70c26a1b37cfe83", "is_reserved": 0}, {"is_disabled": 0, "fusion_lon": 0.0, "fusion_lat": 0.0, "lat": 38.9003355, "type": "electric_scooter", "lon": -77.02393816666667, "bike_id": "73915c9607e0d6c56f82813936ba9cf7", "rental_uris": {"android": "https://dc.lft.to/lastmile_qr_scan", "ios": "https://dc.lft.to/lastmile_qr_scan"}, "name": "73915c9607e0d6c56f82813936ba9cf7", "is_reserved": 0}, {"is_disabled": 0, "fusion_lon": 0.0, "fusion_lat": 0.0, "lat": 38.93495466666667, "type": "electric_scooter", "lon": -77.0241975, "bike_id": "da9ee68dbf2940a82252d3c3600188f0", "rental_uris": {"android": "https://dc.lft.to/lastmile_qr_scan", "ios": "https://dc.lft.to/lastmile_qr_scan"}, "name": "da9ee68dbf2940a82252d3c3600188f0", "is_reserved": 0}, {"is_disabled": 0, "fusion_lon": 0.0, "fusion_lat": 0.0, "lat": 38.891896, "type": "electric_scooter", "lon": -76.98838583333334, "bike_id": "29f5749bf51e7fef7dc27e51a4f7f314", "rental_uris": {"android": "https://dc.lft.to/lastmile_qr_scan", "ios": "https://dc.lft.to/lastmile_qr_scan"}, "name": "29f5749bf51e7fef7dc27e51a4f7f314", "is_reserved": 0}, {"is_disabled": 0, "fusion_lon": 0.0, "fusion_lat": 0.0, "lat": 38.904424, "type": "electric_scooter", "lon": -77.024174, "bike_id": "8147bc45799a05b96ee8f5bcf0f8edf1", "rental_uris": {"android": "https://dc.lft.to/lastmile_qr_scan", "ios": "https://dc.lft.to/lastmile_qr_scan"}, "name": "8147bc45799a05b96ee8f5bcf0f8edf1", "is_reserved": 0}, {"is_disabled": 0, "fusion_lon": 0.0, "fusion_lat": 0.0, "lat": 38.905648666666664, "type": "electric_scooter", "lon": -77.0276205, "bike_id": "0b79491eca9c6a1f62389a85d1e40be7", "rental_uris": {"android": "https://dc.lft.to/lastmile_qr_scan", "ios": "https://dc.lft.to/lastmile_qr_scan"}, "name": "0b79491eca9c6a1f62389a85d1e40be7", "is_reserved": 0}, {"is_disabled": 0, "fusion_lon": 0.0, "fusion_lat": 0.0, "lat": 38.8528395, "type": "electric_bike", "lon": -76.98162566666667, "bike_id": "db4512ccab305d9c6ec326546ed5974a", "rental_uris": {"android": "https://dc.lft.to/lastmile_qr_scan", "ios": "https://dc.lft.to/lastmile_qr_scan"}, "name": "db4512ccab305d9c6ec326546ed5974a", "is_reserved": 0}, {"is_disabled": 0, "fusion_lon": 0.0, "fusion_lat": 0.0, "lat": 38.857813666666665, "type": "electric_bike", "lon": -76.98767683333334, "bike_id": "b2cbc00fd9eb62adf03ddcaaeb8beb88", "rental_uris": {"android": "https://dc.lft.to/lastmile_qr_scan", "ios": "https://dc.lft.to/lastmile_qr_scan"}, "name": "b2cbc00fd9eb62adf03ddcaaeb8beb88", "is_reserved": 0}, {"is_disabled": 0, "fusion_lon": 0.0, "fusion_lat": 0.0, "lat": 38.911220666666665, "type": "electric_scooter", "lon": -77.04213016666667, "bike_id": "b2f55df826699d3ce57f7e57fcc60b00", "rental_uris": {"android": "https://dc.lft.to/lastmile_qr_scan", "ios": "https://dc.lft.to/lastmile_qr_scan"}, "name": "b2f55df826699d3ce57f7e57fcc60b00", "is_reserved": 0}, {"is_disabled": 0, "fusion_lon": 0.0, "fusion_lat": 0.0, "lat": 38.9433215, "type": "electric_bike", "lon": -77.01478116666667, "bike_id": "bed6dc6f429b282ab363a3ca56b2376a", "rental_uris": {"android": "https://dc.lft.to/lastmile_qr_scan", "ios": "https://dc.lft.to/lastmile_qr_scan"}, "name": "bed6dc6f429b282ab363a3ca56b2376a", "is_reserved": 0}, {"is_disabled": 0, "fusion_lon": 0.0, "fusion_lat": 0.0, "lat": 38.892216, "type": "electric_scooter", "lon": -77.04863533333334, "bike_id": "bcfd59f9fa53a70cb0b124580580d524", "rental_uris": {"android": "https://dc.lft.to/lastmile_qr_scan", "ios": "https://dc.lft.to/lastmile_qr_scan"}, "name": "bcfd59f9fa53a70cb0b124580580d524", "is_reserved": 0}, {"is_disabled": 0, "fusion_lon": 0.0, "fusion_lat": 0.0, "lat": 38.900027, "type": "electric_scooter", "lon": -77.03363266666666, "bike_id": "6766a28bfb9e71eea6778fc532e37d88", "rental_uris": {"android": "https://dc.lft.to/lastmile_qr_scan", "ios": "https://dc.lft.to/lastmile_qr_scan"}, "name": "6766a28bfb9e71eea6778fc532e37d88", "is_reserved": 0}, {"is_disabled": 0, "fusion_lon": 0.0, "fusion_lat": 0.0, "lat": 38.92113616666666, "type": "electric_scooter", "lon": -77.04391733333334, "bike_id": "ca646e4cd9ffbe5e2543c3eb55683310", "rental_uris": {"android": "https://dc.lft.to/lastmile_qr_scan", "ios": "https://dc.lft.to/lastmile_qr_scan"}, "name": "ca646e4cd9ffbe5e2543c3eb55683310", "is_reserved": 0}, {"is_disabled": 0, "fusion_lon": 0.0, "fusion_lat": 0.0, "lat": 38.929658, "type": "electric_scooter", "lon": -77.042062, "bike_id": "0a1e78e8ab03cfa711c06f07fba2183d", "rental_uris": {"android": "https://dc.lft.to/lastmile_qr_scan", "ios": "https://dc.lft.to/lastmile_qr_scan"}, "name": "0a1e78e8ab03cfa711c06f07fba2183d", "is_reserved": 0}, {"is_disabled": 0, "fusion_lon": 0.0, "fusion_lat": 0.0, "lat": 38.94616533333333, "type": "electric_scooter", "lon": -77.03623066666667, "bike_id": "98c1e5cefd6d9f5513856cb260bd6786", "rental_uris": {"android": "https://dc.lft.to/lastmile_qr_scan", "ios": "https://dc.lft.to/lastmile_qr_scan"}, "name": "98c1e5cefd6d9f5513856cb260bd6786", "is_reserved": 0}, {"is_disabled": 0, "fusion_lon": 0.0, "fusion_lat": 0.0, "lat": 38.951719, "type": "electric_scooter", "lon": -77.03335783333333, "bike_id": "a235df56b40f017019e9abaeaa3586ca", "rental_uris": {"android": "https://dc.lft.to/lastmile_qr_scan", "ios": "https://dc.lft.to/lastmile_qr_scan"}, "name": "a235df56b40f017019e9abaeaa3586ca", "is_reserved": 0}, {"is_disabled": 0, "fusion_lon": 0.0, "fusion_lat": 0.0, "lat": 38.912616, "type": "electric_scooter", "lon": -77.03367683333333, "bike_id": "d2c668009afd9c3e0e6144317bd5358f", "rental_uris": {"android": "https://dc.lft.to/lastmile_qr_scan", "ios": "https://dc.lft.to/lastmile_qr_scan"}, "name": "d2c668009afd9c3e0e6144317bd5358f", "is_reserved": 0}, {"is_disabled": 0, "fusion_lon": 0.0, "fusion_lat": 0.0, "lat": 38.91310033333333, "type": "electric_scooter", "lon": -77.00848683333334, "bike_id": "7513516b8b7c12e3c383b47fb42eb14e", "rental_uris": {"android": "https://dc.lft.to/lastmile_qr_scan", "ios": "https://dc.lft.to/lastmile_qr_scan"}, "name": "7513516b8b7c12e3c383b47fb42eb14e", "is_reserved": 0}, {"is_disabled": 0, "fusion_lon": 0.0, "fusion_lat": 0.0, "lat": 38.96622716666667, "type": "electric_scooter", "lon": -77.03537416666667, "bike_id": "48107fb6995febf74fcca3abbe90dd27", "rental_uris": {"android": "https://dc.lft.to/lastmile_qr_scan", "ios": "https://dc.lft.to/lastmile_qr_scan"}, "name": "48107fb6995febf74fcca3abbe90dd27", "is_reserved": 0}, {"is_disabled": 0, "fusion_lon": 0.0, "fusion_lat": 0.0, "lat": 38.914641, "type": "electric_scooter", "lon": -77.0383235, "bike_id": "52cb87d36dcb2c76c04005efa820ef68", "rental_uris": {"android": "https://dc.lft.to/lastmile_qr_scan", "ios": "https://dc.lft.to/lastmile_qr_scan"}, "name": "52cb87d36dcb2c76c04005efa820ef68", "is_reserved": 0}, {"is_disabled": 0, "fusion_lon": 0.0, "fusion_lat": 0.0, "lat": 38.934320166666666, "type": "electric_scooter", "lon": -77.02588033333333, "bike_id": "80bb4e40d6eb999f58c7e5024f0ff361", "rental_uris": {"android": "https://dc.lft.to/lastmile_qr_scan", "ios": "https://dc.lft.to/lastmile_qr_scan"}, "name": "80bb4e40d6eb999f58c7e5024f0ff361", "is_reserved": 0}, {"is_disabled": 0, "fusion_lon": 0.0, "fusion_lat": 0.0, "lat": 38.917025333333335, "type": "electric_scooter", "lon": -77.03674716666667, "bike_id": "5367c6441a6cffd39a1f1979d6ca45ca", "rental_uris": {"android": "https://dc.lft.to/lastmile_qr_scan", "ios": "https://dc.lft.to/lastmile_qr_scan"}, "name": "5367c6441a6cffd39a1f1979d6ca45ca", "is_reserved": 0}, {"is_disabled": 0, "fusion_lon": 0.0, "fusion_lat": 0.0, "lat": 38.88873366666667, "type": "electric_bike", "lon": -77.0285925, "bike_id": "b6543e0f81765292b4f55eec2f3f4a7f", "rental_uris": {"android": "https://dc.lft.to/lastmile_qr_scan", "ios": "https://dc.lft.to/lastmile_qr_scan"}, "name": "b6543e0f81765292b4f55eec2f3f4a7f", "is_reserved": 0}, {"is_disabled": 0, "fusion_lon": 0.0, "fusion_lat": 0.0, "lat": 38.91262583333334, "type": "electric_scooter", "lon": -77.03677983333333, "bike_id": "cf436e1f9720a48d2f07fe4e02f1582b", "rental_uris": {"android": "https://dc.lft.to/lastmile_qr_scan", "ios": "https://dc.lft.to/lastmile_qr_scan"}, "name": "cf436e1f9720a48d2f07fe4e02f1582b", "is_reserved": 0}, {"is_disabled": 0, "fusion_lon": 0.0, "fusion_lat": 0.0, "lat": 38.8995935, "type": "electric_scooter", "lon": -77.01611483333333, "bike_id": "ff4d07d16be742dcdbbf988716f655ab", "rental_uris": {"android": "https://dc.lft.to/lastmile_qr_scan", "ios": "https://dc.lft.to/lastmile_qr_scan"}, "name": "ff4d07d16be742dcdbbf988716f655ab", "is_reserved": 0}, {"is_disabled": 0, "fusion_lon": 0.0, "fusion_lat": 0.0, "lat": 38.86523916666667, "type": "electric_scooter", "lon": -76.98968466666666, "bike_id": "b4339a04fbaecd374167aa7c424ad2e2", "rental_uris": {"android": "https://dc.lft.to/lastmile_qr_scan", "ios": "https://dc.lft.to/lastmile_qr_scan"}, "name": "b4339a04fbaecd374167aa7c424ad2e2", "is_reserved": 0}, {"is_disabled": 0, "fusion_lon": 0.0, "fusion_lat": 0.0, "lat": 38.895550666666665, "type": "electric_scooter", "lon": -76.94876416666666, "bike_id": "ba32f5174284c603ed29414c4bd0cb16", "rental_uris": {"android": "https://dc.lft.to/lastmile_qr_scan", "ios": "https://dc.lft.to/lastmile_qr_scan"}, "name": "ba32f5174284c603ed29414c4bd0cb16", "is_reserved": 0}, {"is_disabled": 0, "fusion_lon": 0.0, "fusion_lat": 0.0, "lat": 38.9018935, "type": "electric_scooter", "lon": -77.05013583333333, "bike_id": "ee07fa742797e7ad76d89dcc8f8ae6ce", "rental_uris": {"android": "https://dc.lft.to/lastmile_qr_scan", "ios": "https://dc.lft.to/lastmile_qr_scan"}, "name": "ee07fa742797e7ad76d89dcc8f8ae6ce", "is_reserved": 0}, {"is_disabled": 0, "fusion_lon": 0.0, "fusion_lat": 0.0, "lat": 38.893280833333336, "type": "electric_scooter", "lon": -77.021273, "bike_id": "dd9b2e0693ff5985d67434089a27e1e3", "rental_uris": {"android": "https://dc.lft.to/lastmile_qr_scan", "ios": "https://dc.lft.to/lastmile_qr_scan"}, "name": "dd9b2e0693ff5985d67434089a27e1e3", "is_reserved": 0}, {"is_disabled": 0, "fusion_lon": 0.0, "fusion_lat": 0.0, "lat": 38.93148716666666, "type": "electric_scooter", "lon": -77.041283, "bike_id": "36cc100781e8e86db6bd45680e356982", "rental_uris": {"android": "https://dc.lft.to/lastmile_qr_scan", "ios": "https://dc.lft.to/lastmile_qr_scan"}, "name": "36cc100781e8e86db6bd45680e356982", "is_reserved": 0}, {"is_disabled": 0, "fusion_lon": 0.0, "fusion_lat": 0.0, "lat": 38.90366266666667, "type": "electric_scooter", "lon": -77.04002016666666, "bike_id": "90e2c804c976ce0ea744c6f3dfbda883", "rental_uris": {"android": "https://dc.lft.to/lastmile_qr_scan", "ios": "https://dc.lft.to/lastmile_qr_scan"}, "name": "90e2c804c976ce0ea744c6f3dfbda883", "is_reserved": 0}, {"is_disabled": 0, "fusion_lon": 0.0, "fusion_lat": 0.0, "lat": 39.022954666666664, "type": "electric_bike", "lon": -77.021068, "bike_id": "bfbf3ae8ae1a4a56c44e2e0daf568e5a", "rental_uris": {"android": "https://dc.lft.to/lastmile_qr_scan", "ios": "https://dc.lft.to/lastmile_qr_scan"}, "name": "bfbf3ae8ae1a4a56c44e2e0daf568e5a", "is_reserved": 0}, {"is_disabled": 0, "fusion_lon": 0.0, "fusion_lat": 0.0, "lat": 38.90868066666667, "type": "electric_scooter", "lon": -77.03010483333334, "bike_id": "9aece11f52d8d08a82f29b9e3bf6c5e5", "rental_uris": {"android": "https://dc.lft.to/lastmile_qr_scan", "ios": "https://dc.lft.to/lastmile_qr_scan"}, "name": "9aece11f52d8d08a82f29b9e3bf6c5e5", "is_reserved": 0}, {"is_disabled": 0, "fusion_lon": 0.0, "fusion_lat": 0.0, "lat": 38.89843483333333, "type": "electric_scooter", "lon": -76.94498033333333, "bike_id": "37c831ed54d888a6f7bb0bf1fbfa23f4", "rental_uris": {"android": "https://dc.lft.to/lastmile_qr_scan", "ios": "https://dc.lft.to/lastmile_qr_scan"}, "name": "37c831ed54d888a6f7bb0bf1fbfa23f4", "is_reserved": 0}, {"is_disabled": 0, "fusion_lon": 0.0, "fusion_lat": 0.0, "lat": 38.91456083333333, "type": "electric_scooter", "lon": -76.9844775, "bike_id": "d5cc3560bad272d71bd5aa8b82b7dd18", "rental_uris": {"android": "https://dc.lft.to/lastmile_qr_scan", "ios": "https://dc.lft.to/lastmile_qr_scan"}, "name": "d5cc3560bad272d71bd5aa8b82b7dd18", "is_reserved": 0}, {"is_disabled": 0, "fusion_lon": 0.0, "fusion_lat": 0.0, "lat": 38.94080733333333, "type": "electric_scooter", "lon": -77.02908866666667, "bike_id": "e848a1c3f7279e4a3907547c9c84e436", "rental_uris": {"android": "https://dc.lft.to/lastmile_qr_scan", "ios": "https://dc.lft.to/lastmile_qr_scan"}, "name": "e848a1c3f7279e4a3907547c9c84e436", "is_reserved": 0}, {"is_disabled": 0, "fusion_lon": 0.0, "fusion_lat": 0.0, "lat": 38.895262333333335, "type": "electric_scooter", "lon": -77.048519, "bike_id": "c411c168aeb59895e64e81c3895b764d", "rental_uris": {"android": "https://dc.lft.to/lastmile_qr_scan", "ios": "https://dc.lft.to/lastmile_qr_scan"}, "name": "c411c168aeb59895e64e81c3895b764d", "is_reserved": 0}, {"is_disabled": 0, "fusion_lon": 0.0, "fusion_lat": 0.0, "lat": 38.90723083333334, "type": "electric_scooter", "lon": -77.02958416666667, "bike_id": "c678353d92b58b7e21d7305df06c8fbd", "rental_uris": {"android": "https://dc.lft.to/lastmile_qr_scan", "ios": "https://dc.lft.to/lastmile_qr_scan"}, "name": "c678353d92b58b7e21d7305df06c8fbd", "is_reserved": 0}, {"is_disabled": 0, "fusion_lon": 0.0, "fusion_lat": 0.0, "lat": 38.92103633333333, "type": "electric_scooter", "lon": -77.0177235, "bike_id": "0ae52d8231426d4edd63f6bb1859026e", "rental_uris": {"android": "https://dc.lft.to/lastmile_qr_scan", "ios": "https://dc.lft.to/lastmile_qr_scan"}, "name": "0ae52d8231426d4edd63f6bb1859026e", "is_reserved": 0}, {"is_disabled": 0, "fusion_lon": 0.0, "fusion_lat": 0.0, "lat": 38.9257035, "type": "electric_scooter", "lon": -77.080548, "bike_id": "f4ec85daa47a304455791b17a15130df", "rental_uris": {"android": "https://dc.lft.to/lastmile_qr_scan", "ios": "https://dc.lft.to/lastmile_qr_scan"}, "name": "f4ec85daa47a304455791b17a15130df", "is_reserved": 0}, {"is_disabled": 0, "fusion_lon": 0.0, "fusion_lat": 0.0, "lat": 38.93961983333333, "type": "electric_bike", "lon": -77.3609585, "bike_id": "0e8b328b92557659b47164df878ab0e4", "rental_uris": {"android": "https://dc.lft.to/lastmile_qr_scan", "ios": "https://dc.lft.to/lastmile_qr_scan"}, "name": "0e8b328b92557659b47164df878ab0e4", "is_reserved": 0}, {"is_disabled": 0, "fusion_lon": 0.0, "fusion_lat": 0.0, "lat": 38.929699666666664, "type": "electric_scooter", "lon": -77.02795266666666, "bike_id": "4bce0a451360ef94794bb2466e1fab27", "rental_uris": {"android": "https://dc.lft.to/lastmile_qr_scan", "ios": "https://dc.lft.to/lastmile_qr_scan"}, "name": "4bce0a451360ef94794bb2466e1fab27", "is_reserved": 0}, {"is_disabled": 0, "fusion_lon": 0.0, "fusion_lat": 0.0, "lat": 38.924633166666666, "type": "electric_scooter", "lon": -77.07869066666666, "bike_id": "32e45fd13da1be71f083cca03b7ae56f", "rental_uris": {"android": "https://dc.lft.to/lastmile_qr_scan", "ios": "https://dc.lft.to/lastmile_qr_scan"}, "name": "32e45fd13da1be71f083cca03b7ae56f", "is_reserved": 0}, {"is_disabled": 0, "fusion_lon": 0.0, "fusion_lat": 0.0, "lat": 38.905746666666666, "type": "electric_scooter", "lon": -77.05589466666666, "bike_id": "35b3faf1cd0e4e10e75cbd8b4b69e2fb", "rental_uris": {"android": "https://dc.lft.to/lastmile_qr_scan", "ios": "https://dc.lft.to/lastmile_qr_scan"}, "name": "35b3faf1cd0e4e10e75cbd8b4b69e2fb", "is_reserved": 0}, {"is_disabled": 0, "fusion_lon": 0.0, "fusion_lat": 0.0, "lat": 38.901542, "type": "electric_scooter", "lon": -77.0503145, "bike_id": "099af2cf188f3554fc01387a6314a879", "rental_uris": {"android": "https://dc.lft.to/lastmile_qr_scan", "ios": "https://dc.lft.to/lastmile_qr_scan"}, "name": "099af2cf188f3554fc01387a6314a879", "is_reserved": 0}, {"is_disabled": 0, "fusion_lon": 0.0, "fusion_lat": 0.0, "lat": 38.89498966666667, "type": "electric_scooter", "lon": -76.94883366666667, "bike_id": "c466d0f69b556a108d1a305497965667", "rental_uris": {"android": "https://dc.lft.to/lastmile_qr_scan", "ios": "https://dc.lft.to/lastmile_qr_scan"}, "name": "c466d0f69b556a108d1a305497965667", "is_reserved": 0}, {"is_disabled": 0, "fusion_lon": 0.0, "fusion_lat": 0.0, "lat": 38.9050335, "type": "electric_scooter", "lon": -77.04771233333334, "bike_id": "23af14a6de817db8aefc4b22a30e4968", "rental_uris": {"android": "https://dc.lft.to/lastmile_qr_scan", "ios": "https://dc.lft.to/lastmile_qr_scan"}, "name": "23af14a6de817db8aefc4b22a30e4968", "is_reserved": 0}, {"is_disabled": 0, "fusion_lon": 0.0, "fusion_lat": 0.0, "lat": 38.91304066666667, "type": "electric_scooter", "lon": -77.04665, "bike_id": "6829ec276b3478cf7921d5719b4561ac", "rental_uris": {"android": "https://dc.lft.to/lastmile_qr_scan", "ios": "https://dc.lft.to/lastmile_qr_scan"}, "name": "6829ec276b3478cf7921d5719b4561ac", "is_reserved": 0}, {"is_disabled": 0, "fusion_lon": 0.0, "fusion_lat": 0.0, "lat": 38.9199255, "type": "electric_scooter", "lon": -77.03292716666667, "bike_id": "e8413ac5a022ebad46045316dca707be", "rental_uris": {"android": "https://dc.lft.to/lastmile_qr_scan", "ios": "https://dc.lft.to/lastmile_qr_scan"}, "name": "e8413ac5a022ebad46045316dca707be", "is_reserved": 0}, {"is_disabled": 0, "fusion_lon": 0.0, "fusion_lat": 0.0, "lat": 38.94610383333333, "type": "electric_scooter", "lon": -77.034646, "bike_id": "6a35420eb978a7d3a10e906acea48dc2", "rental_uris": {"android": "https://dc.lft.to/lastmile_qr_scan", "ios": "https://dc.lft.to/lastmile_qr_scan"}, "name": "6a35420eb978a7d3a10e906acea48dc2", "is_reserved": 0}, {"is_disabled": 0, "fusion_lon": 0.0, "fusion_lat": 0.0, "lat": 38.9205365, "type": "electric_scooter", "lon": -77.041912, "bike_id": "8589f7d9e32a7499f1757bd9b94bec1f", "rental_uris": {"android": "https://dc.lft.to/lastmile_qr_scan", "ios": "https://dc.lft.to/lastmile_qr_scan"}, "name": "8589f7d9e32a7499f1757bd9b94bec1f", "is_reserved": 0}, {"is_disabled": 0, "fusion_lon": 0.0, "fusion_lat": 0.0, "lat": 38.893552, "type": "electric_scooter", "lon": -77.021855, "bike_id": "f70b7a07e5ef1d9c4fb118b160a80590", "rental_uris": {"android": "https://dc.lft.to/lastmile_qr_scan", "ios": "https://dc.lft.to/lastmile_qr_scan"}, "name": "f70b7a07e5ef1d9c4fb118b160a80590", "is_reserved": 0}, {"is_disabled": 0, "fusion_lon": 0.0, "fusion_lat": 0.0, "lat": 38.904955666666666, "type": "electric_scooter", "lon": -77.02958633333333, "bike_id": "35cb449202b6404df16eff761ddc91e2", "rental_uris": {"android": "https://dc.lft.to/lastmile_qr_scan", "ios": "https://dc.lft.to/lastmile_qr_scan"}, "name": "35cb449202b6404df16eff761ddc91e2", "is_reserved": 0}, {"is_disabled": 0, "fusion_lon": 0.0, "fusion_lat": 0.0, "lat": 38.9117485, "type": "electric_scooter", "lon": -77.02690416666667, "bike_id": "820f62e3a79aab03d0e9d6b18dcaf834", "rental_uris": {"android": "https://dc.lft.to/lastmile_qr_scan", "ios": "https://dc.lft.to/lastmile_qr_scan"}, "name": "820f62e3a79aab03d0e9d6b18dcaf834", "is_reserved": 0}, {"is_disabled": 0, "fusion_lon": 0.0, "fusion_lat": 0.0, "lat": 38.9199485, "type": "electric_scooter", "lon": -77.025443, "bike_id": "9a591a6566b2942ec1435fa4d6f1e570", "rental_uris": {"android": "https://dc.lft.to/lastmile_qr_scan", "ios": "https://dc.lft.to/lastmile_qr_scan"}, "name": "9a591a6566b2942ec1435fa4d6f1e570", "is_reserved": 0}, {"is_disabled": 0, "fusion_lon": 0.0, "fusion_lat": 0.0, "lat": 38.906635333333334, "type": "electric_scooter", "lon": -77.0271225, "bike_id": "bf2eaf8e477636bc73b3c2dc23383f1f", "rental_uris": {"android": "https://dc.lft.to/lastmile_qr_scan", "ios": "https://dc.lft.to/lastmile_qr_scan"}, "name": "bf2eaf8e477636bc73b3c2dc23383f1f", "is_reserved": 0}, {"is_disabled": 0, "fusion_lon": 0.0, "fusion_lat": 0.0, "lat": 38.84426916666666, "type": "electric_scooter", "lon": -76.99781933333334, "bike_id": "3591b486e800b3ec2e96e3493322c73d", "rental_uris": {"android": "https://dc.lft.to/lastmile_qr_scan", "ios": "https://dc.lft.to/lastmile_qr_scan"}, "name": "3591b486e800b3ec2e96e3493322c73d", "is_reserved": 0}, {"is_disabled": 0, "fusion_lon": 0.0, "fusion_lat": 0.0, "lat": 38.89315116666667, "type": "electric_scooter", "lon": -77.0221315, "bike_id": "9d00b2be09e02b2e7fb10c9fff29dde0", "rental_uris": {"android": "https://dc.lft.to/lastmile_qr_scan", "ios": "https://dc.lft.to/lastmile_qr_scan"}, "name": "9d00b2be09e02b2e7fb10c9fff29dde0", "is_reserved": 0}, {"is_disabled": 0, "fusion_lon": 0.0, "fusion_lat": 0.0, "lat": 38.92335716666667, "type": "electric_scooter", "lon": -77.04749583333333, "bike_id": "30235cbdf91e34ea58c19dade73022b1", "rental_uris": {"android": "https://dc.lft.to/lastmile_qr_scan", "ios": "https://dc.lft.to/lastmile_qr_scan"}, "name": "30235cbdf91e34ea58c19dade73022b1", "is_reserved": 0}, {"is_disabled": 0, "fusion_lon": 0.0, "fusion_lat": 0.0, "lat": 38.91034066666667, "type": "electric_scooter", "lon": -77.04061, "bike_id": "b66575c0b81c6cd1a1cd06fed0306a48", "rental_uris": {"android": "https://dc.lft.to/lastmile_qr_scan", "ios": "https://dc.lft.to/lastmile_qr_scan"}, "name": "b66575c0b81c6cd1a1cd06fed0306a48", "is_reserved": 0}, {"is_disabled": 0, "fusion_lon": 0.0, "fusion_lat": 0.0, "lat": 38.90504633333333, "type": "electric_scooter", "lon": -76.98856533333333, "bike_id": "ef19ea78c5942ca8b0eaae4ba0b598db", "rental_uris": {"android": "https://dc.lft.to/lastmile_qr_scan", "ios": "https://dc.lft.to/lastmile_qr_scan"}, "name": "ef19ea78c5942ca8b0eaae4ba0b598db", "is_reserved": 0}, {"is_disabled": 0, "fusion_lon": 0.0, "fusion_lat": 0.0, "lat": 38.893700833333334, "type": "electric_scooter", "lon": -76.95001633333334, "bike_id": "0c90ce4b5815f0795e8b8546f4e659f1", "rental_uris": {"android": "https://dc.lft.to/lastmile_qr_scan", "ios": "https://dc.lft.to/lastmile_qr_scan"}, "name": "0c90ce4b5815f0795e8b8546f4e659f1", "is_reserved": 0}, {"is_disabled": 0, "fusion_lon": 0.0, "fusion_lat": 0.0, "lat": 38.892314999999996, "type": "electric_scooter", "lon": -77.0436355, "bike_id": "d122951dd765796f2ec9f0a110a54583", "rental_uris": {"android": "https://dc.lft.to/lastmile_qr_scan", "ios": "https://dc.lft.to/lastmile_qr_scan"}, "name": "d122951dd765796f2ec9f0a110a54583", "is_reserved": 0}, {"is_disabled": 0, "fusion_lon": 0.0, "fusion_lat": 0.0, "lat": 38.952799666666664, "type": "electric_scooter", "lon": -77.068568, "bike_id": "294618bedfa73cadec68ae61f8bf605e", "rental_uris": {"android": "https://dc.lft.to/lastmile_qr_scan", "ios": "https://dc.lft.to/lastmile_qr_scan"}, "name": "294618bedfa73cadec68ae61f8bf605e", "is_reserved": 0}, {"is_disabled": 0, "fusion_lon": 0.0, "fusion_lat": 0.0, "lat": 38.936042, "type": "electric_scooter", "lon": -77.05859116666667, "bike_id": "a815e570524419c474965fc65ccd8d5e", "rental_uris": {"android": "https://dc.lft.to/lastmile_qr_scan", "ios": "https://dc.lft.to/lastmile_qr_scan"}, "name": "a815e570524419c474965fc65ccd8d5e", "is_reserved": 0}, {"is_disabled": 0, "fusion_lon": 0.0, "fusion_lat": 0.0, "lat": 38.905379, "type": "electric_scooter", "lon": -76.98780783333333, "bike_id": "e7c1f225302ba3fc4d9e1e15f6fe6a7b", "rental_uris": {"android": "https://dc.lft.to/lastmile_qr_scan", "ios": "https://dc.lft.to/lastmile_qr_scan"}, "name": "e7c1f225302ba3fc4d9e1e15f6fe6a7b", "is_reserved": 0}, {"is_disabled": 0, "fusion_lon": 0.0, "fusion_lat": 0.0, "lat": 38.895754, "type": "electric_scooter", "lon": -77.021682, "bike_id": "1316e39df2bff296c41651e0562a8700", "rental_uris": {"android": "https://dc.lft.to/lastmile_qr_scan", "ios": "https://dc.lft.to/lastmile_qr_scan"}, "name": "1316e39df2bff296c41651e0562a8700", "is_reserved": 0}, {"is_disabled": 0, "fusion_lon": 0.0, "fusion_lat": 0.0, "lat": 38.858698833333335, "type": "electric_scooter", "lon": -76.99025866666666, "bike_id": "164ddd3c44b5fa4eb3d28515c6437bbf", "rental_uris": {"android": "https://dc.lft.to/lastmile_qr_scan", "ios": "https://dc.lft.to/lastmile_qr_scan"}, "name": "164ddd3c44b5fa4eb3d28515c6437bbf", "is_reserved": 0}, {"is_disabled": 0, "fusion_lon": 0.0, "fusion_lat": 0.0, "lat": 38.90961433333333, "type": "electric_scooter", "lon": -77.0342395, "bike_id": "2dc90ca92942f00c8fe6f9e665bad180", "rental_uris": {"android": "https://dc.lft.to/lastmile_qr_scan", "ios": "https://dc.lft.to/lastmile_qr_scan"}, "name": "2dc90ca92942f00c8fe6f9e665bad180", "is_reserved": 0}, {"is_disabled": 0, "fusion_lon": 0.0, "fusion_lat": 0.0, "lat": 38.907764, "type": "electric_scooter", "lon": -77.032037, "bike_id": "a289c4bfb2e2ce8a555e54bef4f4569c", "rental_uris": {"android": "https://dc.lft.to/lastmile_qr_scan", "ios": "https://dc.lft.to/lastmile_qr_scan"}, "name": "a289c4bfb2e2ce8a555e54bef4f4569c", "is_reserved": 0}, {"is_disabled": 0, "fusion_lon": 0.0, "fusion_lat": 0.0, "lat": 38.90720616666667, "type": "electric_scooter", "lon": -77.0344, "bike_id": "ddbd4aa27c00e947b7b025ac4767ca11", "rental_uris": {"android": "https://dc.lft.to/lastmile_qr_scan", "ios": "https://dc.lft.to/lastmile_qr_scan"}, "name": "ddbd4aa27c00e947b7b025ac4767ca11", "is_reserved": 0}, {"is_disabled": 0, "fusion_lon": 0.0, "fusion_lat": 0.0, "lat": 38.90697433333333, "type": "electric_scooter", "lon": -77.063092, "bike_id": "1e64e4c4b00aca58b063edbd781f2d2d", "rental_uris": {"android": "https://dc.lft.to/lastmile_qr_scan", "ios": "https://dc.lft.to/lastmile_qr_scan"}, "name": "1e64e4c4b00aca58b063edbd781f2d2d", "is_reserved": 0}, {"is_disabled": 0, "fusion_lon": 0.0, "fusion_lat": 0.0, "lat": 38.8973995, "type": "electric_scooter", "lon": -77.025034, "bike_id": "8f9881796c22518dd03c5ed9ada1a64f", "rental_uris": {"android": "https://dc.lft.to/lastmile_qr_scan", "ios": "https://dc.lft.to/lastmile_qr_scan"}, "name": "8f9881796c22518dd03c5ed9ada1a64f", "is_reserved": 0}, {"is_disabled": 0, "fusion_lon": 0.0, "fusion_lat": 0.0, "lat": 38.8937255, "type": "electric_scooter", "lon": -76.97819, "bike_id": "7258537f11f3a7d6e03721a167d1722f", "rental_uris": {"android": "https://dc.lft.to/lastmile_qr_scan", "ios": "https://dc.lft.to/lastmile_qr_scan"}, "name": "7258537f11f3a7d6e03721a167d1722f", "is_reserved": 0}, {"is_disabled": 0, "fusion_lon": 0.0, "fusion_lat": 0.0, "lat": 38.893092, "type": "electric_scooter", "lon": -77.02205233333333, "bike_id": "3dd5276e9c4df639d1f729af2a01fab3", "rental_uris": {"android": "https://dc.lft.to/lastmile_qr_scan", "ios": "https://dc.lft.to/lastmile_qr_scan"}, "name": "3dd5276e9c4df639d1f729af2a01fab3", "is_reserved": 0}, {"is_disabled": 0, "fusion_lon": 0.0, "fusion_lat": 0.0, "lat": 38.899930166666664, "type": "electric_scooter", "lon": -77.03213366666667, "bike_id": "bb54ade48794d3f41e7fb7f007899ec3", "rental_uris": {"android": "https://dc.lft.to/lastmile_qr_scan", "ios": "https://dc.lft.to/lastmile_qr_scan"}, "name": "bb54ade48794d3f41e7fb7f007899ec3", "is_reserved": 0}, {"is_disabled": 0, "fusion_lon": 0.0, "fusion_lat": 0.0, "lat": 38.958818666666666, "type": "electric_bike", "lon": -76.92498183333333, "bike_id": "cd90080a0660cefa0ac48e42fbd01427", "rental_uris": {"android": "https://dc.lft.to/lastmile_qr_scan", "ios": "https://dc.lft.to/lastmile_qr_scan"}, "name": "cd90080a0660cefa0ac48e42fbd01427", "is_reserved": 0}, {"is_disabled": 0, "fusion_lon": 0.0, "fusion_lat": 0.0, "lat": 38.90509333333333, "type": "electric_scooter", "lon": -77.05134216666667, "bike_id": "dc2957e7a6dc7bbc842c559228f45016", "rental_uris": {"android": "https://dc.lft.to/lastmile_qr_scan", "ios": "https://dc.lft.to/lastmile_qr_scan"}, "name": "dc2957e7a6dc7bbc842c559228f45016", "is_reserved": 0}, {"is_disabled": 0, "fusion_lon": 0.0, "fusion_lat": 0.0, "lat": 38.8852665, "type": "electric_scooter", "lon": -76.99802016666666, "bike_id": "a001f1dd882bfcc2f2305242dbe1d05f", "rental_uris": {"android": "https://dc.lft.to/lastmile_qr_scan", "ios": "https://dc.lft.to/lastmile_qr_scan"}, "name": "a001f1dd882bfcc2f2305242dbe1d05f", "is_reserved": 0}, {"is_disabled": 0, "fusion_lon": 0.0, "fusion_lat": 0.0, "lat": 38.916601166666666, "type": "electric_scooter", "lon": -77.0465465, "bike_id": "1d765fc7341d722dbc5105023efb7d28", "rental_uris": {"android": "https://dc.lft.to/lastmile_qr_scan", "ios": "https://dc.lft.to/lastmile_qr_scan"}, "name": "1d765fc7341d722dbc5105023efb7d28", "is_reserved": 0}, {"is_disabled": 0, "fusion_lon": 0.0, "fusion_lat": 0.0, "lat": 38.91689733333333, "type": "electric_scooter", "lon": -77.02602683333333, "bike_id": "9dcb7b58f75730d3d7262725e30ae552", "rental_uris": {"android": "https://dc.lft.to/lastmile_qr_scan", "ios": "https://dc.lft.to/lastmile_qr_scan"}, "name": "9dcb7b58f75730d3d7262725e30ae552", "is_reserved": 0}, {"is_disabled": 0, "fusion_lon": 0.0, "fusion_lat": 0.0, "lat": 38.96042766666667, "type": "electric_bike", "lon": -76.92714916666667, "bike_id": "33c62868f5480e050542052e407d9eca", "rental_uris": {"android": "https://dc.lft.to/lastmile_qr_scan", "ios": "https://dc.lft.to/lastmile_qr_scan"}, "name": "33c62868f5480e050542052e407d9eca", "is_reserved": 0}, {"is_disabled": 0, "fusion_lon": 0.0, "fusion_lat": 0.0, "lat": 38.88471366666667, "type": "electric_scooter", "lon": -76.952258, "bike_id": "512c86084a29dcb90535d7b79019556c", "rental_uris": {"android": "https://dc.lft.to/lastmile_qr_scan", "ios": "https://dc.lft.to/lastmile_qr_scan"}, "name": "512c86084a29dcb90535d7b79019556c", "is_reserved": 0}, {"is_disabled": 0, "fusion_lon": 0.0, "fusion_lat": 0.0, "lat": 38.90505983333333, "type": "electric_scooter", "lon": -77.0296105, "bike_id": "b32de70ffdabd2d21f829b48867c6caf", "rental_uris": {"android": "https://dc.lft.to/lastmile_qr_scan", "ios": "https://dc.lft.to/lastmile_qr_scan"}, "name": "b32de70ffdabd2d21f829b48867c6caf", "is_reserved": 0}, {"is_disabled": 0, "fusion_lon": 0.0, "fusion_lat": 0.0, "lat": 38.92669133333333, "type": "electric_scooter", "lon": -77.10314333333334, "bike_id": "ceec12b7844f0062da5fa5862196007e", "rental_uris": {"android": "https://dc.lft.to/lastmile_qr_scan", "ios": "https://dc.lft.to/lastmile_qr_scan"}, "name": "ceec12b7844f0062da5fa5862196007e", "is_reserved": 0}, {"is_disabled": 0, "fusion_lon": 0.0, "fusion_lat": 0.0, "lat": 38.907229, "type": "electric_scooter", "lon": -77.03439116666667, "bike_id": "e3f4b1d11e5989d44b53b20f39f1a0d3", "rental_uris": {"android": "https://dc.lft.to/lastmile_qr_scan", "ios": "https://dc.lft.to/lastmile_qr_scan"}, "name": "e3f4b1d11e5989d44b53b20f39f1a0d3", "is_reserved": 0}, {"is_disabled": 0, "fusion_lon": 0.0, "fusion_lat": 0.0, "lat": 38.95616866666667, "type": "electric_scooter", "lon": -77.03578116666667, "bike_id": "212caa96ea1fcf5a50365f1db83d468a", "rental_uris": {"android": "https://dc.lft.to/lastmile_qr_scan", "ios": "https://dc.lft.to/lastmile_qr_scan"}, "name": "212caa96ea1fcf5a50365f1db83d468a", "is_reserved": 0}, {"is_disabled": 0, "fusion_lon": 0.0, "fusion_lat": 0.0, "lat": 38.902889333333334, "type": "electric_scooter", "lon": -77.0242905, "bike_id": "50f866befca4fe4ee8412b7e5aa98e88", "rental_uris": {"android": "https://dc.lft.to/lastmile_qr_scan", "ios": "https://dc.lft.to/lastmile_qr_scan"}, "name": "50f866befca4fe4ee8412b7e5aa98e88", "is_reserved": 0}, {"is_disabled": 0, "fusion_lon": 0.0, "fusion_lat": 0.0, "lat": 38.91034333333333, "type": "electric_scooter", "lon": -76.99339966666666, "bike_id": "24c1a8e584e210cf147268cdd45e1b0f", "rental_uris": {"android": "https://dc.lft.to/lastmile_qr_scan", "ios": "https://dc.lft.to/lastmile_qr_scan"}, "name": "24c1a8e584e210cf147268cdd45e1b0f", "is_reserved": 0}, {"is_disabled": 0, "fusion_lon": 0.0, "fusion_lat": 0.0, "lat": 38.91961083333333, "type": "electric_scooter", "lon": -77.02716283333334, "bike_id": "1af75cc8b2e46943a1f783cbb1c482af", "rental_uris": {"android": "https://dc.lft.to/lastmile_qr_scan", "ios": "https://dc.lft.to/lastmile_qr_scan"}, "name": "1af75cc8b2e46943a1f783cbb1c482af", "is_reserved": 0}, {"is_disabled": 0, "fusion_lon": 0.0, "fusion_lat": 0.0, "lat": 38.92392733333333, "type": "electric_scooter", "lon": -77.02958266666667, "bike_id": "e11f54a87069d532f7257e1684b33f31", "rental_uris": {"android": "https://dc.lft.to/lastmile_qr_scan", "ios": "https://dc.lft.to/lastmile_qr_scan"}, "name": "e11f54a87069d532f7257e1684b33f31", "is_reserved": 0}, {"is_disabled": 0, "fusion_lon": 0.0, "fusion_lat": 0.0, "lat": 38.910789, "type": "electric_scooter", "lon": -77.015079, "bike_id": "dc6c280d6514852339f3bea75728ce3c", "rental_uris": {"android": "https://dc.lft.to/lastmile_qr_scan", "ios": "https://dc.lft.to/lastmile_qr_scan"}, "name": "dc6c280d6514852339f3bea75728ce3c", "is_reserved": 0}, {"is_disabled": 0, "fusion_lon": 0.0, "fusion_lat": 0.0, "lat": 38.900670166666664, "type": "electric_scooter", "lon": -77.0492375, "bike_id": "e967155edc9ea6b20bb5a1768dfb1d90", "rental_uris": {"android": "https://dc.lft.to/lastmile_qr_scan", "ios": "https://dc.lft.to/lastmile_qr_scan"}, "name": "e967155edc9ea6b20bb5a1768dfb1d90", "is_reserved": 0}, {"is_disabled": 0, "fusion_lon": 0.0, "fusion_lat": 0.0, "lat": 38.9223035, "type": "electric_scooter", "lon": -76.9753415, "bike_id": "ff78b183de921dfe8a3225f1e2da2615", "rental_uris": {"android": "https://dc.lft.to/lastmile_qr_scan", "ios": "https://dc.lft.to/lastmile_qr_scan"}, "name": "ff78b183de921dfe8a3225f1e2da2615", "is_reserved": 0}, {"is_disabled": 0, "fusion_lon": 0.0, "fusion_lat": 0.0, "lat": 38.89478733333333, "type": "electric_scooter", "lon": -77.0221335, "bike_id": "28e9b6e919c9d9c2fb637ecbd00dc7f9", "rental_uris": {"android": "https://dc.lft.to/lastmile_qr_scan", "ios": "https://dc.lft.to/lastmile_qr_scan"}, "name": "28e9b6e919c9d9c2fb637ecbd00dc7f9", "is_reserved": 0}, {"is_disabled": 0, "fusion_lon": 0.0, "fusion_lat": 0.0, "lat": 38.90619016666667, "type": "electric_scooter", "lon": -77.02804633333334, "bike_id": "741f6a8e5ec224aabf846755f4fa43b5", "rental_uris": {"android": "https://dc.lft.to/lastmile_qr_scan", "ios": "https://dc.lft.to/lastmile_qr_scan"}, "name": "741f6a8e5ec224aabf846755f4fa43b5", "is_reserved": 0}, {"is_disabled": 0, "fusion_lon": 0.0, "fusion_lat": 0.0, "lat": 38.893628666666665, "type": "electric_scooter", "lon": -77.0226885, "bike_id": "4d739a13ca26110db011c7eaf3fe51eb", "rental_uris": {"android": "https://dc.lft.to/lastmile_qr_scan", "ios": "https://dc.lft.to/lastmile_qr_scan"}, "name": "4d739a13ca26110db011c7eaf3fe51eb", "is_reserved": 0}, {"is_disabled": 0, "fusion_lon": 0.0, "fusion_lat": 0.0, "lat": 38.9199955, "type": "electric_scooter", "lon": -77.032252, "bike_id": "a3e485a9128a3cdae3c4e746eb929969", "rental_uris": {"android": "https://dc.lft.to/lastmile_qr_scan", "ios": "https://dc.lft.to/lastmile_qr_scan"}, "name": "a3e485a9128a3cdae3c4e746eb929969", "is_reserved": 0}, {"is_disabled": 0, "fusion_lon": 0.0, "fusion_lat": 0.0, "lat": 38.90044016666667, "type": "electric_scooter", "lon": -77.02386516666667, "bike_id": "57f4b5f1ee930fe3432683a7e1e5ef87", "rental_uris": {"android": "https://dc.lft.to/lastmile_qr_scan", "ios": "https://dc.lft.to/lastmile_qr_scan"}, "name": "57f4b5f1ee930fe3432683a7e1e5ef87", "is_reserved": 0}, {"is_disabled": 0, "fusion_lon": 0.0, "fusion_lat": 0.0, "lat": 38.907168, "type": "electric_scooter", "lon": -77.03066466666667, "bike_id": "617064b13c274ea6c352859697dba04d", "rental_uris": {"android": "https://dc.lft.to/lastmile_qr_scan", "ios": "https://dc.lft.to/lastmile_qr_scan"}, "name": "617064b13c274ea6c352859697dba04d", "is_reserved": 0}, {"is_disabled": 0, "fusion_lon": 0.0, "fusion_lat": 0.0, "lat": 38.89644916666666, "type": "electric_scooter", "lon": -77.04344933333333, "bike_id": "7a231108e7fb6e892fa9126ae7b09771", "rental_uris": {"android": "https://dc.lft.to/lastmile_qr_scan", "ios": "https://dc.lft.to/lastmile_qr_scan"}, "name": "7a231108e7fb6e892fa9126ae7b09771", "is_reserved": 0}, {"is_disabled": 0, "fusion_lon": 0.0, "fusion_lat": 0.0, "lat": 38.82726683333333, "type": "electric_bike", "lon": -77.00866083333334, "bike_id": "b397af52d3dce566716f8b9f1eca0a12", "rental_uris": {"android": "https://dc.lft.to/lastmile_qr_scan", "ios": "https://dc.lft.to/lastmile_qr_scan"}, "name": "b397af52d3dce566716f8b9f1eca0a12", "is_reserved": 0}, {"is_disabled": 0, "fusion_lon": 0.0, "fusion_lat": 0.0, "lat": 38.892218166666666, "type": "electric_scooter", "lon": -77.04864416666666, "bike_id": "3b03eeff6b451fed7c5c35df84d451ac", "rental_uris": {"android": "https://dc.lft.to/lastmile_qr_scan", "ios": "https://dc.lft.to/lastmile_qr_scan"}, "name": "3b03eeff6b451fed7c5c35df84d451ac", "is_reserved": 0}, {"is_disabled": 0, "fusion_lon": 0.0, "fusion_lat": 0.0, "lat": 38.9014275, "type": "electric_scooter", "lon": -77.04147066666667, "bike_id": "f77896821ebe01a7c88d11dd31fb4ce6", "rental_uris": {"android": "https://dc.lft.to/lastmile_qr_scan", "ios": "https://dc.lft.to/lastmile_qr_scan"}, "name": "f77896821ebe01a7c88d11dd31fb4ce6", "is_reserved": 0}, {"is_disabled": 0, "fusion_lon": 0.0, "fusion_lat": 0.0, "lat": 38.898421, "type": "electric_scooter", "lon": -77.033536, "bike_id": "8f20e872fc9303d85b4cc8042bdd2464", "rental_uris": {"android": "https://dc.lft.to/lastmile_qr_scan", "ios": "https://dc.lft.to/lastmile_qr_scan"}, "name": "8f20e872fc9303d85b4cc8042bdd2464", "is_reserved": 0}, {"is_disabled": 0, "fusion_lon": 0.0, "fusion_lat": 0.0, "lat": 38.88861433333334, "type": "electric_scooter", "lon": -76.97738583333333, "bike_id": "a46da1d47dd8c5151f7c6dff4eab3a09", "rental_uris": {"android": "https://dc.lft.to/lastmile_qr_scan", "ios": "https://dc.lft.to/lastmile_qr_scan"}, "name": "a46da1d47dd8c5151f7c6dff4eab3a09", "is_reserved": 0}, {"is_disabled": 0, "fusion_lon": 0.0, "fusion_lat": 0.0, "lat": 38.935220666666666, "type": "electric_scooter", "lon": -77.02376433333333, "bike_id": "07f2671081455c448715c642958d8172", "rental_uris": {"android": "https://dc.lft.to/lastmile_qr_scan", "ios": "https://dc.lft.to/lastmile_qr_scan"}, "name": "07f2671081455c448715c642958d8172", "is_reserved": 0}, {"is_disabled": 0, "fusion_lon": 0.0, "fusion_lat": 0.0, "lat": 38.91545883333333, "type": "electric_scooter", "lon": -77.04175966666666, "bike_id": "7c5ae30d53046f461ee49e6a0e68591f", "rental_uris": {"android": "https://dc.lft.to/lastmile_qr_scan", "ios": "https://dc.lft.to/lastmile_qr_scan"}, "name": "7c5ae30d53046f461ee49e6a0e68591f", "is_reserved": 0}, {"is_disabled": 0, "fusion_lon": 0.0, "fusion_lat": 0.0, "lat": 38.897968666666664, "type": "electric_scooter", "lon": -76.93053633333334, "bike_id": "c0856718bf588ace012283a9d4e7357d", "rental_uris": {"android": "https://dc.lft.to/lastmile_qr_scan", "ios": "https://dc.lft.to/lastmile_qr_scan"}, "name": "c0856718bf588ace012283a9d4e7357d", "is_reserved": 0}, {"is_disabled": 0, "fusion_lon": 0.0, "fusion_lat": 0.0, "lat": 38.91563416666666, "type": "electric_scooter", "lon": -77.01170683333333, "bike_id": "8ca0f196d0776432cb24b88d36ae3481", "rental_uris": {"android": "https://dc.lft.to/lastmile_qr_scan", "ios": "https://dc.lft.to/lastmile_qr_scan"}, "name": "8ca0f196d0776432cb24b88d36ae3481", "is_reserved": 0}, {"is_disabled": 0, "fusion_lon": 0.0, "fusion_lat": 0.0, "lat": 38.988182333333334, "type": "electric_bike", "lon": -77.02651433333334, "bike_id": "9c9df6badd9e0dfc1a8fea536a4fe0cf", "rental_uris": {"android": "https://dc.lft.to/lastmile_qr_scan", "ios": "https://dc.lft.to/lastmile_qr_scan"}, "name": "9c9df6badd9e0dfc1a8fea536a4fe0cf", "is_reserved": 0}, {"is_disabled": 0, "fusion_lon": 0.0, "fusion_lat": 0.0, "lat": 38.949830166666665, "type": "electric_scooter", "lon": -77.0270455, "bike_id": "1b3a7c5486cf0a367d5b1232d7708f8b", "rental_uris": {"android": "https://dc.lft.to/lastmile_qr_scan", "ios": "https://dc.lft.to/lastmile_qr_scan"}, "name": "1b3a7c5486cf0a367d5b1232d7708f8b", "is_reserved": 0}, {"is_disabled": 0, "fusion_lon": 0.0, "fusion_lat": 0.0, "lat": 38.92659833333333, "type": "electric_scooter", "lon": -77.02306833333333, "bike_id": "e1e566fbb2f9f98c7d795eb1a2e2ebb5", "rental_uris": {"android": "https://dc.lft.to/lastmile_qr_scan", "ios": "https://dc.lft.to/lastmile_qr_scan"}, "name": "e1e566fbb2f9f98c7d795eb1a2e2ebb5", "is_reserved": 0}, {"is_disabled": 0, "fusion_lon": 0.0, "fusion_lat": 0.0, "lat": 38.942469333333335, "type": "electric_scooter", "lon": -77.02174183333334, "bike_id": "256d4f10c7c486633b81551591a551b2", "rental_uris": {"android": "https://dc.lft.to/lastmile_qr_scan", "ios": "https://dc.lft.to/lastmile_qr_scan"}, "name": "256d4f10c7c486633b81551591a551b2", "is_reserved": 0}, {"is_disabled": 0, "fusion_lon": 0.0, "fusion_lat": 0.0, "lat": 38.8315225, "type": "electric_bike", "lon": -76.99694883333333, "bike_id": "522f49c6d2e19bbafd6d9683bd8afd93", "rental_uris": {"android": "https://dc.lft.to/lastmile_qr_scan", "ios": "https://dc.lft.to/lastmile_qr_scan"}, "name": "522f49c6d2e19bbafd6d9683bd8afd93", "is_reserved": 0}, {"is_disabled": 0, "fusion_lon": 0.0, "fusion_lat": 0.0, "lat": 38.875448166666665, "type": "electric_scooter", "lon": -77.00538983333334, "bike_id": "22408e53e2a69cba458a22e59c183e66", "rental_uris": {"android": "https://dc.lft.to/lastmile_qr_scan", "ios": "https://dc.lft.to/lastmile_qr_scan"}, "name": "22408e53e2a69cba458a22e59c183e66", "is_reserved": 0}, {"is_disabled": 0, "fusion_lon": 0.0, "fusion_lat": 0.0, "lat": 38.909621666666666, "type": "electric_scooter", "lon": -77.02282333333333, "bike_id": "be747dab226b487f28579f72e546ba85", "rental_uris": {"android": "https://dc.lft.to/lastmile_qr_scan", "ios": "https://dc.lft.to/lastmile_qr_scan"}, "name": "be747dab226b487f28579f72e546ba85", "is_reserved": 0}, {"is_disabled": 0, "fusion_lon": 0.0, "fusion_lat": 0.0, "lat": 38.95214166666667, "type": "electric_scooter", "lon": -77.03630366666667, "bike_id": "2b826948c2671b8eba601cd3bc324128", "rental_uris": {"android": "https://dc.lft.to/lastmile_qr_scan", "ios": "https://dc.lft.to/lastmile_qr_scan"}, "name": "2b826948c2671b8eba601cd3bc324128", "is_reserved": 0}, {"is_disabled": 0, "fusion_lon": 0.0, "fusion_lat": 0.0, "lat": 38.89528516666667, "type": "electric_scooter", "lon": -77.0284005, "bike_id": "1217643ee0062d2abcf5a18ee4589454", "rental_uris": {"android": "https://dc.lft.to/lastmile_qr_scan", "ios": "https://dc.lft.to/lastmile_qr_scan"}, "name": "1217643ee0062d2abcf5a18ee4589454", "is_reserved": 0}, {"is_disabled": 0, "fusion_lon": 0.0, "fusion_lat": 0.0, "lat": 38.988246833333335, "type": "electric_bike", "lon": -76.98756616666667, "bike_id": "d52e43a69dcfa59bf160359580b12fcf", "rental_uris": {"android": "https://dc.lft.to/lastmile_qr_scan", "ios": "https://dc.lft.to/lastmile_qr_scan"}, "name": "d52e43a69dcfa59bf160359580b12fcf", "is_reserved": 0}, {"is_disabled": 0, "fusion_lon": 0.0, "fusion_lat": 0.0, "lat": 38.92035116666667, "type": "electric_scooter", "lon": -77.02586233333334, "bike_id": "aaa564174904a18ee4b7b29a301167f0", "rental_uris": {"android": "https://dc.lft.to/lastmile_qr_scan", "ios": "https://dc.lft.to/lastmile_qr_scan"}, "name": "aaa564174904a18ee4b7b29a301167f0", "is_reserved": 0}, {"is_disabled": 0, "fusion_lon": 0.0, "fusion_lat": 0.0, "lat": 38.907036833333336, "type": "electric_scooter", "lon": -77.02692666666667, "bike_id": "bec4eb23950d3fda1ad9d114736f6bd7", "rental_uris": {"android": "https://dc.lft.to/lastmile_qr_scan", "ios": "https://dc.lft.to/lastmile_qr_scan"}, "name": "bec4eb23950d3fda1ad9d114736f6bd7", "is_reserved": 0}, {"is_disabled": 0, "fusion_lon": 0.0, "fusion_lat": 0.0, "lat": 38.88510316666667, "type": "electric_scooter", "lon": -76.99853183333333, "bike_id": "81424bd4c97613482885096766838a5c", "rental_uris": {"android": "https://dc.lft.to/lastmile_qr_scan", "ios": "https://dc.lft.to/lastmile_qr_scan"}, "name": "81424bd4c97613482885096766838a5c", "is_reserved": 0}, {"is_disabled": 0, "fusion_lon": 0.0, "fusion_lat": 0.0, "lat": 38.92690066666667, "type": "electric_scooter", "lon": -77.0377355, "bike_id": "7dff97bcbab1bde23627a95e960f4279", "rental_uris": {"android": "https://dc.lft.to/lastmile_qr_scan", "ios": "https://dc.lft.to/lastmile_qr_scan"}, "name": "7dff97bcbab1bde23627a95e960f4279", "is_reserved": 0}, {"is_disabled": 0, "fusion_lon": 0.0, "fusion_lat": 0.0, "lat": 38.897536, "type": "electric_scooter", "lon": -77.05150416666666, "bike_id": "dcc11fd3bc7cf3d770132bfffb06dfac", "rental_uris": {"android": "https://dc.lft.to/lastmile_qr_scan", "ios": "https://dc.lft.to/lastmile_qr_scan"}, "name": "dcc11fd3bc7cf3d770132bfffb06dfac", "is_reserved": 0}, {"is_disabled": 0, "fusion_lon": 0.0, "fusion_lat": 0.0, "lat": 38.91424383333333, "type": "electric_scooter", "lon": -77.01425433333333, "bike_id": "d140486f9846dd5813571e487eb7eef5", "rental_uris": {"android": "https://dc.lft.to/lastmile_qr_scan", "ios": "https://dc.lft.to/lastmile_qr_scan"}, "name": "d140486f9846dd5813571e487eb7eef5", "is_reserved": 0}, {"is_disabled": 0, "fusion_lon": 0.0, "fusion_lat": 0.0, "lat": 38.85211566666667, "type": "electric_bike", "lon": -77.127533, "bike_id": "a3b370d717c8c36ace8f90ea68aec4a2", "rental_uris": {"android": "https://dc.lft.to/lastmile_qr_scan", "ios": "https://dc.lft.to/lastmile_qr_scan"}, "name": "a3b370d717c8c36ace8f90ea68aec4a2", "is_reserved": 0}, {"is_disabled": 0, "fusion_lon": 0.0, "fusion_lat": 0.0, "lat": 38.91692166666667, "type": "electric_scooter", "lon": -77.026, "bike_id": "5cdc7100877f7370a34bfd4c658a4065", "rental_uris": {"android": "https://dc.lft.to/lastmile_qr_scan", "ios": "https://dc.lft.to/lastmile_qr_scan"}, "name": "5cdc7100877f7370a34bfd4c658a4065", "is_reserved": 0}, {"is_disabled": 0, "fusion_lon": 0.0, "fusion_lat": 0.0, "lat": 38.865920333333335, "type": "electric_bike", "lon": -76.93231816666666, "bike_id": "83cf894f186e6117e9bad204294df9d3", "rental_uris": {"android": "https://dc.lft.to/lastmile_qr_scan", "ios": "https://dc.lft.to/lastmile_qr_scan"}, "name": "83cf894f186e6117e9bad204294df9d3", "is_reserved": 0}, {"is_disabled": 0, "fusion_lon": 0.0, "fusion_lat": 0.0, "lat": 38.944912, "type": "electric_bike", "lon": -77.00684016666666, "bike_id": "2eb36e33b920b7f9a07c33287d773c12", "rental_uris": {"android": "https://dc.lft.to/lastmile_qr_scan", "ios": "https://dc.lft.to/lastmile_qr_scan"}, "name": "2eb36e33b920b7f9a07c33287d773c12", "is_reserved": 0}, {"is_disabled": 0, "fusion_lon": 0.0, "fusion_lat": 0.0, "lat": 38.911025, "type": "electric_scooter", "lon": -77.04503966666667, "bike_id": "b69697c58dff218bcdcc84cde7587d3a", "rental_uris": {"android": "https://dc.lft.to/lastmile_qr_scan", "ios": "https://dc.lft.to/lastmile_qr_scan"}, "name": "b69697c58dff218bcdcc84cde7587d3a", "is_reserved": 0}, {"is_disabled": 0, "fusion_lon": 0.0, "fusion_lat": 0.0, "lat": 38.905769666666664, "type": "electric_scooter", "lon": -77.02601816666666, "bike_id": "3a0d7d5f46599a579e75b1484bb8c8f3", "rental_uris": {"android": "https://dc.lft.to/lastmile_qr_scan", "ios": "https://dc.lft.to/lastmile_qr_scan"}, "name": "3a0d7d5f46599a579e75b1484bb8c8f3", "is_reserved": 0}, {"is_disabled": 0, "fusion_lon": 0.0, "fusion_lat": 0.0, "lat": 38.892484333333336, "type": "electric_scooter", "lon": -76.998539, "bike_id": "2eedf823259e66222ca56ffed21edadd", "rental_uris": {"android": "https://dc.lft.to/lastmile_qr_scan", "ios": "https://dc.lft.to/lastmile_qr_scan"}, "name": "2eedf823259e66222ca56ffed21edadd", "is_reserved": 0}, {"is_disabled": 0, "fusion_lon": 0.0, "fusion_lat": 0.0, "lat": 38.91118916666667, "type": "electric_scooter", "lon": -77.0447675, "bike_id": "1d56fd16d93d6f6847f39fbfe4a6c6b6", "rental_uris": {"android": "https://dc.lft.to/lastmile_qr_scan", "ios": "https://dc.lft.to/lastmile_qr_scan"}, "name": "1d56fd16d93d6f6847f39fbfe4a6c6b6", "is_reserved": 0}, {"is_disabled": 0, "fusion_lon": 0.0, "fusion_lat": 0.0, "lat": 38.916482, "type": "electric_scooter", "lon": -76.98230733333334, "bike_id": "d2c5b63c88876bc9333299e7facb4eb5", "rental_uris": {"android": "https://dc.lft.to/lastmile_qr_scan", "ios": "https://dc.lft.to/lastmile_qr_scan"}, "name": "d2c5b63c88876bc9333299e7facb4eb5", "is_reserved": 0}, {"is_disabled": 0, "fusion_lon": 0.0, "fusion_lat": 0.0, "lat": 38.92277966666666, "type": "electric_bike", "lon": -76.99419733333333, "bike_id": "0dabb0b2afda469d175449e66732d118", "rental_uris": {"android": "https://dc.lft.to/lastmile_qr_scan", "ios": "https://dc.lft.to/lastmile_qr_scan"}, "name": "0dabb0b2afda469d175449e66732d118", "is_reserved": 0}, {"is_disabled": 0, "fusion_lon": 0.0, "fusion_lat": 0.0, "lat": 38.9028595, "type": "electric_scooter", "lon": -77.04269033333334, "bike_id": "305b654734cf97b1cb4dc6930b3130e4", "rental_uris": {"android": "https://dc.lft.to/lastmile_qr_scan", "ios": "https://dc.lft.to/lastmile_qr_scan"}, "name": "305b654734cf97b1cb4dc6930b3130e4", "is_reserved": 0}, {"is_disabled": 0, "fusion_lon": 0.0, "fusion_lat": 0.0, "lat": 38.921084666666665, "type": "electric_scooter", "lon": -76.99426983333333, "bike_id": "2ed1ff686ccd73c290897373e7fad39f", "rental_uris": {"android": "https://dc.lft.to/lastmile_qr_scan", "ios": "https://dc.lft.to/lastmile_qr_scan"}, "name": "2ed1ff686ccd73c290897373e7fad39f", "is_reserved": 0}, {"is_disabled": 0, "fusion_lon": 0.0, "fusion_lat": 0.0, "lat": 38.93634383333333, "type": "electric_scooter", "lon": -77.03666516666667, "bike_id": "92b6630138346ff9be0b91afc47f89fd", "rental_uris": {"android": "https://dc.lft.to/lastmile_qr_scan", "ios": "https://dc.lft.to/lastmile_qr_scan"}, "name": "92b6630138346ff9be0b91afc47f89fd", "is_reserved": 0}, {"is_disabled": 0, "fusion_lon": 0.0, "fusion_lat": 0.0, "lat": 38.919788833333335, "type": "electric_scooter", "lon": -77.000256, "bike_id": "352c4e5d68fd9c065d6e383d52b57ea1", "rental_uris": {"android": "https://dc.lft.to/lastmile_qr_scan", "ios": "https://dc.lft.to/lastmile_qr_scan"}, "name": "352c4e5d68fd9c065d6e383d52b57ea1", "is_reserved": 0}, {"is_disabled": 0, "fusion_lon": 0.0, "fusion_lat": 0.0, "lat": 38.893723333333334, "type": "electric_scooter", "lon": -76.950026, "bike_id": "97a67821799dc3695a12b2dfa555daca", "rental_uris": {"android": "https://dc.lft.to/lastmile_qr_scan", "ios": "https://dc.lft.to/lastmile_qr_scan"}, "name": "97a67821799dc3695a12b2dfa555daca", "is_reserved": 0}, {"is_disabled": 0, "fusion_lon": 0.0, "fusion_lat": 0.0, "lat": 38.924427333333334, "type": "electric_bike", "lon": -76.96834983333333, "bike_id": "2482c6319338515687786aea2958fe90", "rental_uris": {"android": "https://dc.lft.to/lastmile_qr_scan", "ios": "https://dc.lft.to/lastmile_qr_scan"}, "name": "2482c6319338515687786aea2958fe90", "is_reserved": 0}, {"is_disabled": 0, "fusion_lon": 0.0, "fusion_lat": 0.0, "lat": 39.10566683333333, "type": "electric_bike", "lon": -77.15268133333333, "bike_id": "e4789bb0059cb3069b1313a0760c2521", "rental_uris": {"android": "https://dc.lft.to/lastmile_qr_scan", "ios": "https://dc.lft.to/lastmile_qr_scan"}, "name": "e4789bb0059cb3069b1313a0760c2521", "is_reserved": 0}, {"is_disabled": 0, "fusion_lon": 0.0, "fusion_lat": 0.0, "lat": 38.93069716666667, "type": "electric_scooter", "lon": -77.038075, "bike_id": "cfd7c5f0e39d7b8eb3bae7a3f53a906b", "rental_uris": {"android": "https://dc.lft.to/lastmile_qr_scan", "ios": "https://dc.lft.to/lastmile_qr_scan"}, "name": "cfd7c5f0e39d7b8eb3bae7a3f53a906b", "is_reserved": 0}, {"is_disabled": 0, "fusion_lon": 0.0, "fusion_lat": 0.0, "lat": 38.9025645, "type": "electric_scooter", "lon": -77.0001395, "bike_id": "624827d9ed75f3b747388f69cb0f9207", "rental_uris": {"android": "https://dc.lft.to/lastmile_qr_scan", "ios": "https://dc.lft.to/lastmile_qr_scan"}, "name": "624827d9ed75f3b747388f69cb0f9207", "is_reserved": 0}, {"is_disabled": 0, "fusion_lon": 0.0, "fusion_lat": 0.0, "lat": 38.92138466666667, "type": "electric_scooter", "lon": -77.00920333333333, "bike_id": "51b76fa193b8662bf21206a0014ca047", "rental_uris": {"android": "https://dc.lft.to/lastmile_qr_scan", "ios": "https://dc.lft.to/lastmile_qr_scan"}, "name": "51b76fa193b8662bf21206a0014ca047", "is_reserved": 0}, {"is_disabled": 0, "fusion_lon": 0.0, "fusion_lat": 0.0, "lat": 38.864645333333335, "type": "electric_scooter", "lon": -76.9961545, "bike_id": "a7a412615b4227986755bdeb36d9e7e0", "rental_uris": {"android": "https://dc.lft.to/lastmile_qr_scan", "ios": "https://dc.lft.to/lastmile_qr_scan"}, "name": "a7a412615b4227986755bdeb36d9e7e0", "is_reserved": 0}, {"is_disabled": 0, "fusion_lon": 0.0, "fusion_lat": 0.0, "lat": 38.87998283333334, "type": "electric_scooter", "lon": -77.024259, "bike_id": "930bd21f92f4375413fb0d5b2d6c3392", "rental_uris": {"android": "https://dc.lft.to/lastmile_qr_scan", "ios": "https://dc.lft.to/lastmile_qr_scan"}, "name": "930bd21f92f4375413fb0d5b2d6c3392", "is_reserved": 0}, {"is_disabled": 0, "fusion_lon": 0.0, "fusion_lat": 0.0, "lat": 38.87494, "type": "electric_scooter", "lon": -76.99799383333334, "bike_id": "d6d0db4198628e2589ea2b9427e50602", "rental_uris": {"android": "https://dc.lft.to/lastmile_qr_scan", "ios": "https://dc.lft.to/lastmile_qr_scan"}, "name": "d6d0db4198628e2589ea2b9427e50602", "is_reserved": 0}, {"is_disabled": 0, "fusion_lon": 0.0, "fusion_lat": 0.0, "lat": 38.929227, "type": "electric_scooter", "lon": -77.02144666666666, "bike_id": "bc8769bd0d00f371962eca1ccac4aa6c", "rental_uris": {"android": "https://dc.lft.to/lastmile_qr_scan", "ios": "https://dc.lft.to/lastmile_qr_scan"}, "name": "bc8769bd0d00f371962eca1ccac4aa6c", "is_reserved": 0}, {"is_disabled": 0, "fusion_lon": 0.0, "fusion_lat": 0.0, "lat": 38.95215683333333, "type": "electric_scooter", "lon": -77.03632216666666, "bike_id": "c5e7b77d43d223c26686015edc94c49b", "rental_uris": {"android": "https://dc.lft.to/lastmile_qr_scan", "ios": "https://dc.lft.to/lastmile_qr_scan"}, "name": "c5e7b77d43d223c26686015edc94c49b", "is_reserved": 0}, {"is_disabled": 0, "fusion_lon": 0.0, "fusion_lat": 0.0, "lat": 38.907268333333334, "type": "electric_scooter", "lon": -77.02417816666667, "bike_id": "d70c47e6b7a1fd3c96b6c2d5b0a32fa0", "rental_uris": {"android": "https://dc.lft.to/lastmile_qr_scan", "ios": "https://dc.lft.to/lastmile_qr_scan"}, "name": "d70c47e6b7a1fd3c96b6c2d5b0a32fa0", "is_reserved": 0}, {"is_disabled": 0, "fusion_lon": 0.0, "fusion_lat": 0.0, "lat": 38.91921333333333, "type": "electric_scooter", "lon": -77.044749, "bike_id": "1ffe2a1b9cf26fa8971dd83cb10dbca7", "rental_uris": {"android": "https://dc.lft.to/lastmile_qr_scan", "ios": "https://dc.lft.to/lastmile_qr_scan"}, "name": "1ffe2a1b9cf26fa8971dd83cb10dbca7", "is_reserved": 0}, {"is_disabled": 0, "fusion_lon": 0.0, "fusion_lat": 0.0, "lat": 38.905367166666665, "type": "electric_scooter", "lon": -77.02713416666667, "bike_id": "4956b301c8a0c4b1e6facbe752da75d5", "rental_uris": {"android": "https://dc.lft.to/lastmile_qr_scan", "ios": "https://dc.lft.to/lastmile_qr_scan"}, "name": "4956b301c8a0c4b1e6facbe752da75d5", "is_reserved": 0}, {"is_disabled": 0, "fusion_lon": 0.0, "fusion_lat": 0.0, "lat": 38.93351766666667, "type": "electric_scooter", "lon": -77.07381116666667, "bike_id": "febc1c1fe0dcb4893b9958cb26cd6ccb", "rental_uris": {"android": "https://dc.lft.to/lastmile_qr_scan", "ios": "https://dc.lft.to/lastmile_qr_scan"}, "name": "febc1c1fe0dcb4893b9958cb26cd6ccb", "is_reserved": 0}, {"is_disabled": 0, "fusion_lon": 0.0, "fusion_lat": 0.0, "lat": 38.909721833333336, "type": "electric_scooter", "lon": -77.03871433333333, "bike_id": "5001078df87d06bde15ce29c0047b79d", "rental_uris": {"android": "https://dc.lft.to/lastmile_qr_scan", "ios": "https://dc.lft.to/lastmile_qr_scan"}, "name": "5001078df87d06bde15ce29c0047b79d", "is_reserved": 0}, {"is_disabled": 0, "fusion_lon": 0.0, "fusion_lat": 0.0, "lat": 38.87521, "type": "electric_scooter", "lon": -77.01384316666666, "bike_id": "eeabb288fa72c02ae4c9c8cdcf5bb70f", "rental_uris": {"android": "https://dc.lft.to/lastmile_qr_scan", "ios": "https://dc.lft.to/lastmile_qr_scan"}, "name": "eeabb288fa72c02ae4c9c8cdcf5bb70f", "is_reserved": 0}, {"is_disabled": 0, "fusion_lon": 0.0, "fusion_lat": 0.0, "lat": 38.89657916666667, "type": "electric_scooter", "lon": -77.0435175, "bike_id": "383ab826850ab8765f652ac1e7bdfb34", "rental_uris": {"android": "https://dc.lft.to/lastmile_qr_scan", "ios": "https://dc.lft.to/lastmile_qr_scan"}, "name": "383ab826850ab8765f652ac1e7bdfb34", "is_reserved": 0}, {"is_disabled": 0, "fusion_lon": 0.0, "fusion_lat": 0.0, "lat": 38.926203, "type": "electric_scooter", "lon": -77.04189533333333, "bike_id": "075d144e2a65a7d57f178cf57b5e32cf", "rental_uris": {"android": "https://dc.lft.to/lastmile_qr_scan", "ios": "https://dc.lft.to/lastmile_qr_scan"}, "name": "075d144e2a65a7d57f178cf57b5e32cf", "is_reserved": 0}, {"is_disabled": 0, "fusion_lon": 0.0, "fusion_lat": 0.0, "lat": 38.944543833333334, "type": "electric_scooter", "lon": -77.0603115, "bike_id": "7d18d4fa8dd1c70427e3e820d969a279", "rental_uris": {"android": "https://dc.lft.to/lastmile_qr_scan", "ios": "https://dc.lft.to/lastmile_qr_scan"}, "name": "7d18d4fa8dd1c70427e3e820d969a279", "is_reserved": 0}, {"is_disabled": 0, "fusion_lon": 0.0, "fusion_lat": 0.0, "lat": 38.99668283333333, "type": "electric_bike", "lon": -76.9914655, "bike_id": "af661830b3ff745e4abf965a759f34b9", "rental_uris": {"android": "https://dc.lft.to/lastmile_qr_scan", "ios": "https://dc.lft.to/lastmile_qr_scan"}, "name": "af661830b3ff745e4abf965a759f34b9", "is_reserved": 0}, {"is_disabled": 0, "fusion_lon": 0.0, "fusion_lat": 0.0, "lat": 38.875709666666665, "type": "electric_scooter", "lon": -77.020748, "bike_id": "9cd8aeff0139a70f344f0403a254cd35", "rental_uris": {"android": "https://dc.lft.to/lastmile_qr_scan", "ios": "https://dc.lft.to/lastmile_qr_scan"}, "name": "9cd8aeff0139a70f344f0403a254cd35", "is_reserved": 0}, {"is_disabled": 0, "fusion_lon": 0.0, "fusion_lat": 0.0, "lat": 38.9215775, "type": "electric_scooter", "lon": -77.03407416666667, "bike_id": "55f3fd77be602f8706b53c1b743dd03e", "rental_uris": {"android": "https://dc.lft.to/lastmile_qr_scan", "ios": "https://dc.lft.to/lastmile_qr_scan"}, "name": "55f3fd77be602f8706b53c1b743dd03e", "is_reserved": 0}, {"is_disabled": 0, "fusion_lon": 0.0, "fusion_lat": 0.0, "lat": 38.9078245, "type": "electric_scooter", "lon": -77.03212266666667, "bike_id": "5a6f95437d9d7868dba156cc5b75e13a", "rental_uris": {"android": "https://dc.lft.to/lastmile_qr_scan", "ios": "https://dc.lft.to/lastmile_qr_scan"}, "name": "5a6f95437d9d7868dba156cc5b75e13a", "is_reserved": 0}, {"is_disabled": 0, "fusion_lon": 0.0, "fusion_lat": 0.0, "lat": 38.90272783333333, "type": "electric_scooter", "lon": -77.05318, "bike_id": "ad9105a99c9dbaabf7a89ef2819f89af", "rental_uris": {"android": "https://dc.lft.to/lastmile_qr_scan", "ios": "https://dc.lft.to/lastmile_qr_scan"}, "name": "ad9105a99c9dbaabf7a89ef2819f89af", "is_reserved": 0}, {"is_disabled": 0, "fusion_lon": 0.0, "fusion_lat": 0.0, "lat": 38.8926415, "type": "electric_scooter", "lon": -77.03201783333333, "bike_id": "a013bf1b32192d6a66d5eb75f5abe8e2", "rental_uris": {"android": "https://dc.lft.to/lastmile_qr_scan", "ios": "https://dc.lft.to/lastmile_qr_scan"}, "name": "a013bf1b32192d6a66d5eb75f5abe8e2", "is_reserved": 0}, {"is_disabled": 0, "fusion_lon": 0.0, "fusion_lat": 0.0, "lat": 38.89667033333333, "type": "electric_scooter", "lon": -77.01186083333333, "bike_id": "af40916054857e2f921eaf4c72ba671b", "rental_uris": {"android": "https://dc.lft.to/lastmile_qr_scan", "ios": "https://dc.lft.to/lastmile_qr_scan"}, "name": "af40916054857e2f921eaf4c72ba671b", "is_reserved": 0}, {"is_disabled": 0, "fusion_lon": 0.0, "fusion_lat": 0.0, "lat": 38.91818216666667, "type": "electric_scooter", "lon": -77.04178516666667, "bike_id": "4e6f825bc6f0fbe73a142cf8ca49ff06", "rental_uris": {"android": "https://dc.lft.to/lastmile_qr_scan", "ios": "https://dc.lft.to/lastmile_qr_scan"}, "name": "4e6f825bc6f0fbe73a142cf8ca49ff06", "is_reserved": 0}, {"is_disabled": 0, "fusion_lon": 0.0, "fusion_lat": 0.0, "lat": 38.88483766666667, "type": "electric_scooter", "lon": -76.92966416666667, "bike_id": "98d0ba56072202123fe25d887806392d", "rental_uris": {"android": "https://dc.lft.to/lastmile_qr_scan", "ios": "https://dc.lft.to/lastmile_qr_scan"}, "name": "98d0ba56072202123fe25d887806392d", "is_reserved": 0}, {"is_disabled": 0, "fusion_lon": 0.0, "fusion_lat": 0.0, "lat": 38.872841333333334, "type": "electric_scooter", "lon": -77.009852, "bike_id": "c2eb4a9c3c6a83d9491c4736bb26298f", "rental_uris": {"android": "https://dc.lft.to/lastmile_qr_scan", "ios": "https://dc.lft.to/lastmile_qr_scan"}, "name": "c2eb4a9c3c6a83d9491c4736bb26298f", "is_reserved": 0}, {"is_disabled": 0, "fusion_lon": 0.0, "fusion_lat": 0.0, "lat": 38.895706, "type": "electric_scooter", "lon": -77.02166983333333, "bike_id": "14c7645ceab59d68e85ad98f2aef5d02", "rental_uris": {"android": "https://dc.lft.to/lastmile_qr_scan", "ios": "https://dc.lft.to/lastmile_qr_scan"}, "name": "14c7645ceab59d68e85ad98f2aef5d02", "is_reserved": 0}, {"is_disabled": 0, "fusion_lon": 0.0, "fusion_lat": 0.0, "lat": 38.92031033333333, "type": "electric_scooter", "lon": -77.01877116666667, "bike_id": "b32e08bb9de37aff3ee39e3bcd08ed56", "rental_uris": {"android": "https://dc.lft.to/lastmile_qr_scan", "ios": "https://dc.lft.to/lastmile_qr_scan"}, "name": "b32e08bb9de37aff3ee39e3bcd08ed56", "is_reserved": 0}, {"is_disabled": 0, "fusion_lon": 0.0, "fusion_lat": 0.0, "lat": 38.905968666666666, "type": "electric_scooter", "lon": -77.048757, "bike_id": "9a934861cd6002def608ad2494c47de4", "rental_uris": {"android": "https://dc.lft.to/lastmile_qr_scan", "ios": "https://dc.lft.to/lastmile_qr_scan"}, "name": "9a934861cd6002def608ad2494c47de4", "is_reserved": 0}, {"is_disabled": 0, "fusion_lon": 0.0, "fusion_lat": 0.0, "lat": 38.90187316666667, "type": "electric_scooter", "lon": -77.05018033333333, "bike_id": "445ceca5e1a145fc785a7df24048e8b4", "rental_uris": {"android": "https://dc.lft.to/lastmile_qr_scan", "ios": "https://dc.lft.to/lastmile_qr_scan"}, "name": "445ceca5e1a145fc785a7df24048e8b4", "is_reserved": 0}, {"is_disabled": 0, "fusion_lon": 0.0, "fusion_lat": 0.0, "lat": 38.87436016666667, "type": "electric_bike", "lon": -77.00907883333333, "bike_id": "b3bbce855e8298dc7f04f02321022fd4", "rental_uris": {"android": "https://dc.lft.to/lastmile_qr_scan", "ios": "https://dc.lft.to/lastmile_qr_scan"}, "name": "b3bbce855e8298dc7f04f02321022fd4", "is_reserved": 0}, {"is_disabled": 0, "fusion_lon": 0.0, "fusion_lat": 0.0, "lat": 38.93454533333333, "type": "electric_scooter", "lon": -77.073063, "bike_id": "b40db3770b37157e390d7d54a7f36c7b", "rental_uris": {"android": "https://dc.lft.to/lastmile_qr_scan", "ios": "https://dc.lft.to/lastmile_qr_scan"}, "name": "b40db3770b37157e390d7d54a7f36c7b", "is_reserved": 0}, {"is_disabled": 0, "fusion_lon": 0.0, "fusion_lat": 0.0, "lat": 38.898249, "type": "electric_scooter", "lon": -77.0436645, "bike_id": "3cf950b073cead77b4212c96dc016be3", "rental_uris": {"android": "https://dc.lft.to/lastmile_qr_scan", "ios": "https://dc.lft.to/lastmile_qr_scan"}, "name": "3cf950b073cead77b4212c96dc016be3", "is_reserved": 0}, {"is_disabled": 0, "fusion_lon": 0.0, "fusion_lat": 0.0, "lat": 38.86361333333333, "type": "electric_scooter", "lon": -76.9906635, "bike_id": "0b2bf589758c62d166e03902505c5e0f", "rental_uris": {"android": "https://dc.lft.to/lastmile_qr_scan", "ios": "https://dc.lft.to/lastmile_qr_scan"}, "name": "0b2bf589758c62d166e03902505c5e0f", "is_reserved": 0}, {"is_disabled": 0, "fusion_lon": 0.0, "fusion_lat": 0.0, "lat": 38.85988, "type": "electric_bike", "lon": -76.97054433333334, "bike_id": "c581a96a60027e77afb11827509ab999", "rental_uris": {"android": "https://dc.lft.to/lastmile_qr_scan", "ios": "https://dc.lft.to/lastmile_qr_scan"}, "name": "c581a96a60027e77afb11827509ab999", "is_reserved": 0}, {"is_disabled": 0, "fusion_lon": 0.0, "fusion_lat": 0.0, "lat": 38.86887466666667, "type": "electric_scooter", "lon": -76.983163, "bike_id": "fa6194e7ff77b72fdc61e33c6bb6e716", "rental_uris": {"android": "https://dc.lft.to/lastmile_qr_scan", "ios": "https://dc.lft.to/lastmile_qr_scan"}, "name": "fa6194e7ff77b72fdc61e33c6bb6e716", "is_reserved": 0}, {"is_disabled": 0, "fusion_lon": 0.0, "fusion_lat": 0.0, "lat": 38.91460283333333, "type": "electric_scooter", "lon": -77.0280035, "bike_id": "efa42e8ac5ba24c1acbb25acd84dd98e", "rental_uris": {"android": "https://dc.lft.to/lastmile_qr_scan", "ios": "https://dc.lft.to/lastmile_qr_scan"}, "name": "efa42e8ac5ba24c1acbb25acd84dd98e", "is_reserved": 0}, {"is_disabled": 0, "fusion_lon": 0.0, "fusion_lat": 0.0, "lat": 38.8800925, "type": "electric_bike", "lon": -76.91597316666666, "bike_id": "85bb944545860b3f2872bc3c7620e203", "rental_uris": {"android": "https://dc.lft.to/lastmile_qr_scan", "ios": "https://dc.lft.to/lastmile_qr_scan"}, "name": "85bb944545860b3f2872bc3c7620e203", "is_reserved": 0}, {"is_disabled": 0, "fusion_lon": 0.0, "fusion_lat": 0.0, "lat": 38.99451166666667, "type": "electric_bike", "lon": -76.90817516666667, "bike_id": "79c08b242847e9bb06da7753ffef56ec", "rental_uris": {"android": "https://dc.lft.to/lastmile_qr_scan", "ios": "https://dc.lft.to/lastmile_qr_scan"}, "name": "79c08b242847e9bb06da7753ffef56ec", "is_reserved": 0}, {"is_disabled": 0, "fusion_lon": 0.0, "fusion_lat": 0.0, "lat": 38.917008, "type": "electric_scooter", "lon": -77.04279233333334, "bike_id": "82c958fa11f19ed0aa46f70126bfbf7c", "rental_uris": {"android": "https://dc.lft.to/lastmile_qr_scan", "ios": "https://dc.lft.to/lastmile_qr_scan"}, "name": "82c958fa11f19ed0aa46f70126bfbf7c", "is_reserved": 0}, {"is_disabled": 0, "fusion_lon": 0.0, "fusion_lat": 0.0, "lat": 38.90322783333333, "type": "electric_scooter", "lon": -77.02895916666667, "bike_id": "e93d68ac7a75eb65a2fcc6c08e1318fa", "rental_uris": {"android": "https://dc.lft.to/lastmile_qr_scan", "ios": "https://dc.lft.to/lastmile_qr_scan"}, "name": "e93d68ac7a75eb65a2fcc6c08e1318fa", "is_reserved": 0}, {"is_disabled": 0, "fusion_lon": 0.0, "fusion_lat": 0.0, "lat": 38.831054333333334, "type": "electric_bike", "lon": -77.0426185, "bike_id": "b24c52826be64060c4af284dabd8bd75", "rental_uris": {"android": "https://dc.lft.to/lastmile_qr_scan", "ios": "https://dc.lft.to/lastmile_qr_scan"}, "name": "b24c52826be64060c4af284dabd8bd75", "is_reserved": 0},