{"data": {"bikes": [{"rental_uris": {"ios": "https://dc.lft.to/lastmile_qr_scan", "android": "https://dc.lft.to/lastmile_qr_scan"}, "lon": -76.9857135, "type": "electric_scooter", "fusion_lat": 0.0, "lat": 38.898856333333335, "name": "ea8aa6b5c58a27823fd221a890bfce26", "fusion_lon": 0.0, "bike_id": "ea8aa6b5c58a27823fd221a890bfce26", "is_disabled": 0, "is_reserved": 0}, {"rental_uris": {"ios": "https://dc.lft.to/lastmile_qr_scan", "android": "https://dc.lft.to/lastmile_qr_scan"}, "lon": -77.023327, "type": "electric_scooter", "fusion_lat": 0.0, "lat": 38.93055616666667, "name": "7ef25b70c748ef51508f56237eef3220", "fusion_lon": 0.0, "bike_id": "7ef25b70c748ef51508f56237eef3220", "is_disabled": 0, "is_reserved": 0}, {"rental_uris": {"ios": "https://dc.lft.to/lastmile_qr_scan", "android": "https://dc.lft.to/lastmile_qr_scan"}, "lon": -76.98654516666667, "type": "electric_scooter", "fusion_lat": 0.0, "lat": 38.858066, "name": "74cce7630145bfd1e16ca207688f471d", "fusion_lon": 0.0, "bike_id": "74cce7630145bfd1e16ca207688f471d", "is_disabled": 0, "is_reserved": 0}, {"rental_uris": {"ios": "https://dc.lft.to/lastmile_qr_scan", "android": "https://dc.lft.to/lastmile_qr_scan"}, "lon": -76.94653233333334, "type": "electric_scooter", "fusion_lat": 0.0, "lat": 38.89828883333333, "name": "cd371435323857489316f367335ce0b0", "fusion_lon": 0.0, "bike_id": "cd371435323857489316f367335ce0b0", "is_disabled": 0, "is_reserved": 0}, {"rental_uris": {"ios": "https://dc.lft.to/lastmile_qr_scan", "android": "https://dc.lft.to/lastmile_qr_scan"}, "lon": -77.03122283333333, "type": "electric_scooter", "fusion_lat": 0.0, "lat": 38.963093666666666, "name": "faa4ee7898496bb6225ac04b70d24d71", "fusion_lon": 0.0, "bike_id": "faa4ee7898496bb6225ac04b70d24d71", "is_disabled": 0, "is_reserved": 0}, {"rental_uris": {"ios": "https://dc.lft.to/lastmile_qr_scan", "android": "https://dc.lft.to/lastmile_qr_scan"}, "lon": -76.9865745, "type": "electric_scooter", "fusion_lat": 0.0, "lat": 38.858067, "name": "60780d2ed8ce66da6f016fdda9bb8854", "fusion_lon": 0.0, "bike_id": "60780d2ed8ce66da6f016fdda9bb8854", "is_disabled": 0, "is_reserved": 0}, {"rental_uris": {"ios": "https://dc.lft.to/lastmile_qr_scan", "android": "https://dc.lft.to/lastmile_qr_scan"}, "lon": -76.97922716666666, "type": "electric_scooter", "fusion_lat": 0.0, "lat": 38.90509016666667, "name": "82826ab79a4b3af65d24f9c7d77f9083", "fusion_lon": 0.0, "bike_id": "82826ab79a4b3af65d24f9c7d77f9083", "is_disabled": 0, "is_reserved": 0}, {"rental_uris": {"ios": "https://dc.lft.to/lastmile_qr_scan", "android": "https://dc.lft.to/lastmile_qr_scan"}, "lon": -77.10027033333333, "type": "electric_bike", "fusion_lat": 0.0, "lat": 38.99065316666667, "name": "df90561d683d78579525324712a216da", "fusion_lon": 0.0, "bike_id": "df90561d683d78579525324712a216da", "is_disabled": 0, "is_reserved": 0}, {"rental_uris": {"ios": "https://dc.lft.to/lastmile_qr_scan", "android": "https://dc.lft.to/lastmile_qr_scan"}, "lon": -77.036623, "type": "electric_scooter", "fusion_lat": 0.0, "lat": 38.9220415, "name": "1cf3b54cc717d15cb2ff3be70a47e4cc", "fusion_lon": 0.0, "bike_id": "1cf3b54cc717d15cb2ff3be70a47e4cc", "is_disabled": 0, "is_reserved": 0}, {"rental_uris": {"ios": "https://dc.lft.to/lastmile_qr_scan", "android": "https://dc.lft.to/lastmile_qr_scan"}, "lon": -77.04801266666666, "type": "electric_scooter", "fusion_lat": 0.0, "lat": 38.91109216666667, "name": "5bc87753a403f82bea132cd4d64dc8fc", "fusion_lon": 0.0, "bike_id": "5bc87753a403f82bea132cd4d64dc8fc", "is_disabled": 0, "is_reserved": 0}, {"rental_uris": {"ios": "https://dc.lft.to/lastmile_qr_scan", "android": "https://dc.lft.to/lastmile_qr_scan"}, "lon": -76.9999495, "type": "electric_scooter", "fusion_lat": 0.0, "lat": 38.90021133333333, "name": "d72a96e20978b763d1acc23168299639", "fusion_lon": 0.0, "bike_id": "d72a96e20978b763d1acc23168299639", "is_disabled": 0, "is_reserved": 0}, {"rental_uris": {"ios": "https://dc.lft.to/lastmile_qr_scan", "android": "https://dc.lft.to/lastmile_qr_scan"}, "lon": -77.0489835, "type": "electric_bike", "fusion_lat": 0.0, "lat": 38.874939166666664, "name": "2ee2583b0d8937b9a91088d9ab94a2de", "fusion_lon": 0.0, "bike_id": "2ee2583b0d8937b9a91088d9ab94a2de", "is_disabled": 0, "is_reserved": 0}, {"rental_uris": {"ios": "https://dc.lft.to/lastmile_qr_scan", "android": "https://dc.lft.to/lastmile_qr_scan"}, "lon": -76.98568066666667, "type": "electric_scooter", "fusion_lat": 0.0, "lat": 38.8561755, "name": "a4d77912ed90c404ff9001cef5e4de4d", "fusion_lon": 0.0, "bike_id": "a4d77912ed90c404ff9001cef5e4de4d", "is_disabled": 0, "is_reserved": 0}, {"rental_uris": {"ios": "https://dc.lft.to/lastmile_qr_scan", "android": "https://dc.lft.to/lastmile_qr_scan"}, "lon": -77.00352, "type": "electric_scooter", "fusion_lat": 0.0, "lat": 38.897639, "name": "b59497135ca7dc3ca284bd38e4f54203", "fusion_lon": 0.0, "bike_id": "b59497135ca7dc3ca284bd38e4f54203", "is_disabled": 0, "is_reserved": 0}, {"rental_uris": {"ios": "https://dc.lft.to/lastmile_qr_scan", "android": "https://dc.lft.to/lastmile_qr_scan"}, "lon": -77.07323183333334, "type": "electric_scooter", "fusion_lat": 0.0, "lat": 38.92523166666667, "name": "c9524e520acee2c7d62b3a445304fb95", "fusion_lon": 0.0, "bike_id": "c9524e520acee2c7d62b3a445304fb95", "is_disabled": 0, "is_reserved": 0}, {"rental_uris": {"ios": "https://dc.lft.to/lastmile_qr_scan", "android": "https://dc.lft.to/lastmile_qr_scan"}, "lon": -77.02226733333333, "type": "electric_scooter", "fusion_lat": 0.0, "lat": 38.893579, "name": "0841d1c9ce4d577e05e21dc4761ba132", "fusion_lon": 0.0, "bike_id": "0841d1c9ce4d577e05e21dc4761ba132", "is_disabled": 0, "is_reserved": 0}, {"rental_uris": {"ios": "https://dc.lft.to/lastmile_qr_scan", "android": "https://dc.lft.to/lastmile_qr_scan"}, "lon": -76.994811, "type": "electric_bike", "fusion_lat": 0.0, "lat": 38.899874833333335, "name": "bd077124a179569485f2e89f26248a62", "fusion_lon": 0.0, "bike_id": "bd077124a179569485f2e89f26248a62", "is_disabled": 0, "is_reserved": 0}, {"rental_uris": {"ios": "https://dc.lft.to/lastmile_qr_scan", "android": "https://dc.lft.to/lastmile_qr_scan"}, "lon": -77.05886833333334, "type": "electric_scooter", "fusion_lat": 0.0, "lat": 38.93636816666667, "name": "64f107d2b6b9f6f834cd3dc53eb9d887", "fusion_lon": 0.0, "bike_id": "64f107d2b6b9f6f834cd3dc53eb9d887", "is_disabled": 0, "is_reserved": 0}, {"rental_uris": {"ios": "https://dc.lft.to/lastmile_qr_scan", "android": "https://dc.lft.to/lastmile_qr_scan"}, "lon": -77.002046, "type": "electric_scooter", "fusion_lat": 0.0, "lat": 38.9120155, "name": "fd079aa1dce49f04c11e75cfe9ae7401", "fusion_lon": 0.0, "bike_id": "fd079aa1dce49f04c11e75cfe9ae7401", "is_disabled": 0, "is_reserved": 0}, {"rental_uris": {"ios": "https://dc.lft.to/lastmile_qr_scan", "android": "https://dc.lft.to/lastmile_qr_scan"}, "lon": -76.9831255, "type": "electric_scooter", "fusion_lat": 0.0, "lat": 38.868894, "name": "4a17c651cfbdfba52f0ac8759a738380", "fusion_lon": 0.0, "bike_id": "4a17c651cfbdfba52f0ac8759a738380", "is_disabled": 0, "is_reserved": 0}, {"rental_uris": {"ios": "https://dc.lft.to/lastmile_qr_scan", "android": "https://dc.lft.to/lastmile_qr_scan"}, "lon": -77.02895133333334, "type": "electric_scooter", "fusion_lat": 0.0, "lat": 38.9257265, "name": "7cb8b15d9b4bf54c2052b29e5e3676c4", "fusion_lon": 0.0, "bike_id": "7cb8b15d9b4bf54c2052b29e5e3676c4", "is_disabled": 0, "is_reserved": 0}, {"rental_uris": {"ios": "https://dc.lft.to/lastmile_qr_scan", "android": "https://dc.lft.to/lastmile_qr_scan"}, "lon": -77.002022, "type": "electric_bike", "fusion_lat": 0.0, "lat": 38.8830935, "name": "1396a9d1d8e1b927c90830f88b74800c", "fusion_lon": 0.0, "bike_id": "1396a9d1d8e1b927c90830f88b74800c", "is_disabled": 0, "is_reserved": 0}, {"rental_uris": {"ios": "https://dc.lft.to/lastmile_qr_scan", "android": "https://dc.lft.to/lastmile_qr_scan"}, "lon": -77.04786316666667, "type": "electric_scooter", "fusion_lat": 0.0, "lat": 38.908484333333334, "name": "8620323c746d988910605da3b4aabb37", "fusion_lon": 0.0, "bike_id": "8620323c746d988910605da3b4aabb37", "is_disabled": 0, "is_reserved": 0}, {"rental_uris": {"ios": "https://dc.lft.to/lastmile_qr_scan", "android": "https://dc.lft.to/lastmile_qr_scan"}, "lon": -76.986796, "type": "electric_scooter", "fusion_lat": 0.0, "lat": 38.882115666666664, "name": "6e38f87b7543c2e88a9fac0b7c94af6e", "fusion_lon": 0.0, "bike_id": "6e38f87b7543c2e88a9fac0b7c94af6e", "is_disabled": 0, "is_reserved": 0}, {"rental_uris": {"ios": "https://dc.lft.to/lastmile_qr_scan", "android": "https://dc.lft.to/lastmile_qr_scan"}, "lon": -77.031117, "type": "electric_scooter", "fusion_lat": 0.0, "lat": 38.9135035, "name": "de9e4d92f0da409490c53121adc4b970", "fusion_lon": 0.0, "bike_id": "de9e4d92f0da409490c53121adc4b970", "is_disabled": 0, "is_reserved": 0}, {"rental_uris": {"ios": "https://dc.lft.to/lastmile_qr_scan", "android": "https://dc.lft.to/lastmile_qr_scan"}, "lon": -76.976282, "type": "electric_scooter", "fusion_lat": 0.0, "lat": 38.9057815, "name": "f7b3a62fcd453e9b139831772a2ad93a", "fusion_lon": 0.0, "bike_id": "f7b3a62fcd453e9b139831772a2ad93a", "is_disabled": 0, "is_reserved": 0}, {"rental_uris": {"ios": "https://dc.lft.to/lastmile_qr_scan", "android": "https://dc.lft.to/lastmile_qr_scan"}, "lon": -77.03870816666667, "type": "electric_scooter", "fusion_lat": 0.0, "lat": 38.915602666666665, "name": "9c6c91886c26afcb6f50ee1cd4dcdca3", "fusion_lon": 0.0, "bike_id": "9c6c91886c26afcb6f50ee1cd4dcdca3", "is_disabled": 0, "is_reserved": 0}, {"rental_uris": {"ios": "https://dc.lft.to/lastmile_qr_scan", "android": "https://dc.lft.to/lastmile_qr_scan"}, "lon": -77.05212633333333, "type": "electric_scooter", "fusion_lat": 0.0, "lat": 38.92432383333333, "name": "faaaf031e90faa4a67ab89a5a0228fff", "fusion_lon": 0.0, "bike_id": "faaaf031e90faa4a67ab89a5a0228fff", "is_disabled": 0, "is_reserved": 0}, {"rental_uris": {"ios": "https://dc.lft.to/lastmile_qr_scan", "android": "https://dc.lft.to/lastmile_qr_scan"}, "lon": -77.02947833333333, "type": "electric_scooter", "fusion_lat": 0.0, "lat": 38.91680983333333, "name": "0c80c1676af2e242046119a211f72bb5", "fusion_lon": 0.0, "bike_id": "0c80c1676af2e242046119a211f72bb5", "is_disabled": 0, "is_reserved": 0}, {"rental_uris": {"ios": "https://dc.lft.to/lastmile_qr_scan", "android": "https://dc.lft.to/lastmile_qr_scan"}, "lon": -77.038713, "type": "electric_scooter", "fusion_lat": 0.0, "lat": 38.915621333333334, "name": "74b5803fce27153bf7871c0c47595264", "fusion_lon": 0.0, "bike_id": "74b5803fce27153bf7871c0c47595264", "is_disabled": 0, "is_reserved": 0}, {"rental_uris": {"ios": "https://dc.lft.to/lastmile_qr_scan", "android": "https://dc.lft.to/lastmile_qr_scan"}, "lon": -77.036153, "type": "electric_scooter", "fusion_lat": 0.0, "lat": 38.93256183333333, "name": "1ff136ef5fd468495b982476efb357f0", "fusion_lon": 0.0, "bike_id": "1ff136ef5fd468495b982476efb357f0", "is_disabled": 0, "is_reserved": 0}, {"rental_uris": {"ios": "https://dc.lft.to/lastmile_qr_scan", "android": "https://dc.lft.to/lastmile_qr_scan"}, "lon": -76.987144, "type": "electric_scooter", "fusion_lat": 0.0, "lat": 38.862648666666665, "name": "2ab0ab2e02663e7be435b004cd4910c1", "fusion_lon": 0.0, "bike_id": "2ab0ab2e02663e7be435b004cd4910c1", "is_disabled": 0, "is_reserved": 0}, {"rental_uris": {"ios": "https://dc.lft.to/lastmile_qr_scan", "android": "https://dc.lft.to/lastmile_qr_scan"}, "lon": -76.9417815, "type": "electric_scooter", "fusion_lat": 0.0, "lat": 38.88218066666667, "name": "d710be9f5953dab024eb85753562ec87", "fusion_lon": 0.0, "bike_id": "d710be9f5953dab024eb85753562ec87", "is_disabled": 0, "is_reserved": 0}, {"rental_uris": {"ios": "https://dc.lft.to/lastmile_qr_scan", "android": "https://dc.lft.to/lastmile_qr_scan"}, "lon": -77.03226966666666, "type": "electric_scooter", "fusion_lat": 0.0, "lat": 38.915547833333335, "name": "c51b305031724b69f60fa20ac83e9094", "fusion_lon": 0.0, "bike_id": "c51b305031724b69f60fa20ac83e9094", "is_disabled": 0, "is_reserved": 0}, {"rental_uris": {"ios": "https://dc.lft.to/lastmile_qr_scan", "android": "https://dc.lft.to/lastmile_qr_scan"}, "lon": -77.05476783333333, "type": "electric_scooter", "fusion_lat": 0.0, "lat": 38.92101483333333, "name": "e84f0da9f005c3c18ebf37b1ac768299", "fusion_lon": 0.0, "bike_id": "e84f0da9f005c3c18ebf37b1ac768299", "is_disabled": 0, "is_reserved": 0}, {"rental_uris": {"ios": "https://dc.lft.to/lastmile_qr_scan", "android": "https://dc.lft.to/lastmile_qr_scan"}, "lon": -77.02713216666666, "type": "electric_scooter", "fusion_lat": 0.0, "lat": 38.924719333333336, "name": "453db2f25c9d75dc9a1672bfabb52c7a", "fusion_lon": 0.0, "bike_id": "453db2f25c9d75dc9a1672bfabb52c7a", "is_disabled": 0, "is_reserved": 0}, {"rental_uris": {"ios": "https://dc.lft.to/lastmile_qr_scan", "android": "https://dc.lft.to/lastmile_qr_scan"}, "lon": -76.955295, "type": "electric_scooter", "fusion_lat": 0.0, "lat": 38.88779816666667, "name": "62b76f3256f0b3c0a552446664677c2f", "fusion_lon": 0.0, "bike_id": "62b76f3256f0b3c0a552446664677c2f", "is_disabled": 0, "is_reserved": 0}, {"rental_uris": {"ios": "https://dc.lft.to/lastmile_qr_scan", "android": "https://dc.lft.to/lastmile_qr_scan"}, "lon": -77.037361, "type": "electric_scooter", "fusion_lat": 0.0, "lat": 38.92905366666667, "name": "a83c89fc97907054179423d4d2f9e9a5", "fusion_lon": 0.0, "bike_id": "a83c89fc97907054179423d4d2f9e9a5", "is_disabled": 0, "is_reserved": 0}, {"rental_uris": {"ios": "https://dc.lft.to/lastmile_qr_scan", "android": "https://dc.lft.to/lastmile_qr_scan"}, "lon": -77.0601435, "type": "electric_scooter", "fusion_lat": 0.0, "lat": 38.912640333333336, "name": "bcb579c563353f97b626d5efc80e441b", "fusion_lon": 0.0, "bike_id": "bcb579c563353f97b626d5efc80e441b", "is_disabled": 0, "is_reserved": 0}, {"rental_uris": {"ios": "https://dc.lft.to/lastmile_qr_scan", "android": "https://dc.lft.to/lastmile_qr_scan"}, "lon": -77.06885016666666, "type": "electric_scooter", "fusion_lat": 0.0, "lat": 38.907728, "name": "1b42149fdc48c7c21b73f844e30d4b54", "fusion_lon": 0.0, "bike_id": "1b42149fdc48c7c21b73f844e30d4b54", "is_disabled": 0, "is_reserved": 0}, {"rental_uris": {"ios": "https://dc.lft.to/lastmile_qr_scan", "android": "https://dc.lft.to/lastmile_qr_scan"}, "lon": -76.93173833333333, "type": "electric_scooter", "fusion_lat": 0.0, "lat": 38.898854666666665, "name": "f38bba92927e50f6990812e2e8ea3c5a", "fusion_lon": 0.0, "bike_id": "f38bba92927e50f6990812e2e8ea3c5a", "is_disabled": 0, "is_reserved": 0}, {"rental_uris": {"ios": "https://dc.lft.to/lastmile_qr_scan", "android": "https://dc.lft.to/lastmile_qr_scan"}, "lon": -77.02978183333333, "type": "electric_scooter", "fusion_lat": 0.0, "lat": 38.938806, "name": "085c90a3e0ef7341a821360fbeaf881b", "fusion_lon": 0.0, "bike_id": "085c90a3e0ef7341a821360fbeaf881b", "is_disabled": 0, "is_reserved": 0}, {"rental_uris": {"ios": "https://dc.lft.to/lastmile_qr_scan", "android": "https://dc.lft.to/lastmile_qr_scan"}, "lon": -77.0307085, "type": "electric_scooter", "fusion_lat": 0.0, "lat": 38.89729466666667, "name": "07e4beb309c0f5b237cab8302f9d9195", "fusion_lon": 0.0, "bike_id": "07e4beb309c0f5b237cab8302f9d9195", "is_disabled": 0, "is_reserved": 0}, {"rental_uris": {"ios": "https://dc.lft.to/lastmile_qr_scan", "android": "https://dc.lft.to/lastmile_qr_scan"}, "lon": -77.01181383333333, "type": "electric_scooter", "fusion_lat": 0.0, "lat": 38.911116666666665, "name": "9b423df3463ab10635a6c7a01040695b", "fusion_lon": 0.0, "bike_id": "9b423df3463ab10635a6c7a01040695b", "is_disabled": 0, "is_reserved": 0}, {"rental_uris": {"ios": "https://dc.lft.to/lastmile_qr_scan", "android": "https://dc.lft.to/lastmile_qr_scan"}, "lon": -77.02661, "type": "electric_scooter", "fusion_lat": 0.0, "lat": 38.895923, "name": "3e285726e344c034fcb6daa2cd1ac801", "fusion_lon": 0.0, "bike_id": "3e285726e344c034fcb6daa2cd1ac801", "is_disabled": 0, "is_reserved": 0}, {"rental_uris": {"ios": "https://dc.lft.to/lastmile_qr_scan", "android": "https://dc.lft.to/lastmile_qr_scan"}, "lon": -77.040643, "type": "electric_scooter", "fusion_lat": 0.0, "lat": 38.92390116666667, "name": "c044a48c931263214c057d6f27b2e75a", "fusion_lon": 0.0, "bike_id": "c044a48c931263214c057d6f27b2e75a", "is_disabled": 0, "is_reserved": 0}, {"rental_uris": {"ios": "https://dc.lft.to/lastmile_qr_scan", "android": "https://dc.lft.to/lastmile_qr_scan"}, "lon": -76.92374133333334, "type": "electric_bike", "fusion_lat": 0.0, "lat": 38.88374116666667, "name": "7cdf79d42d857a7efde39e45d9075cc3", "fusion_lon": 0.0, "bike_id": "7cdf79d42d857a7efde39e45d9075cc3", "is_disabled": 0, "is_reserved": 0}, {"rental_uris": {"ios": "https://dc.lft.to/lastmile_qr_scan", "android": "https://dc.lft.to/lastmile_qr_scan"}, "lon": -77.01221866666667, "type": "electric_scooter", "fusion_lat": 0.0, "lat": 38.912783833333336, "name": "7f02daeba540eadd30f7d6e4bdfc23fe", "fusion_lon": 0.0, "bike_id": "7f02daeba540eadd30f7d6e4bdfc23fe", "is_disabled": 0, "is_reserved": 0}, {"rental_uris": {"ios": "https://dc.lft.to/lastmile_qr_scan", "android": "https://dc.lft.to/lastmile_qr_scan"}, "lon": -76.99779116666667, "type": "electric_bike", "fusion_lat": 0.0, "lat": 38.9229935, "name": "a335af1269ebd345c1afef7cc5147bcd", "fusion_lon": 0.0, "bike_id": "a335af1269ebd345c1afef7cc5147bcd", "is_disabled": 0, "is_reserved": 0}, {"rental_uris": {"ios": "https://dc.lft.to/lastmile_qr_scan", "android": "https://dc.lft.to/lastmile_qr_scan"}, "lon": -77.02435983333334, "type": "electric_scooter", "fusion_lat": 0.0, "lat": 38.92059116666667, "name": "09443735c6d3ec86fabd20054a7255b9", "fusion_lon": 0.0, "bike_id": "09443735c6d3ec86fabd20054a7255b9", "is_disabled": 0, "is_reserved": 0}, {"rental_uris": {"ios": "https://dc.lft.to/lastmile_qr_scan", "android": "https://dc.lft.to/lastmile_qr_scan"}, "lon": -77.11317016666666, "type": "electric_bike", "fusion_lat": 0.0, "lat": 38.85565233333333, "name": "86b0ac2e92c0130eefd64246f38b5a17", "fusion_lon": 0.0, "bike_id": "86b0ac2e92c0130eefd64246f38b5a17", "is_disabled": 0, "is_reserved": 0}, {"rental_uris": {"ios": "https://dc.lft.to/lastmile_qr_scan", "android": "https://dc.lft.to/lastmile_qr_scan"}, "lon": -77.0271415, "type": "electric_scooter", "fusion_lat": 0.0, "lat": 38.906913833333334, "name": "e4a04b64c4b0e296955b32adb1ac249e", "fusion_lon": 0.0, "bike_id": "e4a04b64c4b0e296955b32adb1ac249e", "is_disabled": 0, "is_reserved": 0}, {"rental_uris": {"ios": "https://dc.lft.to/lastmile_qr_scan", "android": "https://dc.lft.to/lastmile_qr_scan"}, "lon": -77.02619533333333, "type": "electric_scooter", "fusion_lat": 0.0, "lat": 38.91692233333333, "name": "5a75e66645fd5b545a98e4d8d26aed7e", "fusion_lon": 0.0, "bike_id": "5a75e66645fd5b545a98e4d8d26aed7e", "is_disabled": 0, "is_reserved": 0}, {"rental_uris": {"ios": "https://dc.lft.to/lastmile_qr_scan", "android": "https://dc.lft.to/lastmile_qr_scan"}, "lon": -77.03855316666667, "type": "electric_scooter", "fusion_lat": 0.0, "lat": 38.90296216666667, "name": "c49290bc058124065a34724600fb4c99", "fusion_lon": 0.0, "bike_id": "c49290bc058124065a34724600fb4c99", "is_disabled": 0, "is_reserved": 0}, {"rental_uris": {"ios": "https://dc.lft.to/lastmile_qr_scan", "android": "https://dc.lft.to/lastmile_qr_scan"}, "lon": -76.98885216666666, "type": "electric_scooter", "fusion_lat": 0.0, "lat": 38.866650166666666, "name": "e267bfa3ef651ce233bb44a04b7418f7", "fusion_lon": 0.0, "bike_id": "e267bfa3ef651ce233bb44a04b7418f7", "is_disabled": 0, "is_reserved": 0}, {"rental_uris": {"ios": "https://dc.lft.to/lastmile_qr_scan", "android": "https://dc.lft.to/lastmile_qr_scan"}, "lon": -77.03004216666666, "type": "electric_scooter", "fusion_lat": 0.0, "lat": 38.91252716666666, "name": "6dd0d4ed4cc21ca9c13ed17faa0721d9", "fusion_lon": 0.0, "bike_id": "6dd0d4ed4cc21ca9c13ed17faa0721d9", "is_disabled": 0, "is_reserved": 0}, {"rental_uris": {"ios": "https://dc.lft.to/lastmile_qr_scan", "android": "https://dc.lft.to/lastmile_qr_scan"}, "lon": -77.07085516666666, "type": "electric_bike", "fusion_lat": 0.0, "lat": 38.95560583333334, "name": "808da326ed51b6f5e2f9619d1bef3e87", "fusion_lon": 0.0, "bike_id": "808da326ed51b6f5e2f9619d1bef3e87", "is_disabled": 0, "is_reserved": 0}, {"rental_uris": {"ios": "https://dc.lft.to/lastmile_qr_scan", "android": "https://dc.lft.to/lastmile_qr_scan"}, "lon": -77.043336, "type": "electric_scooter", "fusion_lat": 0.0, "lat": 38.895876333333334, "name": "ad1dcc73b8f72e98628fda21fd35057c", "fusion_lon": 0.0, "bike_id": "ad1dcc73b8f72e98628fda21fd35057c", "is_disabled": 0, "is_reserved": 0}, {"rental_uris": {"ios": "https://dc.lft.to/lastmile_qr_scan", "android": "https://dc.lft.to/lastmile_qr_scan"}, "lon": -77.034661, "type": "electric_scooter", "fusion_lat": 0.0, "lat": 38.91712533333333, "name": "472bd21b4a4c302c42a075dc00051abc", "fusion_lon": 0.0, "bike_id": "472bd21b4a4c302c42a075dc00051abc", "is_disabled": 0, "is_reserved": 0}, {"rental_uris": {"ios": "https://dc.lft.to/lastmile_qr_scan", "android": "https://dc.lft.to/lastmile_qr_scan"}, "lon": -77.02386533333333, "type": "electric_scooter", "fusion_lat": 0.0, "lat": 38.917278833333334, "name": "8b3a19787b40393ca3e781c9f9e2e932", "fusion_lon": 0.0, "bike_id": "8b3a19787b40393ca3e781c9f9e2e932", "is_disabled": 0, "is_reserved": 0}, {"rental_uris": {"ios": "https://dc.lft.to/lastmile_qr_scan", "android": "https://dc.lft.to/lastmile_qr_scan"}, "lon": -77.03924083333334, "type": "electric_scooter", "fusion_lat": 0.0, "lat": 38.89923733333333, "name": "8226b9fc6f67641361bc21686d836843", "fusion_lon": 0.0, "bike_id": "8226b9fc6f67641361bc21686d836843", "is_disabled": 0, "is_reserved": 0}, {"rental_uris": {"ios": "https://dc.lft.to/lastmile_qr_scan", "android": "https://dc.lft.to/lastmile_qr_scan"}, "lon": -77.03217, "type": "electric_scooter", "fusion_lat": 0.0, "lat": 38.90767783333333, "name": "93d963c52166c929ecd4a6a17c7b494e", "fusion_lon": 0.0, "bike_id": "93d963c52166c929ecd4a6a17c7b494e", "is_disabled": 0, "is_reserved": 0}, {"rental_uris": {"ios": "https://dc.lft.to/lastmile_qr_scan", "android": "https://dc.lft.to/lastmile_qr_scan"}, "lon": -77.02848266666666, "type": "electric_scooter", "fusion_lat": 0.0, "lat": 38.88763616666667, "name": "3dd2ef9b1b975ebf9bb619c669eedd72", "fusion_lon": 0.0, "bike_id": "3dd2ef9b1b975ebf9bb619c669eedd72", "is_disabled": 0, "is_reserved": 0}, {"rental_uris": {"ios": "https://dc.lft.to/lastmile_qr_scan", "android": "https://dc.lft.to/lastmile_qr_scan"}, "lon": -77.0384225, "type": "electric_scooter", "fusion_lat": 0.0, "lat": 38.926487333333334, "name": "b7293599c7d96293ecfc0e755bfe8c5f", "fusion_lon": 0.0, "bike_id": "b7293599c7d96293ecfc0e755bfe8c5f", "is_disabled": 0, "is_reserved": 0}, {"rental_uris": {"ios": "https://dc.lft.to/lastmile_qr_scan", "android": "https://dc.lft.to/lastmile_qr_scan"}, "lon": -77.04686333333333, "type": "electric_scooter", "fusion_lat": 0.0, "lat": 38.903898166666664, "name": "b693aa28e11fc1e2f821a7f1b5b9b6d3", "fusion_lon": 0.0, "bike_id": "b693aa28e11fc1e2f821a7f1b5b9b6d3", "is_disabled": 0, "is_reserved": 0}, {"rental_uris": {"ios": "https://dc.lft.to/lastmile_qr_scan", "android": "https://dc.lft.to/lastmile_qr_scan"}, "lon": -77.044855, "type": "electric_scooter", "fusion_lat": 0.0, "lat": 38.918712666666664, "name": "5ea577eec5ba934be16a1987ef52ca63", "fusion_lon": 0.0, "bike_id": "5ea577eec5ba934be16a1987ef52ca63", "is_disabled": 0, "is_reserved": 0}, {"rental_uris": {"ios": "https://dc.lft.to/lastmile_qr_scan", "android": "https://dc.lft.to/lastmile_qr_scan"}, "lon": -76.9989275, "type": "electric_scooter", "fusion_lat": 0.0, "lat": 38.90743483333333, "name": "3e458657c160f65ae44c4acfa93e0da3", "fusion_lon": 0.0, "bike_id": "3e458657c160f65ae44c4acfa93e0da3", "is_disabled": 0, "is_reserved": 0}, {"rental_uris": {"ios": "https://dc.lft.to/lastmile_qr_scan", "android": "https://dc.lft.to/lastmile_qr_scan"}, "lon": -77.01490266666667, "type": "electric_scooter", "fusion_lat": 0.0, "lat": 38.9014575, "name": "da2a811527bca2e8cb21032263e2a1fa", "fusion_lon": 0.0, "bike_id": "da2a811527bca2e8cb21032263e2a1fa", "is_disabled": 0, "is_reserved": 0}, {"rental_uris": {"ios": "https://dc.lft.to/lastmile_qr_scan", "android": "https://dc.lft.to/lastmile_qr_scan"}, "lon": -77.02640533333333, "type": "electric_scooter", "fusion_lat": 0.0, "lat": 38.8962145, "name": "496277e657bac4594360cb109cc7ffec", "fusion_lon": 0.0, "bike_id": "496277e657bac4594360cb109cc7ffec", "is_disabled": 0, "is_reserved": 0}, {"rental_uris": {"ios": "https://dc.lft.to/lastmile_qr_scan", "android": "https://dc.lft.to/lastmile_qr_scan"}, "lon": -76.97210983333333, "type": "electric_scooter", "fusion_lat": 0.0, "lat": 38.854969, "name": "d2fee1748d493e2e518b644b73f0cdf7", "fusion_lon": 0.0, "bike_id": "d2fee1748d493e2e518b644b73f0cdf7", "is_disabled": 0, "is_reserved": 0}, {"rental_uris": {"ios": "https://dc.lft.to/lastmile_qr_scan", "android": "https://dc.lft.to/lastmile_qr_scan"}, "lon": -76.94630016666666, "type": "electric_bike", "fusion_lat": 0.0, "lat": 38.946261666666665, "name": "902985bb48e29250ed0040acb6fa9b8e", "fusion_lon": 0.0, "bike_id": "902985bb48e29250ed0040acb6fa9b8e", "is_disabled": 0, "is_reserved": 0}, {"rental_uris": {"ios": "https://dc.lft.to/lastmile_qr_scan", "android": "https://dc.lft.to/lastmile_qr_scan"}, "lon": -77.04317616666667, "type": "electric_scooter", "fusion_lat": 0.0, "lat": 38.918821666666666, "name": "e4020abd165621af8b96f12276363911", "fusion_lon": 0.0, "bike_id": "e4020abd165621af8b96f12276363911", "is_disabled": 0, "is_reserved": 0}, {"rental_uris": {"ios": "https://dc.lft.to/lastmile_qr_scan", "android": "https://dc.lft.to/lastmile_qr_scan"}, "lon": -77.02417516666667, "type": "electric_scooter", "fusion_lat": 0.0, "lat": 38.902398833333336, "name": "c42bc1c4497dffbf6d4653753610099d", "fusion_lon": 0.0, "bike_id": "c42bc1c4497dffbf6d4653753610099d", "is_disabled": 0, "is_reserved": 0}, {"rental_uris": {"ios": "https://dc.lft.to/lastmile_qr_scan", "android": "https://dc.lft.to/lastmile_qr_scan"}, "lon": -77.010136, "type": "electric_scooter", "fusion_lat": 0.0, "lat": 38.90688266666667, "name": "9b4ecd842efaa526ef9871e447d090f7", "fusion_lon": 0.0, "bike_id": "9b4ecd842efaa526ef9871e447d090f7", "is_disabled": 0, "is_reserved": 0}, {"rental_uris": {"ios": "https://dc.lft.to/lastmile_qr_scan", "android": "https://dc.lft.to/lastmile_qr_scan"}, "lon": -77.02450983333334, "type": "electric_scooter", "fusion_lat": 0.0, "lat": 38.90850483333333, "name": "d57a5c2835b6b67c1f9fe71cc5bf7da3", "fusion_lon": 0.0, "bike_id": "d57a5c2835b6b67c1f9fe71cc5bf7da3", "is_disabled": 0, "is_reserved": 0}, {"rental_uris": {"ios": "https://dc.lft.to/lastmile_qr_scan", "android": "https://dc.lft.to/lastmile_qr_scan"}, "lon": -77.034674, "type": "electric_scooter", "fusion_lat": 0.0, "lat": 38.90283066666667, "name": "cc650c23d90c1f434088809aa2e1d0ec", "fusion_lon": 0.0, "bike_id": "cc650c23d90c1f434088809aa2e1d0ec", "is_disabled": 0, "is_reserved": 0}, {"rental_uris": {"ios": "https://dc.lft.to/lastmile_qr_scan", "android": "https://dc.lft.to/lastmile_qr_scan"}, "lon": -77.03346716666667, "type": "electric_scooter", "fusion_lat": 0.0, "lat": 38.91716, "name": "5e954a3695ff40ed2458359d7305d3c6", "fusion_lon": 0.0, "bike_id": "5e954a3695ff40ed2458359d7305d3c6", "is_disabled": 0, "is_reserved": 0}, {"rental_uris": {"ios": "https://dc.lft.to/lastmile_qr_scan", "android": "https://dc.lft.to/lastmile_qr_scan"}, "lon": -77.01295566666667, "type": "electric_bike", "fusion_lat": 0.0, "lat": 38.88128433333333, "name": "26af33f899e6b833432abed40bf4a33a", "fusion_lon": 0.0, "bike_id": "26af33f899e6b833432abed40bf4a33a", "is_disabled": 0, "is_reserved": 0}, {"rental_uris": {"ios": "https://dc.lft.to/lastmile_qr_scan", "android": "https://dc.lft.to/lastmile_qr_scan"}, "lon": -77.02431566666667, "type": "electric_scooter", "fusion_lat": 0.0, "lat": 38.920525166666664, "name": "058b1adeaccc58f936da2232c3f7471d", "fusion_lon": 0.0, "bike_id": "058b1adeaccc58f936da2232c3f7471d", "is_disabled": 0, "is_reserved": 0}, {"rental_uris": {"ios": "https://dc.lft.to/lastmile_qr_scan", "android": "https://dc.lft.to/lastmile_qr_scan"}, "lon": -76.97343666666667, "type": "electric_scooter", "fusion_lat": 0.0, "lat": 38.917750166666664, "name": "939624ce2be6921086733d01f87bdb98", "fusion_lon": 0.0, "bike_id": "939624ce2be6921086733d01f87bdb98", "is_disabled": 0, "is_reserved": 0}, {"rental_uris": {"ios": "https://dc.lft.to/lastmile_qr_scan", "android": "https://dc.lft.to/lastmile_qr_scan"}, "lon": -77.0057905, "type": "electric_scooter", "fusion_lat": 0.0, "lat": 38.84496816666667, "name": "3b6e69c6b2af7ff3196f5e08d555bd03", "fusion_lon": 0.0, "bike_id": "3b6e69c6b2af7ff3196f5e08d555bd03", "is_disabled": 0, "is_reserved": 0}, {"rental_uris": {"ios": "https://dc.lft.to/lastmile_qr_scan", "android": "https://dc.lft.to/lastmile_qr_scan"}, "lon": -77.01533466666666, "type": "electric_scooter", "fusion_lat": 0.0, "lat": 38.8873395, "name": "a83572888a99d29f2361ce0ef5a192ed", "fusion_lon": 0.0, "bike_id": "a83572888a99d29f2361ce0ef5a192ed", "is_disabled": 0, "is_reserved": 0}, {"rental_uris": {"ios": "https://dc.lft.to/lastmile_qr_scan", "android": "https://dc.lft.to/lastmile_qr_scan"}, "lon": -77.03152333333334, "type": "electric_scooter", "fusion_lat": 0.0, "lat": 38.94530366666667, "name": "74782479e08f9bf8d2a5f73e2a8f80d7", "fusion_lon": 0.0, "bike_id": "74782479e08f9bf8d2a5f73e2a8f80d7", "is_disabled": 0, "is_reserved": 0}, {"rental_uris": {"ios": "https://dc.lft.to/lastmile_qr_scan", "android": "https://dc.lft.to/lastmile_qr_scan"}, "lon": -77.04518733333333, "type": "electric_scooter", "fusion_lat": 0.0, "lat": 38.912856833333336, "name": "5d3ababdb1356cd3a112741d4f5117a3", "fusion_lon": 0.0, "bike_id": "5d3ababdb1356cd3a112741d4f5117a3", "is_disabled": 0, "is_reserved": 0}, {"rental_uris": {"ios": "https://dc.lft.to/lastmile_qr_scan", "android": "https://dc.lft.to/lastmile_qr_scan"}, "lon": -77.02331, "type": "electric_scooter", "fusion_lat": 0.0, "lat": 38.9305505, "name": "3cc290fd7bad9735be8d7b05fcba68c7", "fusion_lon": 0.0, "bike_id": "3cc290fd7bad9735be8d7b05fcba68c7", "is_disabled": 0, "is_reserved": 0}, {"rental_uris": {"ios": "https://dc.lft.to/lastmile_qr_scan", "android": "https://dc.lft.to/lastmile_qr_scan"}, "lon": -76.97331366666667, "type": "electric_bike", "fusion_lat": 0.0, "lat": 38.850631666666665, "name": "3b71df36ae3e71112746f24f71c43e0e", "fusion_lon": 0.0, "bike_id": "3b71df36ae3e71112746f24f71c43e0e", "is_disabled": 0, "is_reserved": 0}, {"rental_uris": {"ios": "https://dc.lft.to/lastmile_qr_scan", "android": "https://dc.lft.to/lastmile_qr_scan"}, "lon": -77.05033983333334, "type": "electric_scooter", "fusion_lat": 0.0, "lat": 38.8965535, "name": "92ec64fdcb5c4dd194cb5fb5a8a0ab37", "fusion_lon": 0.0, "bike_id": "92ec64fdcb5c4dd194cb5fb5a8a0ab37", "is_disabled": 0, "is_reserved": 0}, {"rental_uris": {"ios": "https://dc.lft.to/lastmile_qr_scan", "android": "https://dc.lft.to/lastmile_qr_scan"}, "lon": -77.04620416666667, "type": "electric_scooter", "fusion_lat": 0.0, "lat": 38.902441333333336, "name": "297c9c8a7a4beb6b23f54d51ee7252fa", "fusion_lon": 0.0, "bike_id": "297c9c8a7a4beb6b23f54d51ee7252fa", "is_disabled": 0, "is_reserved": 0}, {"rental_uris": {"ios": "https://dc.lft.to/lastmile_qr_scan", "android": "https://dc.lft.to/lastmile_qr_scan"}, "lon": -77.05277783333334, "type": "electric_scooter", "fusion_lat": 0.0, "lat": 38.9101675, "name": "0e876cf35db344ec574465ef14f45868", "fusion_lon": 0.0, "bike_id": "0e876cf35db344ec574465ef14f45868", "is_disabled": 0, "is_reserved": 0}, {"rental_uris": {"ios": "https://dc.lft.to/lastmile_qr_scan", "android": "https://dc.lft.to/lastmile_qr_scan"}, "lon": -77.03805083333333, "type": "electric_scooter", "fusion_lat": 0.0, "lat": 38.921876833333336, "name": "384fdaa671f2e0d4003b993ea79ca91f", "fusion_lon": 0.0, "bike_id": "384fdaa671f2e0d4003b993ea79ca91f", "is_disabled": 0, "is_reserved": 0}, {"rental_uris": {"ios": "https://dc.lft.to/lastmile_qr_scan", "android": "https://dc.lft.to/lastmile_qr_scan"}, "lon": -77.03945083333333, "type": "electric_scooter", "fusion_lat": 0.0, "lat": 38.902600666666665, "name": "d8859d8b46c0c477df2c47fc7456e20e", "fusion_lon": 0.0, "bike_id": "d8859d8b46c0c477df2c47fc7456e20e", "is_disabled": 0, "is_reserved": 0}, {"rental_uris": {"ios": "https://dc.lft.to/lastmile_qr_scan", "android": "https://dc.lft.to/lastmile_qr_scan"}, "lon": -77.03674066666666, "type": "electric_scooter", "fusion_lat": 0.0, "lat": 38.929930666666664, "name": "d2facf067ca73d7b99fd3ad941652492", "fusion_lon": 0.0, "bike_id": "d2facf067ca73d7b99fd3ad941652492", "is_disabled": 0, "is_reserved": 0}, {"rental_uris": {"ios": "https://dc.lft.to/lastmile_qr_scan", "android": "https://dc.lft.to/lastmile_qr_scan"}, "lon": -77.0245765, "type": "electric_scooter", "fusion_lat": 0.0, "lat": 38.979381333333336, "name": "c86a3686299d9500aa195a90e77451ed", "fusion_lon": 0.0, "bike_id": "c86a3686299d9500aa195a90e77451ed", "is_disabled": 0, "is_reserved": 0}, {"rental_uris": {"ios": "https://dc.lft.to/lastmile_qr_scan", "android": "https://dc.lft.to/lastmile_qr_scan"}, "lon": -77.03074616666666, "type": "electric_scooter", "fusion_lat": 0.0, "lat": 38.90467666666667, "name": "27107a0f58e3dc80c29ef7ba6e5322b4", "fusion_lon": 0.0, "bike_id": "27107a0f58e3dc80c29ef7ba6e5322b4", "is_disabled": 0, "is_reserved": 0}, {"rental_uris": {"ios": "https://dc.lft.to/lastmile_qr_scan", "android": "https://dc.lft.to/lastmile_qr_scan"}, "lon": -77.024203, "type": "electric_scooter", "fusion_lat": 0.0, "lat": 38.918253166666666, "name": "ea963f3279aad54e4609354e4592e79a", "fusion_lon": 0.0, "bike_id": "ea963f3279aad54e4609354e4592e79a", "is_disabled": 0, "is_reserved": 0}, {"rental_uris": {"ios": "https://dc.lft.to/lastmile_qr_scan", "android": "https://dc.lft.to/lastmile_qr_scan"}, "lon": -77.04791133333333, "type": "electric_scooter", "fusion_lat": 0.0, "lat": 38.90733683333333, "name": "2fc78ce48b5f6875eecad65d24c70463", "fusion_lon": 0.0, "bike_id": "2fc78ce48b5f6875eecad65d24c70463", "is_disabled": 0, "is_reserved": 0}, {"rental_uris": {"ios": "https://dc.lft.to/lastmile_qr_scan", "android": "https://dc.lft.to/lastmile_qr_scan"}, "lon": -77.0413455, "type": "electric_scooter", "fusion_lat": 0.0, "lat": 38.923494166666664, "name": "05454aca1da3c9030681dc9cc04f5c88", "fusion_lon": 0.0, "bike_id": "05454aca1da3c9030681dc9cc04f5c88", "is_disabled": 0, "is_reserved": 0}, {"rental_uris": {"ios": "https://dc.lft.to/lastmile_qr_scan", "android": "https://dc.lft.to/lastmile_qr_scan"}, "lon": -76.93238616666666, "type": "electric_bike", "fusion_lat": 0.0, "lat": 38.88277133333333, "name": "b4f4675cdc9277bff91e92cb3db5b90f", "fusion_lon": 0.0, "bike_id": "b4f4675cdc9277bff91e92cb3db5b90f", "is_disabled": 0, "is_reserved": 0}, {"rental_uris": {"ios": "https://dc.lft.to/lastmile_qr_scan", "android": "https://dc.lft.to/lastmile_qr_scan"}, "lon": -77.02368666666666, "type": "electric_scooter", "fusion_lat": 0.0, "lat": 38.935608, "name": "8267c4887eaadb50e0122570bc1697a8", "fusion_lon": 0.0, "bike_id": "8267c4887eaadb50e0122570bc1697a8", "is_disabled": 0, "is_reserved": 0}, {"rental_uris": {"ios": "https://dc.lft.to/lastmile_qr_scan", "android": "https://dc.lft.to/lastmile_qr_scan"}, "lon": -77.05503933333334, "type": "electric_scooter", "fusion_lat": 0.0, "lat": 38.92968183333333, "name": "b2695e4f1c9d0ecf94f6700b00029a67", "fusion_lon": 0.0, "bike_id": "b2695e4f1c9d0ecf94f6700b00029a67", "is_disabled": 0, "is_reserved": 0}, {"rental_uris": {"ios": "https://dc.lft.to/lastmile_qr_scan", "android": "https://dc.lft.to/lastmile_qr_scan"}, "lon": -77.03206383333334, "type": "electric_scooter", "fusion_lat": 0.0, "lat": 38.920726, "name": "f7a7b0ccc2eeb5447420f27b1332abb6", "fusion_lon": 0.0, "bike_id": "f7a7b0ccc2eeb5447420f27b1332abb6", "is_disabled": 0, "is_reserved": 0}, {"rental_uris": {"ios": "https://dc.lft.to/lastmile_qr_scan", "android": "https://dc.lft.to/lastmile_qr_scan"}, "lon": -77.036423, "type": "electric_scooter", "fusion_lat": 0.0, "lat": 38.90318933333333, "name": "91fa16f621f5836f900b56c76f03a831", "fusion_lon": 0.0, "bike_id": "91fa16f621f5836f900b56c76f03a831", "is_disabled": 0, "is_reserved": 0}, {"rental_uris": {"ios": "https://dc.lft.to/lastmile_qr_scan", "android": "https://dc.lft.to/lastmile_qr_scan"}, "lon": -77.03951233333333, "type": "electric_scooter", "fusion_lat": 0.0, "lat": 38.9260645, "name": "e788f63d52107a7a8f75286ebcf6f9e3", "fusion_lon": 0.0, "bike_id": "e788f63d52107a7a8f75286ebcf6f9e3", "is_disabled": 0, "is_reserved": 0}, {"rental_uris": {"ios": "https://dc.lft.to/lastmile_qr_scan", "android": "https://dc.lft.to/lastmile_qr_scan"}, "lon": -77.04192366666666, "type": "electric_scooter", "fusion_lat": 0.0, "lat": 38.922063333333334, "name": "9462e18d4ece59426658e011aa4fc32b", "fusion_lon": 0.0, "bike_id": "9462e18d4ece59426658e011aa4fc32b", "is_disabled": 0, "is_reserved": 0}, {"rental_uris": {"ios": "https://dc.lft.to/lastmile_qr_scan", "android": "https://dc.lft.to/lastmile_qr_scan"}, "lon": -77.02747433333333, "type": "electric_scooter", "fusion_lat": 0.0, "lat": 38.9714855, "name": "c1c6b06bb43be2ebeb1272569b394e18", "fusion_lon": 0.0, "bike_id": "c1c6b06bb43be2ebeb1272569b394e18", "is_disabled": 0, "is_reserved": 0}, {"rental_uris": {"ios": "https://dc.lft.to/lastmile_qr_scan", "android": "https://dc.lft.to/lastmile_qr_scan"}, "lon": -77.05315783333333, "type": "electric_scooter", "fusion_lat": 0.0, "lat": 38.90162466666666, "name": "5743c2d369397379d9335f0475153351", "fusion_lon": 0.0, "bike_id": "5743c2d369397379d9335f0475153351", "is_disabled": 0, "is_reserved": 0}, {"rental_uris": {"ios": "https://dc.lft.to/lastmile_qr_scan", "android": "https://dc.lft.to/lastmile_qr_scan"}, "lon": -77.050603, "type": "electric_scooter", "fusion_lat": 0.0, "lat": 38.92370866666667, "name": "fb0a492d7ec7f457cc7a5a7b99ac7cc4", "fusion_lon": 0.0, "bike_id": "fb0a492d7ec7f457cc7a5a7b99ac7cc4", "is_disabled": 0, "is_reserved": 0}, {"rental_uris": {"ios": "https://dc.lft.to/lastmile_qr_scan", "android": "https://dc.lft.to/lastmile_qr_scan"}, "lon": -76.99608983333333, "type": "electric_scooter", "fusion_lat": 0.0, "lat": 38.897447166666666, "name": "9fecc2f05d25627435126ec6cdcc78ba", "fusion_lon": 0.0, "bike_id": "9fecc2f05d25627435126ec6cdcc78ba", "is_disabled": 0, "is_reserved": 0}, {"rental_uris": {"ios": "https://dc.lft.to/lastmile_qr_scan", "android": "https://dc.lft.to/lastmile_qr_scan"}, "lon": -77.03657333333334, "type": "electric_scooter", "fusion_lat": 0.0, "lat": 38.921168333333334, "name": "b8bec66daafd2939409b9ebd2a33718b", "fusion_lon": 0.0, "bike_id": "b8bec66daafd2939409b9ebd2a33718b", "is_disabled": 0, "is_reserved": 0}, {"rental_uris": {"ios": "https://dc.lft.to/lastmile_qr_scan", "android": "https://dc.lft.to/lastmile_qr_scan"}, "lon": -76.98207983333333, "type": "electric_scooter", "fusion_lat": 0.0, "lat": 38.89092866666667, "name": "a9a22c5474ae07f32e5e7b74a9c45756", "fusion_lon": 0.0, "bike_id": "a9a22c5474ae07f32e5e7b74a9c45756", "is_disabled": 0, "is_reserved": 0}, {"rental_uris": {"ios": "https://dc.lft.to/lastmile_qr_scan", "android": "https://dc.lft.to/lastmile_qr_scan"}, "lon": -77.07096783333333, "type": "electric_scooter", "fusion_lat": 0.0, "lat": 38.93363933333333, "name": "159ba855e8aa6e94d29587f30f1f38bb", "fusion_lon": 0.0, "bike_id": "159ba855e8aa6e94d29587f30f1f38bb", "is_disabled": 0, "is_reserved": 0}, {"rental_uris": {"ios": "https://dc.lft.to/lastmile_qr_scan", "android": "https://dc.lft.to/lastmile_qr_scan"}, "lon": -76.9316325, "type": "electric_bike", "fusion_lat": 0.0, "lat": 38.908635, "name": "45c701c5528a586c587dce4a72e5be42", "fusion_lon": 0.0, "bike_id": "45c701c5528a586c587dce4a72e5be42", "is_disabled": 0, "is_reserved": 0}, {"rental_uris": {"ios": "https://dc.lft.to/lastmile_qr_scan", "android": "https://dc.lft.to/lastmile_qr_scan"}, "lon": -76.9906095, "type": "electric_scooter", "fusion_lat": 0.0, "lat": 38.86356116666666, "name": "59a9639ad1336fbdaa16b6d3f7e039c1", "fusion_lon": 0.0, "bike_id": "59a9639ad1336fbdaa16b6d3f7e039c1", "is_disabled": 0, "is_reserved": 0}, {"rental_uris": {"ios": "https://dc.lft.to/lastmile_qr_scan", "android": "https://dc.lft.to/lastmile_qr_scan"}, "lon": -77.05342816666666, "type": "electric_scooter", "fusion_lat": 0.0, "lat": 38.90472, "name": "2633d97e2f1fdfc17a628482718b9b5b", "fusion_lon": 0.0, "bike_id": "2633d97e2f1fdfc17a628482718b9b5b", "is_disabled": 0, "is_reserved": 0}, {"rental_uris": {"ios": "https://dc.lft.to/lastmile_qr_scan", "android": "https://dc.lft.to/lastmile_qr_scan"}, "lon": -77.0275965, "type": "electric_scooter", "fusion_lat": 0.0, "lat": 38.956121333333336, "name": "27bf796644009029f6a72aefae922021", "fusion_lon": 0.0, "bike_id": "27bf796644009029f6a72aefae922021", "is_disabled": 0, "is_reserved": 0}, {"rental_uris": {"ios": "https://dc.lft.to/lastmile_qr_scan", "android": "https://dc.lft.to/lastmile_qr_scan"}, "lon": -77.00368116666667, "type": "electric_scooter", "fusion_lat": 0.0, "lat": 38.838071666666664, "name": "aeeb459ddc59c5b1ceb228d8b9786396", "fusion_lon": 0.0, "bike_id": "aeeb459ddc59c5b1ceb228d8b9786396", "is_disabled": 0, "is_reserved": 0}, {"rental_uris": {"ios": "https://dc.lft.to/lastmile_qr_scan", "android": "https://dc.lft.to/lastmile_qr_scan"}, "lon": -77.027172, "type": "electric_scooter", "fusion_lat": 0.0, "lat": 38.9090405, "name": "78c973bc3e6f312e1b1eaddeeec86a18", "fusion_lon": 0.0, "bike_id": "78c973bc3e6f312e1b1eaddeeec86a18", "is_disabled": 0, "is_reserved": 0}, {"rental_uris": {"ios": "https://dc.lft.to/lastmile_qr_scan", "android": "https://dc.lft.to/lastmile_qr_scan"}, "lon": -77.03892133333333, "type": "electric_scooter", "fusion_lat": 0.0, "lat": 38.9439935, "name": "5de551904e16bba52ffe2da1c19742fe", "fusion_lon": 0.0, "bike_id": "5de551904e16bba52ffe2da1c19742fe", "is_disabled": 0, "is_reserved": 0}, {"rental_uris": {"ios": "https://dc.lft.to/lastmile_qr_scan", "android": "https://dc.lft.to/lastmile_qr_scan"}, "lon": -77.00373216666667, "type": "electric_bike", "fusion_lat": 0.0, "lat": 38.836077, "name": "20e684fa3e28a726623ae68ff29179df", "fusion_lon": 0.0, "bike_id": "20e684fa3e28a726623ae68ff29179df", "is_disabled": 0, "is_reserved": 0}, {"rental_uris": {"ios": "https://dc.lft.to/lastmile_qr_scan", "android": "https://dc.lft.to/lastmile_qr_scan"}, "lon": -77.09552133333334, "type": "electric_bike", "fusion_lat": 0.0, "lat": 38.83731566666667, "name": "d5a42e25ef0df491de47e491fed103ff", "fusion_lon": 0.0, "bike_id": "d5a42e25ef0df491de47e491fed103ff", "is_disabled": 0, "is_reserved": 0}, {"rental_uris": {"ios": "https://dc.lft.to/lastmile_qr_scan", "android": "https://dc.lft.to/lastmile_qr_scan"}, "lon": -76.94141133333333, "type": "electric_scooter", "fusion_lat": 0.0, "lat": 38.896791, "name": "e0a35bae54067b748c6268ce5b715a5d", "fusion_lon": 0.0, "bike_id": "e0a35bae54067b748c6268ce5b715a5d", "is_disabled": 0, "is_reserved": 0}, {"rental_uris": {"ios": "https://dc.lft.to/lastmile_qr_scan", "android": "https://dc.lft.to/lastmile_qr_scan"}, "lon": -77.02890016666667, "type": "electric_scooter", "fusion_lat": 0.0, "lat": 38.90730383333333, "name": "03a07a04eba28c4b022a986932276a44", "fusion_lon": 0.0, "bike_id": "03a07a04eba28c4b022a986932276a44", "is_disabled": 0, "is_reserved": 0}, {"rental_uris": {"ios": "https://dc.lft.to/lastmile_qr_scan", "android": "https://dc.lft.to/lastmile_qr_scan"}, "lon": -76.988807, "type": "electric_scooter", "fusion_lat": 0.0, "lat": 38.86664733333333, "name": "bde1841650bfff1ffc0c6c47158a1957", "fusion_lon": 0.0, "bike_id": "bde1841650bfff1ffc0c6c47158a1957", "is_disabled": 0, "is_reserved": 0}, {"rental_uris": {"ios": "https://dc.lft.to/lastmile_qr_scan", "android": "https://dc.lft.to/lastmile_qr_scan"}, "lon": -77.08537733333333, "type": "electric_bike", "fusion_lat": 0.0, "lat": 38.8562575, "name": "c4f11a7f9a0fd148150fe2fe14fcb98a", "fusion_lon": 0.0, "bike_id": "c4f11a7f9a0fd148150fe2fe14fcb98a", "is_disabled": 0, "is_reserved": 0}, {"rental_uris": {"ios": "https://dc.lft.to/lastmile_qr_scan", "android": "https://dc.lft.to/lastmile_qr_scan"}, "lon": -77.04157233333333, "type": "electric_scooter", "fusion_lat": 0.0, "lat": 38.9142235, "name": "3a6eb5ee1329d6131b43df9a46a8e587", "fusion_lon": 0.0, "bike_id": "3a6eb5ee1329d6131b43df9a46a8e587", "is_disabled": 0, "is_reserved": 0}, {"rental_uris": {"ios": "https://dc.lft.to/lastmile_qr_scan", "android": "https://dc.lft.to/lastmile_qr_scan"}, "lon": -77.01159166666666, "type": "electric_scooter", "fusion_lat": 0.0, "lat": 38.900401, "name": "5a2399f80b725a30f030c1476246a96d", "fusion_lon": 0.0, "bike_id": "5a2399f80b725a30f030c1476246a96d", "is_disabled": 0, "is_reserved": 0}, {"rental_uris": {"ios": "https://dc.lft.to/lastmile_qr_scan", "android": "https://dc.lft.to/lastmile_qr_scan"}, "lon": -77.03421766666666, "type": "electric_scooter", "fusion_lat": 0.0, "lat": 38.91925166666667, "name": "73165d2b26fa290a7a4431e85b9cc896", "fusion_lon": 0.0, "bike_id": "73165d2b26fa290a7a4431e85b9cc896", "is_disabled": 0, "is_reserved": 0}, {"rental_uris": {"ios": "https://dc.lft.to/lastmile_qr_scan", "android": "https://dc.lft.to/lastmile_qr_scan"}, "lon": -77.0222715, "type": "electric_scooter", "fusion_lat": 0.0, "lat": 38.89221766666667, "name": "7d05edd063b2082098cfb278967cbe01", "fusion_lon": 0.0, "bike_id": "7d05edd063b2082098cfb278967cbe01", "is_disabled": 0, "is_reserved": 0}, {"rental_uris": {"ios": "https://dc.lft.to/lastmile_qr_scan", "android": "https://dc.lft.to/lastmile_qr_scan"}, "lon": -77.03837833333333, "type": "electric_scooter", "fusion_lat": 0.0, "lat": 38.90841183333333, "name": "62c361bd4796fb565b27a309ed15dc3a", "fusion_lon": 0.0, "bike_id": "62c361bd4796fb565b27a309ed15dc3a", "is_disabled": 0, "is_reserved": 0}, {"rental_uris": {"ios": "https://dc.lft.to/lastmile_qr_scan", "android": "https://dc.lft.to/lastmile_qr_scan"}, "lon": -77.038044, "type": "electric_scooter", "fusion_lat": 0.0, "lat": 38.901337833333336, "name": "e39b1f69527e163d8e98150cdd1b10a4", "fusion_lon": 0.0, "bike_id": "e39b1f69527e163d8e98150cdd1b10a4", "is_disabled": 0, "is_reserved": 0}, {"rental_uris": {"ios": "https://dc.lft.to/lastmile_qr_scan", "android": "https://dc.lft.to/lastmile_qr_scan"}, "lon": -77.02733266666667, "type": "electric_scooter", "fusion_lat": 0.0, "lat": 38.916960333333336, "name": "e583f55aabe5bbfa5a1626f3aa2855aa", "fusion_lon": 0.0, "bike_id": "e583f55aabe5bbfa5a1626f3aa2855aa", "is_disabled": 0, "is_reserved": 0}, {"rental_uris": {"ios": "https://dc.lft.to/lastmile_qr_scan", "android": "https://dc.lft.to/lastmile_qr_scan"}, "lon": -77.0327385, "type": "electric_scooter", "fusion_lat": 0.0, "lat": 38.89218016666667, "name": "bce9eb8819278f7a5f116675c0dd845f", "fusion_lon": 0.0, "bike_id": "bce9eb8819278f7a5f116675c0dd845f", "is_disabled": 0, "is_reserved": 0}, {"rental_uris": {"ios": "https://dc.lft.to/lastmile_qr_scan", "android": "https://dc.lft.to/lastmile_qr_scan"}, "lon": -77.07064333333334, "type": "electric_scooter", "fusion_lat": 0.0, "lat": 38.95214466666667, "name": "349cd4fa9fc4cf481324ee2f263318fc", "fusion_lon": 0.0, "bike_id": "349cd4fa9fc4cf481324ee2f263318fc", "is_disabled": 0, "is_reserved": 0}, {"rental_uris": {"ios": "https://dc.lft.to/lastmile_qr_scan", "android": "https://dc.lft.to/lastmile_qr_scan"}, "lon": -77.05505216666667, "type": "electric_scooter", "fusion_lat": 0.0, "lat": 38.929785333333335, "name": "349c0155370e45faed44596793277d6f", "fusion_lon": 0.0, "bike_id": "349c0155370e45faed44596793277d6f", "is_disabled": 0, "is_reserved": 0}, {"rental_uris": {"ios": "https://dc.lft.to/lastmile_qr_scan", "android": "https://dc.lft.to/lastmile_qr_scan"}, "lon": -76.98566683333334, "type": "electric_scooter", "fusion_lat": 0.0, "lat": 38.85588833333333, "name": "12e42c090d581d60f1ef1a15622ecea1", "fusion_lon": 0.0, "bike_id": "12e42c090d581d60f1ef1a15622ecea1", "is_disabled": 0, "is_reserved": 0}, {"rental_uris": {"ios": "https://dc.lft.to/lastmile_qr_scan", "android": "https://dc.lft.to/lastmile_qr_scan"}, "lon": -77.05295433333333, "type": "electric_scooter", "fusion_lat": 0.0, "lat": 38.918947833333334, "name": "bf803df8bd5c1f9a101e90af2cccfd92", "fusion_lon": 0.0, "bike_id": "bf803df8bd5c1f9a101e90af2cccfd92", "is_disabled": 0, "is_reserved": 0}, {"rental_uris": {"ios": "https://dc.lft.to/lastmile_qr_scan", "android": "https://dc.lft.to/lastmile_qr_scan"}, "lon": -76.99003016666667, "type": "electric_scooter", "fusion_lat": 0.0, "lat": 38.86502133333333, "name": "24bc7337a7da82d547eeabf7a699451b", "fusion_lon": 0.0, "bike_id": "24bc7337a7da82d547eeabf7a699451b", "is_disabled": 0, "is_reserved": 0}, {"rental_uris": {"ios": "https://dc.lft.to/lastmile_qr_scan", "android": "https://dc.lft.to/lastmile_qr_scan"}, "lon": -77.04184633333334, "type": "electric_scooter", "fusion_lat": 0.0, "lat": 38.9035185, "name": "dfbb1fae385e93a392a8ea2aa986f0ab", "fusion_lon": 0.0, "bike_id": "dfbb1fae385e93a392a8ea2aa986f0ab", "is_disabled": 0, "is_reserved": 0}, {"rental_uris": {"ios": "https://dc.lft.to/lastmile_qr_scan", "android": "https://dc.lft.to/lastmile_qr_scan"}, "lon": -76.94893483333334, "type": "electric_scooter", "fusion_lat": 0.0, "lat": 38.89530383333334, "name": "dbd02f01d9db8dffc4cb94d747b2db3f", "fusion_lon": 0.0, "bike_id": "dbd02f01d9db8dffc4cb94d747b2db3f", "is_disabled": 0, "is_reserved": 0}, {"rental_uris": {"ios": "https://dc.lft.to/lastmile_qr_scan", "android": "https://dc.lft.to/lastmile_qr_scan"}, "lon": -77.01946666666667, "type": "electric_scooter", "fusion_lat": 0.0, "lat": 38.92415583333333, "name": "cb10d0a51cc6da442e9ace481ae95277", "fusion_lon": 0.0, "bike_id": "cb10d0a51cc6da442e9ace481ae95277", "is_disabled": 0, "is_reserved": 0}, {"rental_uris": {"ios": "https://dc.lft.to/lastmile_qr_scan", "android": "https://dc.lft.to/lastmile_qr_scan"}, "lon": -77.05415483333333, "type": "electric_scooter", "fusion_lat": 0.0, "lat": 38.902707, "name": "450e022351e85df7982e792bf929f910", "fusion_lon": 0.0, "bike_id": "450e022351e85df7982e792bf929f910", "is_disabled": 0, "is_reserved": 0}, {"rental_uris": {"ios": "https://dc.lft.to/lastmile_qr_scan", "android": "https://dc.lft.to/lastmile_qr_scan"}, "lon": -77.04714233333333, "type": "electric_scooter", "fusion_lat": 0.0, "lat": 38.92234233333333, "name": "6e0c36a2de1e09ca5d1f440989e2d24f", "fusion_lon": 0.0, "bike_id": "6e0c36a2de1e09ca5d1f440989e2d24f", "is_disabled": 0, "is_reserved": 0}, {"rental_uris": {"ios": "https://dc.lft.to/lastmile_qr_scan", "android": "https://dc.lft.to/lastmile_qr_scan"}, "lon": -77.031508, "type": "electric_scooter", "fusion_lat": 0.0, "lat": 38.914151833333335, "name": "a07bc0782c48d72ef1d6249375b83acf", "fusion_lon": 0.0, "bike_id": "a07bc0782c48d72ef1d6249375b83acf", "is_disabled": 0, "is_reserved": 0}, {"rental_uris": {"ios": "https://dc.lft.to/lastmile_qr_scan", "android": "https://dc.lft.to/lastmile_qr_scan"}, "lon": -77.03504066666666, "type": "electric_scooter", "fusion_lat": 0.0, "lat": 38.921542333333335, "name": "b10175e216270fab46846e795c192189", "fusion_lon": 0.0, "bike_id": "b10175e216270fab46846e795c192189", "is_disabled": 0, "is_reserved": 0}, {"rental_uris": {"ios": "https://dc.lft.to/lastmile_qr_scan", "android": "https://dc.lft.to/lastmile_qr_scan"}, "lon": -77.01766416666666, "type": "electric_scooter", "fusion_lat": 0.0, "lat": 38.9212035, "name": "6846214cb5d603edd0dcd57389597c27", "fusion_lon": 0.0, "bike_id": "6846214cb5d603edd0dcd57389597c27", "is_disabled": 0, "is_reserved": 0}, {"rental_uris": {"ios": "https://dc.lft.to/lastmile_qr_scan", "android": "https://dc.lft.to/lastmile_qr_scan"}, "lon": -77.0085955, "type": "electric_bike", "fusion_lat": 0.0, "lat": 38.82734633333333, "name": "13cba7eb4a69c67c416fe2d9a902ced8", "fusion_lon": 0.0, "bike_id": "13cba7eb4a69c67c416fe2d9a902ced8", "is_disabled": 0, "is_reserved": 0}, {"rental_uris": {"ios": "https://dc.lft.to/lastmile_qr_scan", "android": "https://dc.lft.to/lastmile_qr_scan"}, "lon": -77.0217465, "type": "electric_scooter", "fusion_lat": 0.0, "lat": 38.90549983333333, "name": "7607fc448ddb1ed622da50676f8d1ec8", "fusion_lon": 0.0, "bike_id": "7607fc448ddb1ed622da50676f8d1ec8", "is_disabled": 0, "is_reserved": 0}, {"rental_uris": {"ios": "https://dc.lft.to/lastmile_qr_scan", "android": "https://dc.lft.to/lastmile_qr_scan"}, "lon": -76.99002383333334, "type": "electric_scooter", "fusion_lat": 0.0, "lat": 38.865066, "name": "5673d542c0c63a26c616e0d998cae9f6", "fusion_lon": 0.0, "bike_id": "5673d542c0c63a26c616e0d998cae9f6", "is_disabled": 0, "is_reserved": 0}, {"rental_uris": {"ios": "https://dc.lft.to/lastmile_qr_scan", "android": "https://dc.lft.to/lastmile_qr_scan"}, "lon": -77.02973783333333, "type": "electric_scooter", "fusion_lat": 0.0, "lat": 38.907316333333334, "name": "9e8e0f407487a362812c5b3082204415", "fusion_lon": 0.0, "bike_id": "9e8e0f407487a362812c5b3082204415", "is_disabled": 0, "is_reserved": 0}, {"rental_uris": {"ios": "https://dc.lft.to/lastmile_qr_scan", "android": "https://dc.lft.to/lastmile_qr_scan"}, "lon": -76.98022716666667, "type": "electric_scooter", "fusion_lat": 0.0, "lat": 38.88771916666666, "name": "60fe93cd3d1c6922a1e51c91ed05272c", "fusion_lon": 0.0, "bike_id": "60fe93cd3d1c6922a1e51c91ed05272c", "is_disabled": 0, "is_reserved": 0}, {"rental_uris": {"ios": "https://dc.lft.to/lastmile_qr_scan", "android": "https://dc.lft.to/lastmile_qr_scan"}, "lon": -77.00740166666667, "type": "electric_scooter", "fusion_lat": 0.0, "lat": 38.916261666666664, "name": "5ab7837b0fa753681563aba6325c6112", "fusion_lon": 0.0, "bike_id": "5ab7837b0fa753681563aba6325c6112", "is_disabled": 0, "is_reserved": 0}, {"rental_uris": {"ios": "https://dc.lft.to/lastmile_qr_scan", "android": "https://dc.lft.to/lastmile_qr_scan"}, "lon": -77.0069165, "type": "electric_scooter", "fusion_lat": 0.0, "lat": 38.906543666666664, "name": "d212fea3911f6eaf3f7492ac585e7203", "fusion_lon": 0.0, "bike_id": "d212fea3911f6eaf3f7492ac585e7203", "is_disabled": 0, "is_reserved": 0}, {"rental_uris": {"ios": "https://dc.lft.to/lastmile_qr_scan", "android": "https://dc.lft.to/lastmile_qr_scan"}, "lon": -77.01746483333334, "type": "electric_scooter", "fusion_lat": 0.0, "lat": 38.877, "name": "6bc7a9e19321f6f0e3ffc01aa42b222a", "fusion_lon": 0.0, "bike_id": "6bc7a9e19321f6f0e3ffc01aa42b222a", "is_disabled": 0, "is_reserved": 0}, {"rental_uris": {"ios": "https://dc.lft.to/lastmile_qr_scan", "android": "https://dc.lft.to/lastmile_qr_scan"}, "lon": -77.02227033333334, "type": "electric_bike", "fusion_lat": 0.0, "lat": 38.956854666666665, "name": "889271ddfcd174404b2b6e1712150604", "fusion_lon": 0.0, "bike_id": "889271ddfcd174404b2b6e1712150604", "is_disabled": 0, "is_reserved": 0}, {"rental_uris": {"ios": "https://dc.lft.to/lastmile_qr_scan", "android": "https://dc.lft.to/lastmile_qr_scan"}, "lon": -76.99251116666667, "type": "electric_bike", "fusion_lat": 0.0, "lat": 38.92549233333333, "name": "3698a7ec2bbb46e3574066d8c25ed25e", "fusion_lon": 0.0, "bike_id": "3698a7ec2bbb46e3574066d8c25ed25e", "is_disabled": 0, "is_reserved": 0}, {"rental_uris": {"ios": "https://dc.lft.to/lastmile_qr_scan", "android": "https://dc.lft.to/lastmile_qr_scan"}, "lon": -77.06351816666667, "type": "electric_scooter", "fusion_lat": 0.0, "lat": 38.94454783333333, "name": "c50d0896bd60c34786a463bbfab90db5", "fusion_lon": 0.0, "bike_id": "c50d0896bd60c34786a463bbfab90db5", "is_disabled": 0, "is_reserved": 0}, {"rental_uris": {"ios": "https://dc.lft.to/lastmile_qr_scan", "android": "https://dc.lft.to/lastmile_qr_scan"}, "lon": -76.9726815, "type": "electric_bike", "fusion_lat": 0.0, "lat": 38.919758, "name": "8d7b4c27be4d1329923e2b840ef886c4", "fusion_lon": 0.0, "bike_id": "8d7b4c27be4d1329923e2b840ef886c4", "is_disabled": 0, "is_reserved": 0}, {"rental_uris": {"ios": "https://dc.lft.to/lastmile_qr_scan", "android": "https://dc.lft.to/lastmile_qr_scan"}, "lon": -77.03187966666667, "type": "electric_scooter", "fusion_lat": 0.0, "lat": 38.92965133333333, "name": "dc0686c3a213081c7ee94579569e1107", "fusion_lon": 0.0, "bike_id": "dc0686c3a213081c7ee94579569e1107", "is_disabled": 0, "is_reserved": 0}, {"rental_uris": {"ios": "https://dc.lft.to/lastmile_qr_scan", "android": "https://dc.lft.to/lastmile_qr_scan"}, "lon": -77.04037883333334, "type": "electric_scooter", "fusion_lat": 0.0, "lat": 38.9247275, "name": "41cadc18238a87e4475435767058f61b", "fusion_lon": 0.0, "bike_id": "41cadc18238a87e4475435767058f61b", "is_disabled": 0, "is_reserved": 0}, {"rental_uris": {"ios": "https://dc.lft.to/lastmile_qr_scan", "android": "https://dc.lft.to/lastmile_qr_scan"}, "lon": -77.03301116666667, "type": "electric_scooter", "fusion_lat": 0.0, "lat": 38.92864633333333, "name": "711fdd553e6ac3be574eac034c6f9963", "fusion_lon": 0.0, "bike_id": "711fdd553e6ac3be574eac034c6f9963", "is_disabled": 0, "is_reserved": 0}, {"rental_uris": {"ios": "https://dc.lft.to/lastmile_qr_scan", "android": "https://dc.lft.to/lastmile_qr_scan"}, "lon": -77.0315525, "type": "electric_scooter", "fusion_lat": 0.0, "lat": 38.915714666666666, "name": "5711353803dbff1b0c6bfc32fe6af637", "fusion_lon": 0.0, "bike_id": "5711353803dbff1b0c6bfc32fe6af637", "is_disabled": 0, "is_reserved": 0}, {"rental_uris": {"ios": "https://dc.lft.to/lastmile_qr_scan", "android": "https://dc.lft.to/lastmile_qr_scan"}, "lon": -77.02368466666667, "type": "electric_scooter", "fusion_lat": 0.0, "lat": 38.936972, "name": "8bd7d0ec5348d027c86d086c65e58344", "fusion_lon": 0.0, "bike_id": "8bd7d0ec5348d027c86d086c65e58344", "is_disabled": 0, "is_reserved": 0}, {"rental_uris": {"ios": "https://dc.lft.to/lastmile_qr_scan", "android": "https://dc.lft.to/lastmile_qr_scan"}, "lon": -77.110432, "type": "electric_bike", "fusion_lat": 0.0, "lat": 38.8708025, "name": "910b213f5f72734bc9bf3603d3ce018e", "fusion_lon": 0.0, "bike_id": "910b213f5f72734bc9bf3603d3ce018e", "is_disabled": 0, "is_reserved": 0}, {"rental_uris": {"ios": "https://dc.lft.to/lastmile_qr_scan", "android": "https://dc.lft.to/lastmile_qr_scan"}, "lon": -77.03018083333333, "type": "electric_scooter", "fusion_lat": 0.0, "lat": 38.92047633333333, "name": "09aff18891991c76ccefe7d8bc3ff730", "fusion_lon": 0.0, "bike_id": "09aff18891991c76ccefe7d8bc3ff730", "is_disabled": 0, "is_reserved": 0}, {"rental_uris": {"ios": "https://dc.lft.to/lastmile_qr_scan", "android": "https://dc.lft.to/lastmile_qr_scan"}, "lon": -77.03784683333333, "type": "electric_scooter", "fusion_lat": 0.0, "lat": 38.93028016666667, "name": "7e513ab362a080c6a83431f9bb096f95", "fusion_lon": 0.0, "bike_id": "7e513ab362a080c6a83431f9bb096f95", "is_disabled": 0, "is_reserved": 0}, {"rental_uris": {"ios": "https://dc.lft.to/lastmile_qr_scan", "android": "https://dc.lft.to/lastmile_qr_scan"}, "lon": -77.0021355, "type": "electric_scooter", "fusion_lat": 0.0, "lat": 38.911044, "name": "d17bd382061db2dea4fbed94aa58ebc3", "fusion_lon": 0.0, "bike_id": "d17bd382061db2dea4fbed94aa58ebc3", "is_disabled": 0, "is_reserved": 0}, {"rental_uris": {"ios": "https://dc.lft.to/lastmile_qr_scan", "android": "https://dc.lft.to/lastmile_qr_scan"}, "lon": -77.03230033333334, "type": "electric_scooter", "fusion_lat": 0.0, "lat": 38.916906, "name": "c94c3143c0accc3f00db2278b56cdb83", "fusion_lon": 0.0, "bike_id": "c94c3143c0accc3f00db2278b56cdb83", "is_disabled": 0, "is_reserved": 0}, {"rental_uris": {"ios": "https://dc.lft.to/lastmile_qr_scan", "android": "https://dc.lft.to/lastmile_qr_scan"}, "lon": -77.02217616666667, "type": "electric_scooter", "fusion_lat": 0.0, "lat": 38.938716666666664, "name": "497877ede77d8b715997d6eb9726f8a7", "fusion_lon": 0.0, "bike_id": "497877ede77d8b715997d6eb9726f8a7", "is_disabled": 0, "is_reserved": 0}, {"rental_uris": {"ios": "https://dc.lft.to/lastmile_qr_scan", "android": "https://dc.lft.to/lastmile_qr_scan"}, "lon": -77.04268233333333, "type": "electric_scooter", "fusion_lat": 0.0, "lat": 38.9158475, "name": "12baf0e8975c0ba4baaa848dffb2fb44", "fusion_lon": 0.0, "bike_id": "12baf0e8975c0ba4baaa848dffb2fb44", "is_disabled": 0, "is_reserved": 0}, {"rental_uris": {"ios": "https://dc.lft.to/lastmile_qr_scan", "android": "https://dc.lft.to/lastmile_qr_scan"}, "lon": -77.023042, "type": "electric_scooter", "fusion_lat": 0.0, "lat": 38.92761133333333, "name": "e031034c979ff7317932905d4733f658", "fusion_lon": 0.0, "bike_id": "e031034c979ff7317932905d4733f658", "is_disabled": 0, "is_reserved": 0}, {"rental_uris": {"ios": "https://dc.lft.to/lastmile_qr_scan", "android": "https://dc.lft.to/lastmile_qr_scan"}, "lon": -77.05880866666666, "type": "electric_scooter", "fusion_lat": 0.0, "lat": 38.936399333333334, "name": "7a5853761d65c3bf1ebb98a9f44a5abf", "fusion_lon": 0.0, "bike_id": "7a5853761d65c3bf1ebb98a9f44a5abf", "is_disabled": 0, "is_reserved": 0}, {"rental_uris": {"ios": "https://dc.lft.to/lastmile_qr_scan", "android": "https://dc.lft.to/lastmile_qr_scan"}, "lon": -76.98714466666667, "type": "electric_scooter", "fusion_lat": 0.0, "lat": 38.8670785, "name": "d665210ec1f1a89c6e3ac850a273806c", "fusion_lon": 0.0, "bike_id": "d665210ec1f1a89c6e3ac850a273806c", "is_disabled": 0, "is_reserved": 0}, {"rental_uris": {"ios": "https://dc.lft.to/lastmile_qr_scan", "android": "https://dc.lft.to/lastmile_qr_scan"}, "lon": -77.03784933333333, "type": "electric_scooter", "fusion_lat": 0.0, "lat": 38.90573533333333, "name": "811e42a523df8cdf33515f2ca25e9452", "fusion_lon": 0.0, "bike_id": "811e42a523df8cdf33515f2ca25e9452", "is_disabled": 0, "is_reserved": 0}, {"rental_uris": {"ios": "https://dc.lft.to/lastmile_qr_scan", "android": "https://dc.lft.to/lastmile_qr_scan"}, "lon": -77.04815483333333, "type": "electric_scooter", "fusion_lat": 0.0, "lat": 38.896302166666665, "name": "08f52bf5ff5db521b5b1b10fcfd09427", "fusion_lon": 0.0, "bike_id": "08f52bf5ff5db521b5b1b10fcfd09427", "is_disabled": 0, "is_reserved": 0}, {"rental_uris": {"ios": "https://dc.lft.to/lastmile_qr_scan", "android": "https://dc.lft.to/lastmile_qr_scan"}, "lon": -77.022309, "type": "electric_scooter", "fusion_lat": 0.0, "lat": 38.91427133333333, "name": "76e92f6fa54c4b540a77fc37bd4aa488", "fusion_lon": 0.0, "bike_id": "76e92f6fa54c4b540a77fc37bd4aa488", "is_disabled": 0, "is_reserved": 0}, {"rental_uris": {"ios": "https://dc.lft.to/lastmile_qr_scan", "android": "https://dc.lft.to/lastmile_qr_scan"}, "lon": -77.021629, "type": "electric_scooter", "fusion_lat": 0.0, "lat": 38.9261005, "name": "4569af82f619fc3a157d4d5237c08d6d", "fusion_lon": 0.0, "bike_id": "4569af82f619fc3a157d4d5237c08d6d", "is_disabled": 0, "is_reserved": 0}, {"rental_uris": {"ios": "https://dc.lft.to/lastmile_qr_scan", "android": "https://dc.lft.to/lastmile_qr_scan"}, "lon": -76.99613016666666, "type": "electric_scooter", "fusion_lat": 0.0, "lat": 38.897479833333335, "name": "c442a3f764ea35706e6986e02abb4194", "fusion_lon": 0.0, "bike_id": "c442a3f764ea35706e6986e02abb4194", "is_disabled": 0, "is_reserved": 0}, {"rental_uris": {"ios": "https://dc.lft.to/lastmile_qr_scan", "android": "https://dc.lft.to/lastmile_qr_scan"}, "lon": -77.04666716666667, "type": "electric_scooter", "fusion_lat": 0.0, "lat": 38.9075445, "name": "66fe97f78476a8a0a2d40fb87d0c5062", "fusion_lon": 0.0, "bike_id": "66fe97f78476a8a0a2d40fb87d0c5062", "is_disabled": 0, "is_reserved": 0}, {"rental_uris": {"ios": "https://dc.lft.to/lastmile_qr_scan", "android": "https://dc.lft.to/lastmile_qr_scan"}, "lon": -77.04510383333333, "type": "electric_scooter", "fusion_lat": 0.0, "lat": 38.900276833333336, "name": "f2047ec4150347dbf100584b4d936055", "fusion_lon": 0.0, "bike_id": "f2047ec4150347dbf100584b4d936055", "is_disabled": 0, "is_reserved": 0}, {"rental_uris": {"ios": "https://dc.lft.to/lastmile_qr_scan", "android": "https://dc.lft.to/lastmile_qr_scan"}, "lon": -77.00656716666667, "type": "electric_scooter", "fusion_lat": 0.0, "lat": 38.9119585, "name": "9af9db5e4331a0c2ca8d3e9ddcdb5141", "fusion_lon": 0.0, "bike_id": "9af9db5e4331a0c2ca8d3e9ddcdb5141", "is_disabled": 0, "is_reserved": 0}, {"rental_uris": {"ios": "https://dc.lft.to/lastmile_qr_scan", "android": "https://dc.lft.to/lastmile_qr_scan"}, "lon": -77.061039, "type": "electric_scooter", "fusion_lat": 0.0, "lat": 38.9370635, "name": "16dfd09ba8e938c8aaec77807836d923", "fusion_lon": 0.0, "bike_id": "16dfd09ba8e938c8aaec77807836d923", "is_disabled": 0, "is_reserved": 0}, {"rental_uris": {"ios": "https://dc.lft.to/lastmile_qr_scan", "android": "https://dc.lft.to/lastmile_qr_scan"}, "lon": -76.99672216666667, "type": "electric_scooter", "fusion_lat": 0.0, "lat": 38.91017166666666, "name": "276a311f4c3330102555aa74854d3c22", "fusion_lon": 0.0, "bike_id": "276a311f4c3330102555aa74854d3c22", "is_disabled": 0, "is_reserved": 0}, {"rental_uris": {"ios": "https://dc.lft.to/lastmile_qr_scan", "android": "https://dc.lft.to/lastmile_qr_scan"}, "lon": -76.99517366666667, "type": "electric_scooter", "fusion_lat": 0.0, "lat": 38.89487966666667, "name": "d1ea1e3484b508858d49904c8bf2d8ee", "fusion_lon": 0.0, "bike_id": "d1ea1e3484b508858d49904c8bf2d8ee", "is_disabled": 0, "is_reserved": 0}, {"rental_uris": {"ios": "https://dc.lft.to/lastmile_qr_scan", "android": "https://dc.lft.to/lastmile_qr_scan"}, "lon": -76.995619, "type": "electric_scooter", "fusion_lat": 0.0, "lat": 38.92874883333333, "name": "6c392ad7a372ec265d778241f1639a62", "fusion_lon": 0.0, "bike_id": "6c392ad7a372ec265d778241f1639a62", "is_disabled": 0, "is_reserved": 0}, {"rental_uris": {"ios": "https://dc.lft.to/lastmile_qr_scan", "android": "https://dc.lft.to/lastmile_qr_scan"}, "lon": -77.02618266666667, "type": "electric_scooter", "fusion_lat": 0.0, "lat": 38.9169005, "name": "2684e1dcb87aafd51d1a3059f990934a", "fusion_lon": 0.0, "bike_id": "2684e1dcb87aafd51d1a3059f990934a", "is_disabled": 0, "is_reserved": 0}, {"rental_uris": {"ios": "https://dc.lft.to/lastmile_qr_scan", "android": "https://dc.lft.to/lastmile_qr_scan"}, "lon": -76.93869966666666, "type": "electric_scooter", "fusion_lat": 0.0, "lat": 38.90082183333333, "name": "4d22367b5eb0ee0815086bb8f3f22ca7", "fusion_lon": 0.0, "bike_id": "4d22367b5eb0ee0815086bb8f3f22ca7", "is_disabled": 0, "is_reserved": 0}, {"rental_uris": {"ios": "https://dc.lft.to/lastmile_qr_scan", "android": "https://dc.lft.to/lastmile_qr_scan"}, "lon": -76.98652433333334, "type": "electric_scooter", "fusion_lat": 0.0, "lat": 38.858058666666665, "name": "5d43c89ec68c950aa5ed87ad03e2bb7c", "fusion_lon": 0.0, "bike_id": "5d43c89ec68c950aa5ed87ad03e2bb7c", "is_disabled": 0, "is_reserved": 0}, {"rental_uris": {"ios": "https://dc.lft.to/lastmile_qr_scan", "android": "https://dc.lft.to/lastmile_qr_scan"}, "lon": -76.9900035, "type": "electric_scooter", "fusion_lat": 0.0, "lat": 38.8650375, "name": "9983e23aae8b1aca876a2014f89a116e", "fusion_lon": 0.0, "bike_id": "9983e23aae8b1aca876a2014f89a116e", "is_disabled": 0, "is_reserved": 0}, {"rental_uris": {"ios": "https://dc.lft.to/lastmile_qr_scan", "android": "https://dc.lft.to/lastmile_qr_scan"}, "lon": -77.02364616666667, "type": "electric_scooter", "fusion_lat": 0.0, "lat": 38.903049833333334, "name": "25ee0428d3b90a42fdd274ecebee534e", "fusion_lon": 0.0, "bike_id": "25ee0428d3b90a42fdd274ecebee534e", "is_disabled": 0, "is_reserved": 0}, {"rental_uris": {"ios": "https://dc.lft.to/lastmile_qr_scan", "android": "https://dc.lft.to/lastmile_qr_scan"}, "lon": -77.01111433333334, "type": "electric_scooter", "fusion_lat": 0.0, "lat": 38.907895833333335, "name": "6cae6b031bdc194be7f67db788176796", "fusion_lon": 0.0, "bike_id": "6cae6b031bdc194be7f67db788176796", "is_disabled": 0, "is_reserved": 0}, {"rental_uris": {"ios": "https://dc.lft.to/lastmile_qr_scan", "android": "https://dc.lft.to/lastmile_qr_scan"}, "lon": -77.00634316666667, "type": "electric_scooter", "fusion_lat": 0.0, "lat": 38.8293215, "name": "427e60f8e3524ef2263ab461293de2f7", "fusion_lon": 0.0, "bike_id": "427e60f8e3524ef2263ab461293de2f7", "is_disabled": 0, "is_reserved": 0}, {"rental_uris": {"ios": "https://dc.lft.to/lastmile_qr_scan", "android": "https://dc.lft.to/lastmile_qr_scan"}, "lon": -77.0192465, "type": "electric_scooter", "fusion_lat": 0.0, "lat": 38.956902, "name": "a01f52290523b76ab601dd56d0ce2ec1", "fusion_lon": 0.0, "bike_id": "a01f52290523b76ab601dd56d0ce2ec1", "is_disabled": 0, "is_reserved": 0}, {"rental_uris": {"ios": "https://dc.lft.to/lastmile_qr_scan", "android": "https://dc.lft.to/lastmile_qr_scan"}, "lon": -77.02792333333333, "type": "electric_scooter", "fusion_lat": 0.0, "lat": 38.93088, "name": "09e692c438ff5fce976d11bc68bece69", "fusion_lon": 0.0, "bike_id": "09e692c438ff5fce976d11bc68bece69", "is_disabled": 0, "is_reserved": 0}, {"rental_uris": {"ios": "https://dc.lft.to/lastmile_qr_scan", "android": "https://dc.lft.to/lastmile_qr_scan"}, "lon": -77.03080416666667, "type": "electric_scooter", "fusion_lat": 0.0, "lat": 38.894718166666664, "name": "18aa5af738ff163dd94c3ecfb5ef0bd8", "fusion_lon": 0.0, "bike_id": "18aa5af738ff163dd94c3ecfb5ef0bd8", "is_disabled": 0, "is_reserved": 0}, {"rental_uris": {"ios": "https://dc.lft.to/lastmile_qr_scan", "android": "https://dc.lft.to/lastmile_qr_scan"}, "lon": -77.0350915, "type": "electric_scooter", "fusion_lat": 0.0, "lat": 38.92152383333333, "name": "68b01909afc9bf5fd7b5a5e32b1098cb", "fusion_lon": 0.0, "bike_id": "68b01909afc9bf5fd7b5a5e32b1098cb", "is_disabled": 0, "is_reserved": 0}, {"rental_uris": {"ios": "https://dc.lft.to/lastmile_qr_scan", "android": "https://dc.lft.to/lastmile_qr_scan"}, "lon": -77.02476166666666, "type": "electric_scooter", "fusion_lat": 0.0, "lat": 38.9181585, "name": "e2e0847a4e207c53cc4c2c30728d1b0e", "fusion_lon": 0.0, "bike_id": "e2e0847a4e207c53cc4c2c30728d1b0e", "is_disabled": 0, "is_reserved": 0}, {"rental_uris": {"ios": "https://dc.lft.to/lastmile_qr_scan", "android": "https://dc.lft.to/lastmile_qr_scan"}, "lon": -77.03871116666667, "type": "electric_scooter", "fusion_lat": 0.0, "lat": 38.920285, "name": "1046e9a0efb9e622327524458c73d2e8", "fusion_lon": 0.0, "bike_id": "1046e9a0efb9e622327524458c73d2e8", "is_disabled": 0, "is_reserved": 0}, {"rental_uris": {"ios": "https://dc.lft.to/lastmile_qr_scan", "android": "https://dc.lft.to/lastmile_qr_scan"}, "lon": -77.03520266666666, "type": "electric_bike", "fusion_lat": 0.0, "lat": 38.965118333333336, "name": "0066c7315ec34a68371525e307144543", "fusion_lon": 0.0, "bike_id": "0066c7315ec34a68371525e307144543", "is_disabled": 0, "is_reserved": 0}, {"rental_uris": {"ios": "https://dc.lft.to/lastmile_qr_scan", "android": "https://dc.lft.to/lastmile_qr_scan"}, "lon": -77.03611516666666, "type": "electric_scooter", "fusion_lat": 0.0, "lat": 38.923367, "name": "e5f7b2a5948f9850cda48385adb2ebe5", "fusion_lon": 0.0, "bike_id": "e5f7b2a5948f9850cda48385adb2ebe5", "is_disabled": 0, "is_reserved": 0}, {"rental_uris": {"ios": "https://dc.lft.to/lastmile_qr_scan", "android": "https://dc.lft.to/lastmile_qr_scan"}, "lon": -76.97880483333333, "type": "electric_scooter", "fusion_lat": 0.0, "lat": 38.88508566666667, "name": "17e7ceb30b3d1a9271a13aaab12723ab", "fusion_lon": 0.0, "bike_id": "17e7ceb30b3d1a9271a13aaab12723ab", "is_disabled": 0, "is_reserved": 0}, {"rental_uris": {"ios": "https://dc.lft.to/lastmile_qr_scan", "android": "https://dc.lft.to/lastmile_qr_scan"}, "lon": -76.986969, "type": "electric_scooter", "fusion_lat": 0.0, "lat": 38.90706433333333, "name": "7eee2eb1e5475fcdf16f6e0a2ad3e886", "fusion_lon": 0.0, "bike_id": "7eee2eb1e5475fcdf16f6e0a2ad3e886", "is_disabled": 0, "is_reserved": 0}, {"rental_uris": {"ios": "https://dc.lft.to/lastmile_qr_scan", "android": "https://dc.lft.to/lastmile_qr_scan"}, "lon": -77.01481083333333, "type": "electric_scooter", "fusion_lat": 0.0, "lat": 38.881243, "name": "6923678e33b817f1820ab136fb522df6", "fusion_lon": 0.0, "bike_id": "6923678e33b817f1820ab136fb522df6", "is_disabled": 0, "is_reserved": 0}, {"rental_uris": {"ios": "https://dc.lft.to/lastmile_qr_scan", "android": "https://dc.lft.to/lastmile_qr_scan"}, "lon": -77.0261635, "type": "electric_scooter", "fusion_lat": 0.0, "lat": 38.9056045, "name": "5b1a6c1a78144a1d3612bfd8209af82c", "fusion_lon": 0.0, "bike_id": "5b1a6c1a78144a1d3612bfd8209af82c", "is_disabled": 0, "is_reserved": 0}, {"rental_uris": {"ios": "https://dc.lft.to/lastmile_qr_scan", "android": "https://dc.lft.to/lastmile_qr_scan"}, "lon": -77.00053916666667, "type": "electric_scooter", "fusion_lat": 0.0, "lat": 38.907373, "name": "681d6608dc9f4623d3d88d7949cb1ce7", "fusion_lon": 0.0, "bike_id": "681d6608dc9f4623d3d88d7949cb1ce7", "is_disabled": 0, "is_reserved": 0}, {"rental_uris": {"ios": "https://dc.lft.to/lastmile_qr_scan", "android": "https://dc.lft.to/lastmile_qr_scan"}, "lon": -77.040664, "type": "electric_scooter", "fusion_lat": 0.0, "lat": 38.902757333333334, "name": "17c3849f6c43a31b836ddfefc05a4e17", "fusion_lon": 0.0, "bike_id": "17c3849f6c43a31b836ddfefc05a4e17", "is_disabled": 0, "is_reserved": 0}, {"rental_uris": {"ios": "https://dc.lft.to/lastmile_qr_scan", "android": "https://dc.lft.to/lastmile_qr_scan"}, "lon": -77.011019, "type": "electric_scooter", "fusion_lat": 0.0, "lat": 38.89499883333333, "name": "e5a809eb0c71f0d7e06cdf7127f9f59e", "fusion_lon": 0.0, "bike_id": "e5a809eb0c71f0d7e06cdf7127f9f59e", "is_disabled": 0, "is_reserved": 0}, {"rental_uris": {"ios": "https://dc.lft.to/lastmile_qr_scan", "android": "https://dc.lft.to/lastmile_qr_scan"}, "lon": -77.01277933333333, "type": "electric_bike", "fusion_lat": 0.0, "lat": 38.88122883333333, "name": "0a58be3fad29b00b40052acdd4b59d50", "fusion_lon": 0.0, "bike_id": "0a58be3fad29b00b40052acdd4b59d50", "is_disabled": 0, "is_reserved": 0}, {"rental_uris": {"ios": "https://dc.lft.to/lastmile_qr_scan", "android": "https://dc.lft.to/lastmile_qr_scan"}, "lon": -77.00878883333333, "type": "electric_scooter", "fusion_lat": 0.0, "lat": 38.9140305, "name": "5aac6f124750d67b698a3bae349e3704", "fusion_lon": 0.0, "bike_id": "5aac6f124750d67b698a3bae349e3704", "is_disabled": 0, "is_reserved": 0}, {"rental_uris": {"ios": "https://dc.lft.to/lastmile_qr_scan", "android": "https://dc.lft.to/lastmile_qr_scan"}, "lon": -77.00135483333334, "type": "electric_scooter", "fusion_lat": 0.0, "lat": 38.904091666666666, "name": "1a10e46bfb5b2204c44ed1d6ec53a09f", "fusion_lon": 0.0, "bike_id": "1a10e46bfb5b2204c44ed1d6ec53a09f", "is_disabled": 0, "is_reserved": 0}, {"rental_uris": {"ios": "https://dc.lft.to/lastmile_qr_scan", "android": "https://dc.lft.to/lastmile_qr_scan"}, "lon": -76.92724783333334, "type": "electric_scooter", "fusion_lat": 0.0, "lat": 38.88040516666667, "name": "16b3449eb6135140d7ece48d518378b2", "fusion_lon": 0.0, "bike_id": "16b3449eb6135140d7ece48d518378b2", "is_disabled": 0, "is_reserved": 0}, {"rental_uris": {"ios": "https://dc.lft.to/lastmile_qr_scan", "android": "https://dc.lft.to/lastmile_qr_scan"}, "lon": -77.03199283333333, "type": "electric_scooter", "fusion_lat": 0.0, "lat": 38.90746133333333, "name": "144b66a586a46c92de8f1b3965315b06", "fusion_lon": 0.0, "bike_id": "144b66a586a46c92de8f1b3965315b06", "is_disabled": 0, "is_reserved": 0}, {"rental_uris": {"ios": "https://dc.lft.to/lastmile_qr_scan", "android": "https://dc.lft.to/lastmile_qr_scan"}, "lon": -77.0049845, "type": "electric_scooter", "fusion_lat": 0.0, "lat": 38.87855283333333, "name": "354f05d32a5d032af7e9e6885628113f", "fusion_lon": 0.0, "bike_id": "354f05d32a5d032af7e9e6885628113f", "is_disabled": 0, "is_reserved": 0}, {"rental_uris": {"ios": "https://dc.lft.to/lastmile_qr_scan", "android": "https://dc.lft.to/lastmile_qr_scan"}, "lon": -76.92585983333333, "type": "electric_scooter", "fusion_lat": 0.0, "lat": 38.8973085, "name": "997cb65c558be4eba0b465a828b9fd96", "fusion_lon": 0.0, "bike_id": "997cb65c558be4eba0b465a828b9fd96", "is_disabled": 0, "is_reserved": 0}, {"rental_uris": {"ios": "https://dc.lft.to/lastmile_qr_scan", "android": "https://dc.lft.to/lastmile_qr_scan"}, "lon": -77.10339466666667, "type": "electric_bike", "fusion_lat": 0.0, "lat": 38.85227866666666, "name": "c271a64af2b7d69f60c4bc5b52919062", "fusion_lon": 0.0, "bike_id": "c271a64af2b7d69f60c4bc5b52919062", "is_disabled": 0, "is_reserved": 0}, {"rental_uris": {"ios": "https://dc.lft.to/lastmile_qr_scan", "android": "https://dc.lft.to/lastmile_qr_scan"}, "lon": -77.03852333333333, "type": "electric_scooter", "fusion_lat": 0.0, "lat": 38.913249, "name": "1b88764e7039fb4e809d7c41dd4db06d", "fusion_lon": 0.0, "bike_id": "1b88764e7039fb4e809d7c41dd4db06d", "is_disabled": 0, "is_reserved": 0}, {"rental_uris": {"ios": "https://dc.lft.to/lastmile_qr_scan", "android": "https://dc.lft.to/lastmile_qr_scan"}, "lon": -77.02976633333333, "type": "electric_scooter", "fusion_lat": 0.0, "lat": 38.9623185, "name": "d6570ba7c93f941409f38d2177377cf4", "fusion_lon": 0.0, "bike_id": "d6570ba7c93f941409f38d2177377cf4", "is_disabled": 0, "is_reserved": 0}, {"rental_uris": {"ios": "https://dc.lft.to/lastmile_qr_scan", "android": "https://dc.lft.to/lastmile_qr_scan"}, "lon": -77.027187, "type": "electric_scooter", "fusion_lat": 0.0, "lat": 38.88070033333333, "name": "d60ecfed9f53c7e6129af85bd3dca483", "fusion_lon": 0.0, "bike_id": "d60ecfed9f53c7e6129af85bd3dca483", "is_disabled": 0, "is_reserved": 0}, {"rental_uris": {"ios": "https://dc.lft.to/lastmile_qr_scan", "android": "https://dc.lft.to/lastmile_qr_scan"}, "lon": -77.04708466666666, "type": "electric_scooter", "fusion_lat": 0.0, "lat": 38.905730166666665, "name": "c197228244594ae95ad313fe1da64157", "fusion_lon": 0.0, "bike_id": "c197228244594ae95ad313fe1da64157", "is_disabled": 0, "is_reserved": 0}, {"rental_uris": {"ios": "https://dc.lft.to/lastmile_qr_scan", "android": "https://dc.lft.to/lastmile_qr_scan"}, "lon": -77.02171883333334, "type": "electric_scooter", "fusion_lat": 0.0, "lat": 38.942900333333334, "name": "a8af504863f3a341dc7552e354cc6d61", "fusion_lon": 0.0, "bike_id": "a8af504863f3a341dc7552e354cc6d61", "is_disabled": 0, "is_reserved": 0}, {"rental_uris": {"ios": "https://dc.lft.to/lastmile_qr_scan", "android": "https://dc.lft.to/lastmile_qr_scan"}, "lon": -77.00278216666666, "type": "electric_scooter", "fusion_lat": 0.0, "lat": 38.89236366666667, "name": "00169fa8326d9030bf2441194bf6dffa", "fusion_lon": 0.0, "bike_id": "00169fa8326d9030bf2441194bf6dffa", "is_disabled": 0, "is_reserved": 0}, {"rental_uris": {"ios": "https://dc.lft.to/lastmile_qr_scan", "android": "https://dc.lft.to/lastmile_qr_scan"}, "lon": -76.94997966666666, "type": "electric_scooter", "fusion_lat": 0.0, "lat": 38.89372783333334, "name": "9ff08ce9a8924ddb76a8a291071d13d0", "fusion_lon": 0.0, "bike_id": "9ff08ce9a8924ddb76a8a291071d13d0", "is_disabled": 0, "is_reserved": 0}, {"rental_uris": {"ios": "https://dc.lft.to/lastmile_qr_scan", "android": "https://dc.lft.to/lastmile_qr_scan"}, "lon": -77.02527616666667, "type": "electric_scooter", "fusion_lat": 0.0, "lat": 38.94303933333333, "name": "e63dd9fd55fd8d09d811cac42998fc8b", "fusion_lon": 0.0, "bike_id": "e63dd9fd55fd8d09d811cac42998fc8b", "is_disabled": 0, "is_reserved": 0}, {"rental_uris": {"ios": "https://dc.lft.to/lastmile_qr_scan", "android": "https://dc.lft.to/lastmile_qr_scan"}, "lon": -77.03643766666667, "type": "electric_scooter", "fusion_lat": 0.0, "lat": 38.90286783333333, "name": "1ee8e4ba4aca04618b605d37efb1e5f5", "fusion_lon": 0.0, "bike_id": "1ee8e4ba4aca04618b605d37efb1e5f5", "is_disabled": 0, "is_reserved": 0}, {"rental_uris": {"ios": "https://dc.lft.to/lastmile_qr_scan", "android": "https://dc.lft.to/lastmile_qr_scan"}, "lon": -76.94889083333334, "type": "electric_scooter", "fusion_lat": 0.0, "lat": 38.895345, "name": "707d279d67af133f86756f89f060f246", "fusion_lon": 0.0, "bike_id": "707d279d67af133f86756f89f060f246", "is_disabled": 0, "is_reserved": 0}, {"rental_uris": {"ios": "https://dc.lft.to/lastmile_qr_scan", "android": "https://dc.lft.to/lastmile_qr_scan"}, "lon": -77.02785633333333, "type": "electric_scooter", "fusion_lat": 0.0, "lat": 38.916946, "name": "6f7f8a784ccd41b2fa0e2b76e31c93ec", "fusion_lon": 0.0, "bike_id": "6f7f8a784ccd41b2fa0e2b76e31c93ec", "is_disabled": 0, "is_reserved": 0}, {"rental_uris": {"ios": "https://dc.lft.to/lastmile_qr_scan", "android": "https://dc.lft.to/lastmile_qr_scan"}, "lon": -77.00484033333333, "type": "electric_scooter", "fusion_lat": 0.0, "lat": 38.94406333333333, "name": "7e526c11e9920598dd0c2f48104cbfec", "fusion_lon": 0.0, "bike_id": "7e526c11e9920598dd0c2f48104cbfec", "is_disabled": 0, "is_reserved": 0}, {"rental_uris": {"ios": "https://dc.lft.to/lastmile_qr_scan", "android": "https://dc.lft.to/lastmile_qr_scan"}, "lon": -77.03810466666667, "type": "electric_scooter", "fusion_lat": 0.0, "lat": 38.93397733333333, "name": "1ed5f0d4fd4c00e0a7a766ef1c776943", "fusion_lon": 0.0, "bike_id": "1ed5f0d4fd4c00e0a7a766ef1c776943", "is_disabled": 0, "is_reserved": 0}, {"rental_uris": {"ios": "https://dc.lft.to/lastmile_qr_scan", "android": "https://dc.lft.to/lastmile_qr_scan"}, "lon": -76.989795, "type": "electric_scooter", "fusion_lat": 0.0, "lat": 38.85917083333333, "name": "48ea38ed12bb729f855c42ad3207e58b", "fusion_lon": 0.0, "bike_id": "48ea38ed12bb729f855c42ad3207e58b", "is_disabled": 0, "is_reserved": 0}, {"rental_uris": {"ios": "https://dc.lft.to/lastmile_qr_scan", "android": "https://dc.lft.to/lastmile_qr_scan"}, "lon": -77.046466, "type": "electric_bike", "fusion_lat": 0.0, "lat": 38.852107833333335, "name": "7d329943ee1f126428c8adf22768c97f", "fusion_lon": 0.0, "bike_id": "7d329943ee1f126428c8adf22768c97f", "is_disabled": 0, "is_reserved": 0}, {"rental_uris": {"ios": "https://dc.lft.to/lastmile_qr_scan", "android": "https://dc.lft.to/lastmile_qr_scan"}, "lon": -77.0247635, "type": "electric_scooter", "fusion_lat": 0.0, "lat": 38.9376805, "name": "b44fb8b75f1e5ea05c760a1b3851e792", "fusion_lon": 0.0, "bike_id": "b44fb8b75f1e5ea05c760a1b3851e792", "is_disabled": 0, "is_reserved": 0}, {"rental_uris": {"ios": "https://dc.lft.to/lastmile_qr_scan", "android": "https://dc.lft.to/lastmile_qr_scan"}, "lon": -77.036603, "type": "electric_scooter", "fusion_lat": 0.0, "lat": 38.90284366666667, "name": "ffe69f4e9df62fb139e20f90987d11ae", "fusion_lon": 0.0, "bike_id": "ffe69f4e9df62fb139e20f90987d11ae", "is_disabled": 0, "is_reserved": 0}, {"rental_uris": {"ios": "https://dc.lft.to/lastmile_qr_scan", "android": "https://dc.lft.to/lastmile_qr_scan"}, "lon": -77.04491666666667, "type": "electric_scooter", "fusion_lat": 0.0, "lat": 38.91104683333333, "name": "a66a7ccfccf9597c5683729d7c58d4e8", "fusion_lon": 0.0, "bike_id": "a66a7ccfccf9597c5683729d7c58d4e8", "is_disabled": 0, "is_reserved": 0}, {"rental_uris": {"ios": "https://dc.lft.to/lastmile_qr_scan", "android": "https://dc.lft.to/lastmile_qr_scan"}, "lon": -77.030279, "type": "electric_scooter", "fusion_lat": 0.0, "lat": 38.89603983333333, "name": "0de86b2b9c9827363eff44da15c17f9c", "fusion_lon": 0.0, "bike_id": "0de86b2b9c9827363eff44da15c17f9c", "is_disabled": 0, "is_reserved": 0}, {"rental_uris": {"ios": "https://dc.lft.to/lastmile_qr_scan", "android": "https://dc.lft.to/lastmile_qr_scan"}, "lon": -77.04887166666667, "type": "electric_scooter", "fusion_lat": 0.0, "lat": 38.90209383333333, "name": "ac6d5d3d914bd572e680581ee4e1df28", "fusion_lon": 0.0, "bike_id": "ac6d5d3d914bd572e680581ee4e1df28", "is_disabled": 0, "is_reserved": 0}, {"rental_uris": {"ios": "https://dc.lft.to/lastmile_qr_scan", "android": "https://dc.lft.to/lastmile_qr_scan"}, "lon": -77.03349866666667, "type": "electric_scooter", "fusion_lat": 0.0, "lat": 38.89535033333333, "name": "de88522034961798e7ecdfb20fec7787", "fusion_lon": 0.0, "bike_id": "de88522034961798e7ecdfb20fec7787", "is_disabled": 0, "is_reserved": 0}, {"rental_uris": {"ios": "https://dc.lft.to/lastmile_qr_scan", "android": "https://dc.lft.to/lastmile_qr_scan"}, "lon": -77.03920066666667, "type": "electric_scooter", "fusion_lat": 0.0, "lat": 38.921063833333335, "name": "67109acc95c0b0fb450c17a4d0e5bafa", "fusion_lon": 0.0, "bike_id": "67109acc95c0b0fb450c17a4d0e5bafa", "is_disabled": 0, "is_reserved": 0}, {"rental_uris": {"ios": "https://dc.lft.to/lastmile_qr_scan", "android": "https://dc.lft.to/lastmile_qr_scan"}, "lon": -77.12964833333334, "type": "electric_bike", "fusion_lat": 0.0, "lat": 38.807929666666666, "name": "287a23d09e012e82732f8b989359b2b3", "fusion_lon": 0.0, "bike_id": "287a23d09e012e82732f8b989359b2b3", "is_disabled": 0, "is_reserved": 0}, {"rental_uris": {"ios": "https://dc.lft.to/lastmile_qr_scan", "android": "https://dc.lft.to/lastmile_qr_scan"}, "lon": -77.01283866666667, "type": "electric_bike", "fusion_lat": 0.0, "lat": 39.003834166666664, "name": "541ded6aae739f51f797c422eb4a9673", "fusion_lon": 0.0, "bike_id": "541ded6aae739f51f797c422eb4a9673", "is_disabled": 0, "is_reserved": 0}, {"rental_uris": {"ios": "https://dc.lft.to/lastmile_qr_scan", "android": "https://dc.lft.to/lastmile_qr_scan"}, "lon": -77.05524833333334, "type": "electric_scooter", "fusion_lat": 0.0, "lat": 38.897287166666665, "name": "637f36efebb69a4ba6bd9678976f369c", "fusion_lon": 0.0, "bike_id": "637f36efebb69a4ba6bd9678976f369c", "is_disabled": 0, "is_reserved": 0}, {"rental_uris": {"ios": "https://dc.lft.to/lastmile_qr_scan", "android": "https://dc.lft.to/lastmile_qr_scan"}, "lon": -77.01607233333333, "type": "electric_scooter", "fusion_lat": 0.0, "lat": 38.90187316666667, "name": "0ced5491a455dabb2fd3f27b11a1d6f5", "fusion_lon": 0.0, "bike_id": "0ced5491a455dabb2fd3f27b11a1d6f5", "is_disabled": 0, "is_reserved": 0}, {"rental_uris": {"ios": "https://dc.lft.to/lastmile_qr_scan", "android": "https://dc.lft.to/lastmile_qr_scan"}, "lon": -77.04668116666667, "type": "electric_scooter", "fusion_lat": 0.0, "lat": 38.932981, "name": "376a2e767cbf732335bcdcaa8bd3fefe", "fusion_lon": 0.0, "bike_id": "376a2e767cbf732335bcdcaa8bd3fefe", "is_disabled": 0, "is_reserved": 0}, {"rental_uris": {"ios": "https://dc.lft.to/lastmile_qr_scan", "android": "https://dc.lft.to/lastmile_qr_scan"}, "lon": -76.93246, "type": "electric_scooter", "fusion_lat": 0.0, "lat": 38.89406666666667, "name": "665e3ac25cd959c7c3d135c989ecd194", "fusion_lon": 0.0, "bike_id": "665e3ac25cd959c7c3d135c989ecd194", "is_disabled": 0, "is_reserved": 0}, {"rental_uris": {"ios": "https://dc.lft.to/lastmile_qr_scan", "android": "https://dc.lft.to/lastmile_qr_scan"}, "lon": -77.02426116666666, "type": "electric_scooter", "fusion_lat": 0.0, "lat": 38.91552566666667, "name": "7f47ae5de214dd9f0647557af709d5a7", "fusion_lon": 0.0, "bike_id": "7f47ae5de214dd9f0647557af709d5a7", "is_disabled": 0, "is_reserved": 0}, {"rental_uris": {"ios": "https://dc.lft.to/lastmile_qr_scan", "android": "https://dc.lft.to/lastmile_qr_scan"}, "lon": -76.99068216666667, "type": "electric_scooter", "fusion_lat": 0.0, "lat": 38.863575, "name": "c9cb9f8ed07291066a0b4377eccafdf7", "fusion_lon": 0.0, "bike_id": "c9cb9f8ed07291066a0b4377eccafdf7", "is_disabled": 0, "is_reserved": 0}, {"rental_uris": {"ios": "https://dc.lft.to/lastmile_qr_scan", "android": "https://dc.lft.to/lastmile_qr_scan"}, "lon": -77.08394416666667, "type": "electric_scooter", "fusion_lat": 0.0, "lat": 38.960971, "name": "056d44a6dfe4cd1e4531936a901e6c05", "fusion_lon": 0.0, "bike_id": "056d44a6dfe4cd1e4531936a901e6c05", "is_disabled": 0, "is_reserved": 0}, {"rental_uris": {"ios": "https://dc.lft.to/lastmile_qr_scan", "android": "https://dc.lft.to/lastmile_qr_scan"}, "lon": -77.35309833333334, "type": "electric_bike", "fusion_lat": 0.0, "lat": 38.95004133333333, "name": "3c3f9d5ed678250f1489e2666a5793dd", "fusion_lon": 0.0, "bike_id": "3c3f9d5ed678250f1489e2666a5793dd", "is_disabled": 0, "is_reserved": 0}, {"rental_uris": {"ios": "https://dc.lft.to/lastmile_qr_scan", "android": "https://dc.lft.to/lastmile_qr_scan"}, "lon": -76.987249, "type": "electric_scooter", "fusion_lat": 0.0, "lat": 38.884189166666665, "name": "7f62cd58cc839709fe62be16e0a5b502", "fusion_lon": 0.0, "bike_id": "7f62cd58cc839709fe62be16e0a5b502", "is_disabled": 0, "is_reserved": 0}, {"rental_uris": {"ios": "https://dc.lft.to/lastmile_qr_scan", "android": "https://dc.lft.to/lastmile_qr_scan"}, "lon": -77.01765116666667, "type": "electric_scooter", "fusion_lat": 0.0, "lat": 38.903752833333336, "name": "5d1e0f094a7fa7cdda4661531fd6c618", "fusion_lon": 0.0, "bike_id": "5d1e0f094a7fa7cdda4661531fd6c618", "is_disabled": 0, "is_reserved": 0}, {"rental_uris": {"ios": "https://dc.lft.to/lastmile_qr_scan", "android": "https://dc.lft.to/lastmile_qr_scan"}, "lon": -77.03222666666667, "type": "electric_scooter", "fusion_lat": 0.0, "lat": 38.92586216666667, "name": "9537c1a0c6cc1f3694bca34985491fe6", "fusion_lon": 0.0, "bike_id": "9537c1a0c6cc1f3694bca34985491fe6", "is_disabled": 0, "is_reserved": 0}, {"rental_uris": {"ios": "https://dc.lft.to/lastmile_qr_scan", "android": "https://dc.lft.to/lastmile_qr_scan"}, "lon": -77.03864483333334, "type": "electric_scooter", "fusion_lat": 0.0, "lat": 38.909698, "name": "a1f96fd0821a29dc6020b365c9b96b8b", "fusion_lon": 0.0, "bike_id": "a1f96fd0821a29dc6020b365c9b96b8b", "is_disabled": 0, "is_reserved": 0}, {"rental_uris": {"ios": "https://dc.lft.to/lastmile_qr_scan", "android": "https://dc.lft.to/lastmile_qr_scan"}, "lon": -77.04540783333333, "type": "electric_scooter", "fusion_lat": 0.0, "lat": 38.90392333333333, "name": "28500f993432f51d9ec7fe45465fd4c2", "fusion_lon": 0.0, "bike_id": "28500f993432f51d9ec7fe45465fd4c2", "is_disabled": 0, "is_reserved": 0}, {"rental_uris": {"ios": "https://dc.lft.to/lastmile_qr_scan", "android": "https://dc.lft.to/lastmile_qr_scan"}, "lon": -77.03949566666667, "type": "electric_scooter", "fusion_lat": 0.0, "lat": 38.901248833333334, "name": "598fb2e8e9714d04f702111bd59cbee2", "fusion_lon": 0.0, "bike_id": "598fb2e8e9714d04f702111bd59cbee2", "is_disabled": 0, "is_reserved": 0}, {"rental_uris": {"ios": "https://dc.lft.to/lastmile_qr_scan", "android": "https://dc.lft.to/lastmile_qr_scan"}, "lon": -77.03510133333333, "type": "electric_scooter", "fusion_lat": 0.0, "lat": 38.92337466666667, "name": "f9113ce7690b8760eefc89bb8a973412", "fusion_lon": 0.0, "bike_id": "f9113ce7690b8760eefc89bb8a973412", "is_disabled": 0, "is_reserved": 0}, {"rental_uris": {"ios": "https://dc.lft.to/lastmile_qr_scan", "android": "https://dc.lft.to/lastmile_qr_scan"}, "lon": -76.9317315, "type": "electric_scooter", "fusion_lat": 0.0, "lat": 38.89884383333333, "name": "a36bbc9c74125527f3c200a8fbf395b6", "fusion_lon": 0.0, "bike_id": "a36bbc9c74125527f3c200a8fbf395b6", "is_disabled": 0, "is_reserved": 0}, {"rental_uris": {"ios": "https://dc.lft.to/lastmile_qr_scan", "android": "https://dc.lft.to/lastmile_qr_scan"}, "lon": -77.034515, "type": "electric_scooter", "fusion_lat": 0.0, "lat": 38.9181915, "name": "a9e9e5baea4d7714506d82dc8fd1b262", "fusion_lon": 0.0, "bike_id": "a9e9e5baea4d7714506d82dc8fd1b262", "is_disabled": 0, "is_reserved": 0}, {"rental_uris": {"ios": "https://dc.lft.to/lastmile_qr_scan", "android": "https://dc.lft.to/lastmile_qr_scan"}, "lon": -76.99495183333333, "type": "electric_scooter", "fusion_lat": 0.0, "lat": 38.89952266666667, "name": "4cef0534485d60a26d1464fff92c0323", "fusion_lon": 0.0, "bike_id": "4cef0534485d60a26d1464fff92c0323", "is_disabled": 0, "is_reserved": 0}, {"rental_uris": {"ios": "https://dc.lft.to/lastmile_qr_scan", "android": "https://dc.lft.to/lastmile_qr_scan"}, "lon": -77.02420016666666, "type": "electric_scooter", "fusion_lat": 0.0, "lat": 38.926575166666666, "name": "58353d48bcbe885ce99cdfc4cd7dffe0", "fusion_lon": 0.0, "bike_id": "58353d48bcbe885ce99cdfc4cd7dffe0", "is_disabled": 0, "is_reserved": 0}, {"rental_uris": {"ios": "https://dc.lft.to/lastmile_qr_scan", "android": "https://dc.lft.to/lastmile_qr_scan"}, "lon": -77.035619, "type": "electric_scooter", "fusion_lat": 0.0, "lat": 38.91809083333333, "name": "c62a620fca985ca95cf24420aa9aa92f", "fusion_lon": 0.0, "bike_id": "c62a620fca985ca95cf24420aa9aa92f", "is_disabled": 0, "is_reserved": 0}, {"rental_uris": {"ios": "https://dc.lft.to/lastmile_qr_scan", "android": "https://dc.lft.to/lastmile_qr_scan"}, "lon": -77.03449366666666, "type": "electric_scooter", "fusion_lat": 0.0, "lat": 38.917047, "name": "697630de7b2490ac174042fd7cc99fed", "fusion_lon": 0.0, "bike_id": "697630de7b2490ac174042fd7cc99fed", "is_disabled": 0, "is_reserved": 0}, {"rental_uris": {"ios": "https://dc.lft.to/lastmile_qr_scan", "android": "https://dc.lft.to/lastmile_qr_scan"}, "lon": -77.02429783333334, "type": "electric_scooter", "fusion_lat": 0.0, "lat": 38.907288666666666, "name": "f43786c3255098d4da1b77e13a002176", "fusion_lon": 0.0, "bike_id": "f43786c3255098d4da1b77e13a002176", "is_disabled": 0, "is_reserved": 0}, {"rental_uris": {"ios": "https://dc.lft.to/lastmile_qr_scan", "android": "https://dc.lft.to/lastmile_qr_scan"}, "lon": -77.0358455, "type": "electric_scooter", "fusion_lat": 0.0, "lat": 38.90762316666667, "name": "6d5c57c76430df4ef6a56339507f7aa0", "fusion_lon": 0.0, "bike_id": "6d5c57c76430df4ef6a56339507f7aa0", "is_disabled": 0, "is_reserved": 0}, {"rental_uris": {"ios": "https://dc.lft.to/lastmile_qr_scan", "android": "https://dc.lft.to/lastmile_qr_scan"}, "lon": -76.97702683333333, "type": "electric_scooter", "fusion_lat": 0.0, "lat": 38.8971055, "name": "4e9ea3caeec36ffb22b7880bb91175e4", "fusion_lon": 0.0, "bike_id": "4e9ea3caeec36ffb22b7880bb91175e4", "is_disabled": 0, "is_reserved": 0}, {"rental_uris": {"ios": "https://dc.lft.to/lastmile_qr_scan", "android": "https://dc.lft.to/lastmile_qr_scan"}, "lon": -77.03269233333333, "type": "electric_scooter", "fusion_lat": 0.0, "lat": 38.93736166666667, "name": "5b75922fb3e01026a765512ae51fc3a6", "fusion_lon": 0.0, "bike_id": "5b75922fb3e01026a765512ae51fc3a6", "is_disabled": 0, "is_reserved": 0}, {"rental_uris": {"ios": "https://dc.lft.to/lastmile_qr_scan", "android": "https://dc.lft.to/lastmile_qr_scan"}, "lon": -77.03507033333334, "type": "electric_scooter", "fusion_lat": 0.0, "lat": 38.9003315, "name": "140d929e42bc43bfa903600d25421f2b", "fusion_lon": 0.0, "bike_id": "140d929e42bc43bfa903600d25421f2b", "is_disabled": 0, "is_reserved": 0}, {"rental_uris": {"ios": "https://dc.lft.to/lastmile_qr_scan", "android": "https://dc.lft.to/lastmile_qr_scan"}, "lon": -77.04895, "type": "electric_scooter", "fusion_lat": 0.0, "lat": 38.896742833333334, "name": "9e598578edba8e6e4ce072ef18656cb3", "fusion_lon": 0.0, "bike_id": "9e598578edba8e6e4ce072ef18656cb3", "is_disabled": 0, "is_reserved": 0}, {"rental_uris": {"ios": "https://dc.lft.to/lastmile_qr_scan", "android": "https://dc.lft.to/lastmile_qr_scan"}, "lon": -77.022259, "type": "electric_scooter", "fusion_lat": 0.0, "lat": 38.91268916666667, "name": "dc2d800968ba102242a96ece7cda86fd", "fusion_lon": 0.0, "bike_id": "dc2d800968ba102242a96ece7cda86fd", "is_disabled": 0, "is_reserved": 0}, {"rental_uris": {"ios": "https://dc.lft.to/lastmile_qr_scan", "android": "https://dc.lft.to/lastmile_qr_scan"}, "lon": -77.03182366666667, "type": "electric_scooter", "fusion_lat": 0.0, "lat": 38.896002, "name": "e8ea797d874cbc37cc611705c4be09d1", "fusion_lon": 0.0, "bike_id": "e8ea797d874cbc37cc611705c4be09d1", "is_disabled": 0, "is_reserved": 0}, {"rental_uris": {"ios": "https://dc.lft.to/lastmile_qr_scan", "android": "https://dc.lft.to/lastmile_qr_scan"}, "lon": -77.00894033333333, "type": "electric_scooter", "fusion_lat": 0.0, "lat": 38.9123145, "name": "9076ce943e016c7ae2f694ccf1d802d9", "fusion_lon": 0.0, "bike_id": "9076ce943e016c7ae2f694ccf1d802d9", "is_disabled": 0, "is_reserved": 0}, {"rental_uris": {"ios": "https://dc.lft.to/lastmile_qr_scan", "android": "https://dc.lft.to/lastmile_qr_scan"}, "lon": -76.93174716666667, "type": "electric_scooter", "fusion_lat": 0.0, "lat": 38.89887233333334, "name": "9220aa4f06888d9f12415e892553c5b0", "fusion_lon": 0.0, "bike_id": "9220aa4f06888d9f12415e892553c5b0", "is_disabled": 0, "is_reserved": 0}, {"rental_uris": {"ios": "https://dc.lft.to/lastmile_qr_scan", "android": "https://dc.lft.to/lastmile_qr_scan"}, "lon": -76.92710366666667, "type": "electric_scooter", "fusion_lat": 0.0, "lat": 38.88767933333333, "name": "26ae3ed026a1850c0515120224990251", "fusion_lon": 0.0, "bike_id": "26ae3ed026a1850c0515120224990251", "is_disabled": 0, "is_reserved": 0}, {"rental_uris": {"ios": "https://dc.lft.to/lastmile_qr_scan", "android": "https://dc.lft.to/lastmile_qr_scan"}, "lon": -77.0157645, "type": "electric_scooter", "fusion_lat": 0.0, "lat": 38.916827833333336, "name": "0f482fc5f2bb258742170664b8ddf286", "fusion_lon": 0.0, "bike_id": "0f482fc5f2bb258742170664b8ddf286", "is_disabled": 0, "is_reserved": 0}, {"rental_uris": {"ios": "https://dc.lft.to/lastmile_qr_scan", "android": "https://dc.lft.to/lastmile_qr_scan"}, "lon": -77.03136483333333, "type": "electric_scooter", "fusion_lat": 0.0, "lat": 38.923769166666666, "name": "7b024683202950b215af8909a5d16fa1", "fusion_lon": 0.0, "bike_id": "7b024683202950b215af8909a5d16fa1", "is_disabled": 0, "is_reserved": 0}, {"rental_uris": {"ios": "https://dc.lft.to/lastmile_qr_scan", "android": "https://dc.lft.to/lastmile_qr_scan"}, "lon": -76.98718516666666, "type": "electric_scooter", "fusion_lat": 0.0, "lat": 38.8670315, "name": "8cdc3fc022172906e0fcdeeb7953fce2", "fusion_lon": 0.0, "bike_id": "8cdc3fc022172906e0fcdeeb7953fce2", "is_disabled": 0, "is_reserved": 0}, {"rental_uris": {"ios": "https://dc.lft.to/lastmile_qr_scan", "android": "https://dc.lft.to/lastmile_qr_scan"}, "lon": -77.03194583333334, "type": "electric_scooter", "fusion_lat": 0.0, "lat": 38.89953116666667, "name": "1f5e2b01a8ae1b942261d3e045bc577e", "fusion_lon": 0.0, "bike_id": "1f5e2b01a8ae1b942261d3e045bc577e", "is_disabled": 0, "is_reserved": 0}, {"rental_uris": {"ios": "https://dc.lft.to/lastmile_qr_scan", "android": "https://dc.lft.to/lastmile_qr_scan"}, "lon": -77.03472616666667, "type": "electric_scooter", "fusion_lat": 0.0, "lat": 38.90280883333333, "name": "599f84062cd0ae714af116b586e549e5", "fusion_lon": 0.0, "bike_id": "599f84062cd0ae714af116b586e549e5", "is_disabled": 0, "is_reserved": 0}, {"rental_uris": {"ios": "https://dc.lft.to/lastmile_qr_scan", "android": "https://dc.lft.to/lastmile_qr_scan"}, "lon": -77.03320866666667, "type": "electric_scooter", "fusion_lat": 0.0, "lat": 38.9217165, "name": "8a4bffbd8a08b3bf79c8478c943a31ab", "fusion_lon": 0.0, "bike_id": "8a4bffbd8a08b3bf79c8478c943a31ab", "is_disabled": 0, "is_reserved": 0}, {"rental_uris": {"ios": "https://dc.lft.to/lastmile_qr_scan", "android": "https://dc.lft.to/lastmile_qr_scan"}, "lon": -77.0023415, "type": "electric_scooter", "fusion_lat": 0.0, "lat": 38.905701666666666, "name": "2bbfaaeb2499d28893d2aa2b0699f80e", "fusion_lon": 0.0, "bike_id": "2bbfaaeb2499d28893d2aa2b0699f80e", "is_disabled": 0, "is_reserved": 0}, {"rental_uris": {"ios": "https://dc.lft.to/lastmile_qr_scan", "android": "https://dc.lft.to/lastmile_qr_scan"}, "lon": -76.984098, "type": "electric_scooter", "fusion_lat": 0.0, "lat": 38.9138625, "name": "0301858b174c3998f32630909fa97cd5", "fusion_lon": 0.0, "bike_id": "0301858b174c3998f32630909fa97cd5", "is_disabled": 0, "is_reserved": 0}, {"rental_uris": {"ios": "https://dc.lft.to/lastmile_qr_scan", "android": "https://dc.lft.to/lastmile_qr_scan"}, "lon": -77.11427333333333, "type": "electric_bike", "fusion_lat": 0.0, "lat": 38.8524825, "name": "2625c9a7b67325432cfaec82d2d74ff7", "fusion_lon": 0.0, "bike_id": "2625c9a7b67325432cfaec82d2d74ff7", "is_disabled": 0, "is_reserved": 0}, {"rental_uris": {"ios": "https://dc.lft.to/lastmile_qr_scan", "android": "https://dc.lft.to/lastmile_qr_scan"}, "lon": -77.02694266666667, "type": "electric_scooter", "fusion_lat": 0.0, "lat": 38.90845616666667, "name": "4b805f496e633dfc5dffa6e8023750aa", "fusion_lon": 0.0, "bike_id": "4b805f496e633dfc5dffa6e8023750aa", "is_disabled": 0, "is_reserved": 0}, {"rental_uris": {"ios": "https://dc.lft.to/lastmile_qr_scan", "android": "https://dc.lft.to/lastmile_qr_scan"}, "lon": -76.99384016666667, "type": "electric_scooter", "fusion_lat": 0.0, "lat": 38.887202, "name": "3d85714eaf9e72c06e2ad02c6d81228f", "fusion_lon": 0.0, "bike_id": "3d85714eaf9e72c06e2ad02c6d81228f", "is_disabled": 0, "is_reserved": 0}, {"rental_uris": {"ios": "https://dc.lft.to/lastmile_qr_scan", "android": "https://dc.lft.to/lastmile_qr_scan"}, "lon": -77.03631983333334, "type": "electric_scooter", "fusion_lat": 0.0, "lat": 38.918213, "name": "b576ef2238e7e2518240607a09848409", "fusion_lon": 0.0, "bike_id": "b576ef2238e7e2518240607a09848409", "is_disabled": 0, "is_reserved": 0},