{"data": {"bikes": [{"rental_uris": {"ios": "https://dc.lft.to/lastmile_qr_scan", "android": "https://dc.lft.to/lastmile_qr_scan"}, "type": "electric_scooter", "name": "9202a02cb21a2155ad694da0d98ef983", "is_reserved": 0, "lon": -77.04259516666667, "is_disabled": 0, "fusion_lat": 0.0, "lat": 38.903580833333336, "bike_id": "9202a02cb21a2155ad694da0d98ef983", "fusion_lon": 0.0}, {"rental_uris": {"ios": "https://dc.lft.to/lastmile_qr_scan", "android": "https://dc.lft.to/lastmile_qr_scan"}, "type": "electric_scooter", "name": "c8735c54469d07f8f8825928b4363964", "is_reserved": 0, "lon": -77.04342716666666, "is_disabled": 0, "fusion_lat": 0.0, "lat": 38.907301833333335, "bike_id": "c8735c54469d07f8f8825928b4363964", "fusion_lon": 0.0}, {"rental_uris": {"ios": "https://dc.lft.to/lastmile_qr_scan", "android": "https://dc.lft.to/lastmile_qr_scan"}, "type": "electric_scooter", "name": "5028e89549526e50b2257271af53ba44", "is_reserved": 0, "lon": -77.028188, "is_disabled": 0, "fusion_lat": 0.0, "lat": 38.90916133333333, "bike_id": "5028e89549526e50b2257271af53ba44", "fusion_lon": 0.0}, {"rental_uris": {"ios": "https://dc.lft.to/lastmile_qr_scan", "android": "https://dc.lft.to/lastmile_qr_scan"}, "type": "electric_scooter", "name": "35beac2395e245709e703eda62e42a47", "is_reserved": 0, "lon": -77.04328266666667, "is_disabled": 0, "fusion_lat": 0.0, "lat": 38.9065635, "bike_id": "35beac2395e245709e703eda62e42a47", "fusion_lon": 0.0}, {"rental_uris": {"ios": "https://dc.lft.to/lastmile_qr_scan", "android": "https://dc.lft.to/lastmile_qr_scan"}, "type": "electric_scooter", "name": "b426ec2ea6f71112e775010e26c5b825", "is_reserved": 0, "lon": -77.01840216666666, "is_disabled": 0, "fusion_lat": 0.0, "lat": 38.97470933333334, "bike_id": "b426ec2ea6f71112e775010e26c5b825", "fusion_lon": 0.0}, {"rental_uris": {"ios": "https://dc.lft.to/lastmile_qr_scan", "android": "https://dc.lft.to/lastmile_qr_scan"}, "type": "electric_scooter", "name": "6d4b5f691ff7156f3f5c1f26e45dbc73", "is_reserved": 0, "lon": -77.03848183333334, "is_disabled": 0, "fusion_lat": 0.0, "lat": 38.91659716666667, "bike_id": "6d4b5f691ff7156f3f5c1f26e45dbc73", "fusion_lon": 0.0}, {"rental_uris": {"ios": "https://dc.lft.to/lastmile_qr_scan", "android": "https://dc.lft.to/lastmile_qr_scan"}, "type": "electric_scooter", "name": "3da3ee3405c33a061778493e9bc14832", "is_reserved": 0, "lon": -77.040546, "is_disabled": 0, "fusion_lat": 0.0, "lat": 38.91771516666667, "bike_id": "3da3ee3405c33a061778493e9bc14832", "fusion_lon": 0.0}, {"rental_uris": {"ios": "https://dc.lft.to/lastmile_qr_scan", "android": "https://dc.lft.to/lastmile_qr_scan"}, "type": "electric_scooter", "name": "4126f2bbec51112aa0b60ac661d0a893", "is_reserved": 0, "lon": -77.04559566666667, "is_disabled": 0, "fusion_lat": 0.0, "lat": 38.903782666666665, "bike_id": "4126f2bbec51112aa0b60ac661d0a893", "fusion_lon": 0.0}, {"rental_uris": {"ios": "https://dc.lft.to/lastmile_qr_scan", "android": "https://dc.lft.to/lastmile_qr_scan"}, "type": "electric_scooter", "name": "46d7f588d7cc16c1d2b525e8e1ecc1b1", "is_reserved": 0, "lon": -77.0072115, "is_disabled": 0, "fusion_lat": 0.0, "lat": 38.876606833333334, "bike_id": "46d7f588d7cc16c1d2b525e8e1ecc1b1", "fusion_lon": 0.0}, {"rental_uris": {"ios": "https://dc.lft.to/lastmile_qr_scan", "android": "https://dc.lft.to/lastmile_qr_scan"}, "type": "electric_scooter", "name": "b3c976643849010564f867d4fe834714", "is_reserved": 0, "lon": -77.02887233333334, "is_disabled": 0, "fusion_lat": 0.0, "lat": 38.897110166666664, "bike_id": "b3c976643849010564f867d4fe834714", "fusion_lon": 0.0}, {"rental_uris": {"ios": "https://dc.lft.to/lastmile_qr_scan", "android": "https://dc.lft.to/lastmile_qr_scan"}, "type": "electric_scooter", "name": "b45553d4a2670d465ecbcdf646b077eb", "is_reserved": 0, "lon": -77.03842766666666, "is_disabled": 0, "fusion_lat": 0.0, "lat": 38.91543266666667, "bike_id": "b45553d4a2670d465ecbcdf646b077eb", "fusion_lon": 0.0}, {"rental_uris": {"ios": "https://dc.lft.to/lastmile_qr_scan", "android": "https://dc.lft.to/lastmile_qr_scan"}, "type": "electric_bike", "name": "813797463124c190d48641c1d19621b1", "is_reserved": 0, "lon": -76.96153216666667, "is_disabled": 0, "fusion_lat": 0.0, "lat": 38.856199333333336, "bike_id": "813797463124c190d48641c1d19621b1", "fusion_lon": 0.0}, {"rental_uris": {"ios": "https://dc.lft.to/lastmile_qr_scan", "android": "https://dc.lft.to/lastmile_qr_scan"}, "type": "electric_scooter", "name": "f01a3e794d00485888a6fdd7efdbadb9", "is_reserved": 0, "lon": -76.99754166666666, "is_disabled": 0, "fusion_lat": 0.0, "lat": 38.885073166666665, "bike_id": "f01a3e794d00485888a6fdd7efdbadb9", "fusion_lon": 0.0}, {"rental_uris": {"ios": "https://dc.lft.to/lastmile_qr_scan", "android": "https://dc.lft.to/lastmile_qr_scan"}, "type": "electric_scooter", "name": "87e87b13ad551bd47777622050125923", "is_reserved": 0, "lon": -77.0200085, "is_disabled": 0, "fusion_lat": 0.0, "lat": 38.96627633333333, "bike_id": "87e87b13ad551bd47777622050125923", "fusion_lon": 0.0}, {"rental_uris": {"ios": "https://dc.lft.to/lastmile_qr_scan", "android": "https://dc.lft.to/lastmile_qr_scan"}, "type": "electric_bike", "name": "37afe015ed234e407074206c5327ebaf", "is_reserved": 0, "lon": -76.95159933333333, "is_disabled": 0, "fusion_lat": 0.0, "lat": 39.08438683333333, "bike_id": "37afe015ed234e407074206c5327ebaf", "fusion_lon": 0.0}, {"rental_uris": {"ios": "https://dc.lft.to/lastmile_qr_scan", "android": "https://dc.lft.to/lastmile_qr_scan"}, "type": "electric_bike", "name": "2ede8dc186ec4caa89402744b32e22ef", "is_reserved": 0, "lon": -77.07773116666667, "is_disabled": 0, "fusion_lat": 0.0, "lat": 38.930442, "bike_id": "2ede8dc186ec4caa89402744b32e22ef", "fusion_lon": 0.0}, {"rental_uris": {"ios": "https://dc.lft.to/lastmile_qr_scan", "android": "https://dc.lft.to/lastmile_qr_scan"}, "type": "electric_scooter", "name": "15908fe8a492d1dd57b77fef2cf8d684", "is_reserved": 0, "lon": -77.04501633333334, "is_disabled": 0, "fusion_lat": 0.0, "lat": 38.91940116666667, "bike_id": "15908fe8a492d1dd57b77fef2cf8d684", "fusion_lon": 0.0}, {"rental_uris": {"ios": "https://dc.lft.to/lastmile_qr_scan", "android": "https://dc.lft.to/lastmile_qr_scan"}, "type": "electric_scooter", "name": "91976b48233bcb7305210750dd0f861b", "is_reserved": 0, "lon": -77.02934983333333, "is_disabled": 0, "fusion_lat": 0.0, "lat": 38.89819716666667, "bike_id": "91976b48233bcb7305210750dd0f861b", "fusion_lon": 0.0}, {"rental_uris": {"ios": "https://dc.lft.to/lastmile_qr_scan", "android": "https://dc.lft.to/lastmile_qr_scan"}, "type": "electric_scooter", "name": "2ed8117e87cd4713e198404717199ab5", "is_reserved": 0, "lon": -77.03297383333333, "is_disabled": 0, "fusion_lat": 0.0, "lat": 38.8972985, "bike_id": "2ed8117e87cd4713e198404717199ab5", "fusion_lon": 0.0}, {"rental_uris": {"ios": "https://dc.lft.to/lastmile_qr_scan", "android": "https://dc.lft.to/lastmile_qr_scan"}, "type": "electric_bike", "name": "05da54aa1935c715db28c736979e2a1a", "is_reserved": 0, "lon": -76.97541833333334, "is_disabled": 0, "fusion_lat": 0.0, "lat": 38.904241, "bike_id": "05da54aa1935c715db28c736979e2a1a", "fusion_lon": 0.0}, {"rental_uris": {"ios": "https://dc.lft.to/lastmile_qr_scan", "android": "https://dc.lft.to/lastmile_qr_scan"}, "type": "electric_scooter", "name": "2e3d7895af9034a45657216d796ee64b", "is_reserved": 0, "lon": -77.06432616666666, "is_disabled": 0, "fusion_lat": 0.0, "lat": 38.935618166666664, "bike_id": "2e3d7895af9034a45657216d796ee64b", "fusion_lon": 0.0}, {"rental_uris": {"ios": "https://dc.lft.to/lastmile_qr_scan", "android": "https://dc.lft.to/lastmile_qr_scan"}, "type": "electric_scooter", "name": "f22b45085f19d51e733f5da5afe3ab3d", "is_reserved": 0, "lon": -77.0243305, "is_disabled": 0, "fusion_lat": 0.0, "lat": 38.920538, "bike_id": "f22b45085f19d51e733f5da5afe3ab3d", "fusion_lon": 0.0}, {"rental_uris": {"ios": "https://dc.lft.to/lastmile_qr_scan", "android": "https://dc.lft.to/lastmile_qr_scan"}, "type": "electric_scooter", "name": "82906c65ff2c7e53aae7e6e0a64c58c5", "is_reserved": 0, "lon": -76.99942016666667, "is_disabled": 0, "fusion_lat": 0.0, "lat": 38.89087933333333, "bike_id": "82906c65ff2c7e53aae7e6e0a64c58c5", "fusion_lon": 0.0}, {"rental_uris": {"ios": "https://dc.lft.to/lastmile_qr_scan", "android": "https://dc.lft.to/lastmile_qr_scan"}, "type": "electric_scooter", "name": "f6272851513ad4fa2f07714071d5b791", "is_reserved": 0, "lon": -77.001578, "is_disabled": 0, "fusion_lat": 0.0, "lat": 38.82133316666667, "bike_id": "f6272851513ad4fa2f07714071d5b791", "fusion_lon": 0.0}, {"rental_uris": {"ios": "https://dc.lft.to/lastmile_qr_scan", "android": "https://dc.lft.to/lastmile_qr_scan"}, "type": "electric_scooter", "name": "78aaa660aa0b0633c3231a67bd598d7d", "is_reserved": 0, "lon": -77.017249, "is_disabled": 0, "fusion_lat": 0.0, "lat": 38.89225116666667, "bike_id": "78aaa660aa0b0633c3231a67bd598d7d", "fusion_lon": 0.0}, {"rental_uris": {"ios": "https://dc.lft.to/lastmile_qr_scan", "android": "https://dc.lft.to/lastmile_qr_scan"}, "type": "electric_scooter", "name": "2ded9e6fa874c440bf75f600e684ff97", "is_reserved": 0, "lon": -77.0304265, "is_disabled": 0, "fusion_lat": 0.0, "lat": 38.89827283333333, "bike_id": "2ded9e6fa874c440bf75f600e684ff97", "fusion_lon": 0.0}, {"rental_uris": {"ios": "https://dc.lft.to/lastmile_qr_scan", "android": "https://dc.lft.to/lastmile_qr_scan"}, "type": "electric_scooter", "name": "3ffb37ed0b14a6bd26d35e7de97ddf8c", "is_reserved": 0, "lon": -76.94653316666667, "is_disabled": 0, "fusion_lat": 0.0, "lat": 38.89825183333333, "bike_id": "3ffb37ed0b14a6bd26d35e7de97ddf8c", "fusion_lon": 0.0}, {"rental_uris": {"ios": "https://dc.lft.to/lastmile_qr_scan", "android": "https://dc.lft.to/lastmile_qr_scan"}, "type": "electric_scooter", "name": "32b57c049b4a4f6ede9c47a8dce84a8f", "is_reserved": 0, "lon": -77.022966, "is_disabled": 0, "fusion_lat": 0.0, "lat": 38.920832833333336, "bike_id": "32b57c049b4a4f6ede9c47a8dce84a8f", "fusion_lon": 0.0}, {"rental_uris": {"ios": "https://dc.lft.to/lastmile_qr_scan", "android": "https://dc.lft.to/lastmile_qr_scan"}, "type": "electric_scooter", "name": "38f45893f30556c2fd763e78cdbf7ee8", "is_reserved": 0, "lon": -77.0154295, "is_disabled": 0, "fusion_lat": 0.0, "lat": 38.902753833333335, "bike_id": "38f45893f30556c2fd763e78cdbf7ee8", "fusion_lon": 0.0}, {"rental_uris": {"ios": "https://dc.lft.to/lastmile_qr_scan", "android": "https://dc.lft.to/lastmile_qr_scan"}, "type": "electric_scooter", "name": "0110c9b1f9354e5bc80c713175ee54f2", "is_reserved": 0, "lon": -77.03598, "is_disabled": 0, "fusion_lat": 0.0, "lat": 38.92783883333333, "bike_id": "0110c9b1f9354e5bc80c713175ee54f2", "fusion_lon": 0.0}, {"rental_uris": {"ios": "https://dc.lft.to/lastmile_qr_scan", "android": "https://dc.lft.to/lastmile_qr_scan"}, "type": "electric_scooter", "name": "a647e5dfa28dae17cefec936fa815701", "is_reserved": 0, "lon": -77.03431683333334, "is_disabled": 0, "fusion_lat": 0.0, "lat": 38.917939, "bike_id": "a647e5dfa28dae17cefec936fa815701", "fusion_lon": 0.0}, {"rental_uris": {"ios": "https://dc.lft.to/lastmile_qr_scan", "android": "https://dc.lft.to/lastmile_qr_scan"}, "type": "electric_bike", "name": "d6724122b1db339567ed3b5d5163ab76", "is_reserved": 0, "lon": -77.10726383333333, "is_disabled": 0, "fusion_lat": 0.0, "lat": 38.85535433333333, "bike_id": "d6724122b1db339567ed3b5d5163ab76", "fusion_lon": 0.0}, {"rental_uris": {"ios": "https://dc.lft.to/lastmile_qr_scan", "android": "https://dc.lft.to/lastmile_qr_scan"}, "type": "electric_scooter", "name": "f736fe1ef7c5218c962d084c423b90ba", "is_reserved": 0, "lon": -77.0188085, "is_disabled": 0, "fusion_lat": 0.0, "lat": 38.899441, "bike_id": "f736fe1ef7c5218c962d084c423b90ba", "fusion_lon": 0.0}, {"rental_uris": {"ios": "https://dc.lft.to/lastmile_qr_scan", "android": "https://dc.lft.to/lastmile_qr_scan"}, "type": "electric_scooter", "name": "a8c8348bb78b55b9998c94385aee6c53", "is_reserved": 0, "lon": -77.01725816666666, "is_disabled": 0, "fusion_lat": 0.0, "lat": 38.902489, "bike_id": "a8c8348bb78b55b9998c94385aee6c53", "fusion_lon": 0.0}, {"rental_uris": {"ios": "https://dc.lft.to/lastmile_qr_scan", "android": "https://dc.lft.to/lastmile_qr_scan"}, "type": "electric_scooter", "name": "fba2c503a8c2a7f9f6cd628ed8a3c356", "is_reserved": 0, "lon": -77.01806016666667, "is_disabled": 0, "fusion_lat": 0.0, "lat": 38.92224816666667, "bike_id": "fba2c503a8c2a7f9f6cd628ed8a3c356", "fusion_lon": 0.0}, {"rental_uris": {"ios": "https://dc.lft.to/lastmile_qr_scan", "android": "https://dc.lft.to/lastmile_qr_scan"}, "type": "electric_scooter", "name": "dbf4b3604eae8ce90e0174f6042f7807", "is_reserved": 0, "lon": -77.03447666666666, "is_disabled": 0, "fusion_lat": 0.0, "lat": 38.90840583333333, "bike_id": "dbf4b3604eae8ce90e0174f6042f7807", "fusion_lon": 0.0}, {"rental_uris": {"ios": "https://dc.lft.to/lastmile_qr_scan", "android": "https://dc.lft.to/lastmile_qr_scan"}, "type": "electric_bike", "name": "8f5dd77b5274bf0d7d91b6afce6db2b2", "is_reserved": 0, "lon": -76.98773083333333, "is_disabled": 0, "fusion_lat": 0.0, "lat": 38.857813166666666, "bike_id": "8f5dd77b5274bf0d7d91b6afce6db2b2", "fusion_lon": 0.0}, {"rental_uris": {"ios": "https://dc.lft.to/lastmile_qr_scan", "android": "https://dc.lft.to/lastmile_qr_scan"}, "type": "electric_scooter", "name": "064f7dbad9fbf8f26d858b0b67a87bf8", "is_reserved": 0, "lon": -77.02970016666667, "is_disabled": 0, "fusion_lat": 0.0, "lat": 38.914005833333334, "bike_id": "064f7dbad9fbf8f26d858b0b67a87bf8", "fusion_lon": 0.0}, {"rental_uris": {"ios": "https://dc.lft.to/lastmile_qr_scan", "android": "https://dc.lft.to/lastmile_qr_scan"}, "type": "electric_scooter", "name": "140305604c9c3d7c70972e3c2776965d", "is_reserved": 0, "lon": -77.06297416666666, "is_disabled": 0, "fusion_lat": 0.0, "lat": 38.903944333333335, "bike_id": "140305604c9c3d7c70972e3c2776965d", "fusion_lon": 0.0}, {"rental_uris": {"ios": "https://dc.lft.to/lastmile_qr_scan", "android": "https://dc.lft.to/lastmile_qr_scan"}, "type": "electric_scooter", "name": "3f8ddee2e9f8928ab6cdd7460f85dec5", "is_reserved": 0, "lon": -77.02737816666667, "is_disabled": 0, "fusion_lat": 0.0, "lat": 38.895511166666665, "bike_id": "3f8ddee2e9f8928ab6cdd7460f85dec5", "fusion_lon": 0.0}, {"rental_uris": {"ios": "https://dc.lft.to/lastmile_qr_scan", "android": "https://dc.lft.to/lastmile_qr_scan"}, "type": "electric_scooter", "name": "c22a7d7a57aecb567489de2b297f87d8", "is_reserved": 0, "lon": -77.0295385, "is_disabled": 0, "fusion_lat": 0.0, "lat": 38.905016333333336, "bike_id": "c22a7d7a57aecb567489de2b297f87d8", "fusion_lon": 0.0}, {"rental_uris": {"ios": "https://dc.lft.to/lastmile_qr_scan", "android": "https://dc.lft.to/lastmile_qr_scan"}, "type": "electric_scooter", "name": "19bcea0baaaa60c2e3d61d6bbc01f73d", "is_reserved": 0, "lon": -77.03172866666667, "is_disabled": 0, "fusion_lat": 0.0, "lat": 38.89454, "bike_id": "19bcea0baaaa60c2e3d61d6bbc01f73d", "fusion_lon": 0.0}, {"rental_uris": {"ios": "https://dc.lft.to/lastmile_qr_scan", "android": "https://dc.lft.to/lastmile_qr_scan"}, "type": "electric_scooter", "name": "e9a497ce8832f6db053946dc0cf2ae30", "is_reserved": 0, "lon": -77.04458066666666, "is_disabled": 0, "fusion_lat": 0.0, "lat": 38.92471483333333, "bike_id": "e9a497ce8832f6db053946dc0cf2ae30", "fusion_lon": 0.0}, {"rental_uris": {"ios": "https://dc.lft.to/lastmile_qr_scan", "android": "https://dc.lft.to/lastmile_qr_scan"}, "type": "electric_scooter", "name": "aec6fe3902f3a7c81d6dc913fa33e8ae", "is_reserved": 0, "lon": -77.01096783333334, "is_disabled": 0, "fusion_lat": 0.0, "lat": 38.8953125, "bike_id": "aec6fe3902f3a7c81d6dc913fa33e8ae", "fusion_lon": 0.0}, {"rental_uris": {"ios": "https://dc.lft.to/lastmile_qr_scan", "android": "https://dc.lft.to/lastmile_qr_scan"}, "type": "electric_scooter", "name": "d9eecc2d00ebf4e4d958b1ac2e263636", "is_reserved": 0, "lon": -76.98380766666666, "is_disabled": 0, "fusion_lat": 0.0, "lat": 38.89973066666667, "bike_id": "d9eecc2d00ebf4e4d958b1ac2e263636", "fusion_lon": 0.0}, {"rental_uris": {"ios": "https://dc.lft.to/lastmile_qr_scan", "android": "https://dc.lft.to/lastmile_qr_scan"}, "type": "electric_scooter", "name": "fe9791bf17659e5660a03bf12d10b0c1", "is_reserved": 0, "lon": -77.03865916666666, "is_disabled": 0, "fusion_lat": 0.0, "lat": 38.91710233333333, "bike_id": "fe9791bf17659e5660a03bf12d10b0c1", "fusion_lon": 0.0}, {"rental_uris": {"ios": "https://dc.lft.to/lastmile_qr_scan", "android": "https://dc.lft.to/lastmile_qr_scan"}, "type": "electric_scooter", "name": "60972adfb4f18181f9b9701b9d9666d4", "is_reserved": 0, "lon": -77.01983016666667, "is_disabled": 0, "fusion_lat": 0.0, "lat": 38.88721733333333, "bike_id": "60972adfb4f18181f9b9701b9d9666d4", "fusion_lon": 0.0}, {"rental_uris": {"ios": "https://dc.lft.to/lastmile_qr_scan", "android": "https://dc.lft.to/lastmile_qr_scan"}, "type": "electric_scooter", "name": "82831c079a48392eb3f634c714a92ae0", "is_reserved": 0, "lon": -77.01099083333334, "is_disabled": 0, "fusion_lat": 0.0, "lat": 38.9073285, "bike_id": "82831c079a48392eb3f634c714a92ae0", "fusion_lon": 0.0}, {"rental_uris": {"ios": "https://dc.lft.to/lastmile_qr_scan", "android": "https://dc.lft.to/lastmile_qr_scan"}, "type": "electric_scooter", "name": "c5b994c33ca5cbf470075f8436757ba9", "is_reserved": 0, "lon": -77.03503316666666, "is_disabled": 0, "fusion_lat": 0.0, "lat": 38.918747833333335, "bike_id": "c5b994c33ca5cbf470075f8436757ba9", "fusion_lon": 0.0}, {"rental_uris": {"ios": "https://dc.lft.to/lastmile_qr_scan", "android": "https://dc.lft.to/lastmile_qr_scan"}, "type": "electric_bike", "name": "450cf3f8772b358080b4a78894e2552d", "is_reserved": 0, "lon": -77.01201366666666, "is_disabled": 0, "fusion_lat": 0.0, "lat": 38.95071183333334, "bike_id": "450cf3f8772b358080b4a78894e2552d", "fusion_lon": 0.0}, {"rental_uris": {"ios": "https://dc.lft.to/lastmile_qr_scan", "android": "https://dc.lft.to/lastmile_qr_scan"}, "type": "electric_scooter", "name": "ebeaf7eca3bfb9d1d68ac529e52dd761", "is_reserved": 0, "lon": -77.0505365, "is_disabled": 0, "fusion_lat": 0.0, "lat": 38.903095, "bike_id": "ebeaf7eca3bfb9d1d68ac529e52dd761", "fusion_lon": 0.0}, {"rental_uris": {"ios": "https://dc.lft.to/lastmile_qr_scan", "android": "https://dc.lft.to/lastmile_qr_scan"}, "type": "electric_scooter", "name": "ed88ba3784be6bc32e8a52bf108d893c", "is_reserved": 0, "lon": -77.0271845, "is_disabled": 0, "fusion_lat": 0.0, "lat": 38.909538166666664, "bike_id": "ed88ba3784be6bc32e8a52bf108d893c", "fusion_lon": 0.0}, {"rental_uris": {"ios": "https://dc.lft.to/lastmile_qr_scan", "android": "https://dc.lft.to/lastmile_qr_scan"}, "type": "electric_scooter", "name": "1206c8a2930acdd4ad4734de211b75ee", "is_reserved": 0, "lon": -77.0241645, "is_disabled": 0, "fusion_lat": 0.0, "lat": 38.917666, "bike_id": "1206c8a2930acdd4ad4734de211b75ee", "fusion_lon": 0.0}, {"rental_uris": {"ios": "https://dc.lft.to/lastmile_qr_scan", "android": "https://dc.lft.to/lastmile_qr_scan"}, "type": "electric_scooter", "name": "83d6740a8e3d9f73eacda0d709742759", "is_reserved": 0, "lon": -76.9914745, "is_disabled": 0, "fusion_lat": 0.0, "lat": 38.873410666666665, "bike_id": "83d6740a8e3d9f73eacda0d709742759", "fusion_lon": 0.0}, {"rental_uris": {"ios": "https://dc.lft.to/lastmile_qr_scan", "android": "https://dc.lft.to/lastmile_qr_scan"}, "type": "electric_scooter", "name": "d4b522aca805fc38b3599b08998961a5", "is_reserved": 0, "lon": -77.04232716666667, "is_disabled": 0, "fusion_lat": 0.0, "lat": 38.9218785, "bike_id": "d4b522aca805fc38b3599b08998961a5", "fusion_lon": 0.0}, {"rental_uris": {"ios": "https://dc.lft.to/lastmile_qr_scan", "android": "https://dc.lft.to/lastmile_qr_scan"}, "type": "electric_scooter", "name": "62f1c55193ca1952e2e9b0ab3c1f0b8a", "is_reserved": 0, "lon": -77.040058, "is_disabled": 0, "fusion_lat": 0.0, "lat": 38.9343085, "bike_id": "62f1c55193ca1952e2e9b0ab3c1f0b8a", "fusion_lon": 0.0}, {"rental_uris": {"ios": "https://dc.lft.to/lastmile_qr_scan", "android": "https://dc.lft.to/lastmile_qr_scan"}, "type": "electric_bike", "name": "84e7b3a9da769317cfbdfd36aaab6fbe", "is_reserved": 0, "lon": -76.9688755, "is_disabled": 0, "fusion_lat": 0.0, "lat": 38.86986483333333, "bike_id": "84e7b3a9da769317cfbdfd36aaab6fbe", "fusion_lon": 0.0}, {"rental_uris": {"ios": "https://dc.lft.to/lastmile_qr_scan", "android": "https://dc.lft.to/lastmile_qr_scan"}, "type": "electric_scooter", "name": "0c9fe4592cb9aebd6d827340345e76ba", "is_reserved": 0, "lon": -76.99628633333333, "is_disabled": 0, "fusion_lat": 0.0, "lat": 38.877342166666665, "bike_id": "0c9fe4592cb9aebd6d827340345e76ba", "fusion_lon": 0.0}, {"rental_uris": {"ios": "https://dc.lft.to/lastmile_qr_scan", "android": "https://dc.lft.to/lastmile_qr_scan"}, "type": "electric_scooter", "name": "c0a3dd71697a28255de9f0411a2b7ccb", "is_reserved": 0, "lon": -77.0410245, "is_disabled": 0, "fusion_lat": 0.0, "lat": 38.899734333333335, "bike_id": "c0a3dd71697a28255de9f0411a2b7ccb", "fusion_lon": 0.0}, {"rental_uris": {"ios": "https://dc.lft.to/lastmile_qr_scan", "android": "https://dc.lft.to/lastmile_qr_scan"}, "type": "electric_scooter", "name": "7d9db861898d70832e74da1aa2ace214", "is_reserved": 0, "lon": -77.00929616666667, "is_disabled": 0, "fusion_lat": 0.0, "lat": 38.874536666666664, "bike_id": "7d9db861898d70832e74da1aa2ace214", "fusion_lon": 0.0}, {"rental_uris": {"ios": "https://dc.lft.to/lastmile_qr_scan", "android": "https://dc.lft.to/lastmile_qr_scan"}, "type": "electric_scooter", "name": "5d6da39f34269e701de72da19e54549e", "is_reserved": 0, "lon": -77.02655683333333, "is_disabled": 0, "fusion_lat": 0.0, "lat": 38.92390283333334, "bike_id": "5d6da39f34269e701de72da19e54549e", "fusion_lon": 0.0}, {"rental_uris": {"ios": "https://dc.lft.to/lastmile_qr_scan", "android": "https://dc.lft.to/lastmile_qr_scan"}, "type": "electric_scooter", "name": "6662b30b640257d4cbdb4438fd53b7f1", "is_reserved": 0, "lon": -77.0089505, "is_disabled": 0, "fusion_lat": 0.0, "lat": 38.90575333333334, "bike_id": "6662b30b640257d4cbdb4438fd53b7f1", "fusion_lon": 0.0}, {"rental_uris": {"ios": "https://dc.lft.to/lastmile_qr_scan", "android": "https://dc.lft.to/lastmile_qr_scan"}, "type": "electric_bike", "name": "7a7de690b840e4c2674cac9ba1436001", "is_reserved": 0, "lon": -77.12887466666666, "is_disabled": 0, "fusion_lat": 0.0, "lat": 38.906117, "bike_id": "7a7de690b840e4c2674cac9ba1436001", "fusion_lon": 0.0}, {"rental_uris": {"ios": "https://dc.lft.to/lastmile_qr_scan", "android": "https://dc.lft.to/lastmile_qr_scan"}, "type": "electric_scooter", "name": "6f58a9b1ec6c14e5bf69a03464d00d05", "is_reserved": 0, "lon": -77.027007, "is_disabled": 0, "fusion_lat": 0.0, "lat": 38.9052085, "bike_id": "6f58a9b1ec6c14e5bf69a03464d00d05", "fusion_lon": 0.0}, {"rental_uris": {"ios": "https://dc.lft.to/lastmile_qr_scan", "android": "https://dc.lft.to/lastmile_qr_scan"}, "type": "electric_scooter", "name": "2fa622bfce8a50a9f6162198a50c22ed", "is_reserved": 0, "lon": -77.02167033333333, "is_disabled": 0, "fusion_lat": 0.0, "lat": 38.92485583333333, "bike_id": "2fa622bfce8a50a9f6162198a50c22ed", "fusion_lon": 0.0}, {"rental_uris": {"ios": "https://dc.lft.to/lastmile_qr_scan", "android": "https://dc.lft.to/lastmile_qr_scan"}, "type": "electric_scooter", "name": "d9d52f86eafd01c1d88d3ba0c1f09c02", "is_reserved": 0, "lon": -76.9809535, "is_disabled": 0, "fusion_lat": 0.0, "lat": 38.904165666666664, "bike_id": "d9d52f86eafd01c1d88d3ba0c1f09c02", "fusion_lon": 0.0}, {"rental_uris": {"ios": "https://dc.lft.to/lastmile_qr_scan", "android": "https://dc.lft.to/lastmile_qr_scan"}, "type": "electric_scooter", "name": "97646d6cfcc33665d6816a1ad63a2c3e", "is_reserved": 0, "lon": -77.0652905, "is_disabled": 0, "fusion_lat": 0.0, "lat": 38.905299666666664, "bike_id": "97646d6cfcc33665d6816a1ad63a2c3e", "fusion_lon": 0.0}, {"rental_uris": {"ios": "https://dc.lft.to/lastmile_qr_scan", "android": "https://dc.lft.to/lastmile_qr_scan"}, "type": "electric_scooter", "name": "019739eb2b7c212c7b081470c1c54299", "is_reserved": 0, "lon": -77.0389325, "is_disabled": 0, "fusion_lat": 0.0, "lat": 38.9221885, "bike_id": "019739eb2b7c212c7b081470c1c54299", "fusion_lon": 0.0}, {"rental_uris": {"ios": "https://dc.lft.to/lastmile_qr_scan", "android": "https://dc.lft.to/lastmile_qr_scan"}, "type": "electric_scooter", "name": "c04327a51149f61a390bf6fb413448dc", "is_reserved": 0, "lon": -77.0237255, "is_disabled": 0, "fusion_lat": 0.0, "lat": 38.90974966666667, "bike_id": "c04327a51149f61a390bf6fb413448dc", "fusion_lon": 0.0}, {"rental_uris": {"ios": "https://dc.lft.to/lastmile_qr_scan", "android": "https://dc.lft.to/lastmile_qr_scan"}, "type": "electric_scooter", "name": "26fa58a0c9b398093f546c20ab849754", "is_reserved": 0, "lon": -77.00838566666667, "is_disabled": 0, "fusion_lat": 0.0, "lat": 38.87898533333333, "bike_id": "26fa58a0c9b398093f546c20ab849754", "fusion_lon": 0.0}, {"rental_uris": {"ios": "https://dc.lft.to/lastmile_qr_scan", "android": "https://dc.lft.to/lastmile_qr_scan"}, "type": "electric_scooter", "name": "854d0e7f4318e969fc5fb050897005ac", "is_reserved": 0, "lon": -77.03962983333334, "is_disabled": 0, "fusion_lat": 0.0, "lat": 38.931517166666666, "bike_id": "854d0e7f4318e969fc5fb050897005ac", "fusion_lon": 0.0}, {"rental_uris": {"ios": "https://dc.lft.to/lastmile_qr_scan", "android": "https://dc.lft.to/lastmile_qr_scan"}, "type": "electric_scooter", "name": "b70c24986f603e6f81cdee7e049d291a", "is_reserved": 0, "lon": -77.03483066666666, "is_disabled": 0, "fusion_lat": 0.0, "lat": 38.930290166666666, "bike_id": "b70c24986f603e6f81cdee7e049d291a", "fusion_lon": 0.0}, {"rental_uris": {"ios": "https://dc.lft.to/lastmile_qr_scan", "android": "https://dc.lft.to/lastmile_qr_scan"}, "type": "electric_scooter", "name": "6c76f65d373e927e876e4d72fe3dfb76", "is_reserved": 0, "lon": -77.0504705, "is_disabled": 0, "fusion_lat": 0.0, "lat": 38.92360766666667, "bike_id": "6c76f65d373e927e876e4d72fe3dfb76", "fusion_lon": 0.0}, {"rental_uris": {"ios": "https://dc.lft.to/lastmile_qr_scan", "android": "https://dc.lft.to/lastmile_qr_scan"}, "type": "electric_scooter", "name": "89c29055257149418b2c36ce288fd0ba", "is_reserved": 0, "lon": -77.0685805, "is_disabled": 0, "fusion_lat": 0.0, "lat": 38.95299766666667, "bike_id": "89c29055257149418b2c36ce288fd0ba", "fusion_lon": 0.0}, {"rental_uris": {"ios": "https://dc.lft.to/lastmile_qr_scan", "android": "https://dc.lft.to/lastmile_qr_scan"}, "type": "electric_scooter", "name": "dbb41f1d428559b58d1ce66f9b7d340a", "is_reserved": 0, "lon": -77.02599833333333, "is_disabled": 0, "fusion_lat": 0.0, "lat": 38.91842283333333, "bike_id": "dbb41f1d428559b58d1ce66f9b7d340a", "fusion_lon": 0.0}, {"rental_uris": {"ios": "https://dc.lft.to/lastmile_qr_scan", "android": "https://dc.lft.to/lastmile_qr_scan"}, "type": "electric_scooter", "name": "9c6d64b08e0fbe92cce0b5072663392b", "is_reserved": 0, "lon": -77.0475325, "is_disabled": 0, "fusion_lat": 0.0, "lat": 38.895921666666666, "bike_id": "9c6d64b08e0fbe92cce0b5072663392b", "fusion_lon": 0.0}, {"rental_uris": {"ios": "https://dc.lft.to/lastmile_qr_scan", "android": "https://dc.lft.to/lastmile_qr_scan"}, "type": "electric_scooter", "name": "584f978e459853e8f68d907266e5049c", "is_reserved": 0, "lon": -77.06611533333333, "is_disabled": 0, "fusion_lat": 0.0, "lat": 38.911123, "bike_id": "584f978e459853e8f68d907266e5049c", "fusion_lon": 0.0}, {"rental_uris": {"ios": "https://dc.lft.to/lastmile_qr_scan", "android": "https://dc.lft.to/lastmile_qr_scan"}, "type": "electric_bike", "name": "9797788b9fe0a8f0d9360076f758305e", "is_reserved": 0, "lon": -76.997301, "is_disabled": 0, "fusion_lat": 0.0, "lat": 38.998454833333334, "bike_id": "9797788b9fe0a8f0d9360076f758305e", "fusion_lon": 0.0}, {"rental_uris": {"ios": "https://dc.lft.to/lastmile_qr_scan", "android": "https://dc.lft.to/lastmile_qr_scan"}, "type": "electric_scooter", "name": "406b590b4836dacfd41a77455bb7213d", "is_reserved": 0, "lon": -77.03657766666667, "is_disabled": 0, "fusion_lat": 0.0, "lat": 38.920964166666664, "bike_id": "406b590b4836dacfd41a77455bb7213d", "fusion_lon": 0.0}, {"rental_uris": {"ios": "https://dc.lft.to/lastmile_qr_scan", "android": "https://dc.lft.to/lastmile_qr_scan"}, "type": "electric_scooter", "name": "397f3facc3db6f4096f6e425f71950a7", "is_reserved": 0, "lon": -77.0271055, "is_disabled": 0, "fusion_lat": 0.0, "lat": 38.918235833333334, "bike_id": "397f3facc3db6f4096f6e425f71950a7", "fusion_lon": 0.0}, {"rental_uris": {"ios": "https://dc.lft.to/lastmile_qr_scan", "android": "https://dc.lft.to/lastmile_qr_scan"}, "type": "electric_scooter", "name": "2c64beb743562fd77807ce56da3854bb", "is_reserved": 0, "lon": -77.03277816666667, "is_disabled": 0, "fusion_lat": 0.0, "lat": 38.904487333333336, "bike_id": "2c64beb743562fd77807ce56da3854bb", "fusion_lon": 0.0}, {"rental_uris": {"ios": "https://dc.lft.to/lastmile_qr_scan", "android": "https://dc.lft.to/lastmile_qr_scan"}, "type": "electric_scooter", "name": "4622eabf3d79a27101f4b93ea7b65169", "is_reserved": 0, "lon": -77.041709, "is_disabled": 0, "fusion_lat": 0.0, "lat": 38.91588433333333, "bike_id": "4622eabf3d79a27101f4b93ea7b65169", "fusion_lon": 0.0}, {"rental_uris": {"ios": "https://dc.lft.to/lastmile_qr_scan", "android": "https://dc.lft.to/lastmile_qr_scan"}, "type": "electric_scooter", "name": "9171917cf0f171eff98aa670e67064e6", "is_reserved": 0, "lon": -77.02001616666666, "is_disabled": 0, "fusion_lat": 0.0, "lat": 38.914905, "bike_id": "9171917cf0f171eff98aa670e67064e6", "fusion_lon": 0.0}, {"rental_uris": {"ios": "https://dc.lft.to/lastmile_qr_scan", "android": "https://dc.lft.to/lastmile_qr_scan"}, "type": "electric_scooter", "name": "10f4a5a6c0f28261ecc2a85e5d2a8596", "is_reserved": 0, "lon": -77.05930633333334, "is_disabled": 0, "fusion_lat": 0.0, "lat": 38.93667766666667, "bike_id": "10f4a5a6c0f28261ecc2a85e5d2a8596", "fusion_lon": 0.0}, {"rental_uris": {"ios": "https://dc.lft.to/lastmile_qr_scan", "android": "https://dc.lft.to/lastmile_qr_scan"}, "type": "electric_scooter", "name": "eba5ece4fa4d0ecf49ad5ca74a2cefda", "is_reserved": 0, "lon": -77.0443065, "is_disabled": 0, "fusion_lat": 0.0, "lat": 38.91261216666667, "bike_id": "eba5ece4fa4d0ecf49ad5ca74a2cefda", "fusion_lon": 0.0}, {"rental_uris": {"ios": "https://dc.lft.to/lastmile_qr_scan", "android": "https://dc.lft.to/lastmile_qr_scan"}, "type": "electric_scooter", "name": "cd4e74a469b4e214ad3f19f39114cb3c", "is_reserved": 0, "lon": -77.02930483333333, "is_disabled": 0, "fusion_lat": 0.0, "lat": 38.89757866666667, "bike_id": "cd4e74a469b4e214ad3f19f39114cb3c", "fusion_lon": 0.0}, {"rental_uris": {"ios": "https://dc.lft.to/lastmile_qr_scan", "android": "https://dc.lft.to/lastmile_qr_scan"}, "type": "electric_scooter", "name": "624e6c3db556a4dfac200e68d3dcea21", "is_reserved": 0, "lon": -77.03450616666667, "is_disabled": 0, "fusion_lat": 0.0, "lat": 38.91395383333333, "bike_id": "624e6c3db556a4dfac200e68d3dcea21", "fusion_lon": 0.0}, {"rental_uris": {"ios": "https://dc.lft.to/lastmile_qr_scan", "android": "https://dc.lft.to/lastmile_qr_scan"}, "type": "electric_scooter", "name": "c03313af61fd6a6d87e20daf7d07c581", "is_reserved": 0, "lon": -77.00099366666667, "is_disabled": 0, "fusion_lat": 0.0, "lat": 38.90019733333333, "bike_id": "c03313af61fd6a6d87e20daf7d07c581", "fusion_lon": 0.0}, {"rental_uris": {"ios": "https://dc.lft.to/lastmile_qr_scan", "android": "https://dc.lft.to/lastmile_qr_scan"}, "type": "electric_scooter", "name": "5e1b0f6dd72d35c48c0313b982a11c02", "is_reserved": 0, "lon": -77.022144, "is_disabled": 0, "fusion_lat": 0.0, "lat": 38.89570666666667, "bike_id": "5e1b0f6dd72d35c48c0313b982a11c02", "fusion_lon": 0.0}, {"rental_uris": {"ios": "https://dc.lft.to/lastmile_qr_scan", "android": "https://dc.lft.to/lastmile_qr_scan"}, "type": "electric_scooter", "name": "23493692b34feb92300892563dce531b", "is_reserved": 0, "lon": -76.98280016666666, "is_disabled": 0, "fusion_lat": 0.0, "lat": 38.90350566666667, "bike_id": "23493692b34feb92300892563dce531b", "fusion_lon": 0.0}, {"rental_uris": {"ios": "https://dc.lft.to/lastmile_qr_scan", "android": "https://dc.lft.to/lastmile_qr_scan"}, "type": "electric_scooter", "name": "38cac25d5ed29200853349b953d1522c", "is_reserved": 0, "lon": -77.00724633333333, "is_disabled": 0, "fusion_lat": 0.0, "lat": 38.9119965, "bike_id": "38cac25d5ed29200853349b953d1522c", "fusion_lon": 0.0}, {"rental_uris": {"ios": "https://dc.lft.to/lastmile_qr_scan", "android": "https://dc.lft.to/lastmile_qr_scan"}, "type": "electric_scooter", "name": "bffe53f38829484f83be697f0555e1c9", "is_reserved": 0, "lon": -76.95742633333333, "is_disabled": 0, "fusion_lat": 0.0, "lat": 38.883907666666666, "bike_id": "bffe53f38829484f83be697f0555e1c9", "fusion_lon": 0.0}, {"rental_uris": {"ios": "https://dc.lft.to/lastmile_qr_scan", "android": "https://dc.lft.to/lastmile_qr_scan"}, "type": "electric_scooter", "name": "67b906c6fe71b4fc4c735f48b6449f4a", "is_reserved": 0, "lon": -77.04224916666666, "is_disabled": 0, "fusion_lat": 0.0, "lat": 38.922928666666664, "bike_id": "67b906c6fe71b4fc4c735f48b6449f4a", "fusion_lon": 0.0}, {"rental_uris": {"ios": "https://dc.lft.to/lastmile_qr_scan", "android": "https://dc.lft.to/lastmile_qr_scan"}, "type": "electric_scooter", "name": "eada69454c87814d4ba9800e17231234", "is_reserved": 0, "lon": -76.98375833333333, "is_disabled": 0, "fusion_lat": 0.0, "lat": 38.89266683333334, "bike_id": "eada69454c87814d4ba9800e17231234", "fusion_lon": 0.0}, {"rental_uris": {"ios": "https://dc.lft.to/lastmile_qr_scan", "android": "https://dc.lft.to/lastmile_qr_scan"}, "type": "electric_scooter", "name": "bd35ae9ae805ed2389040eac1accf795", "is_reserved": 0, "lon": -77.03180083333334, "is_disabled": 0, "fusion_lat": 0.0, "lat": 38.909481, "bike_id": "bd35ae9ae805ed2389040eac1accf795", "fusion_lon": 0.0}, {"rental_uris": {"ios": "https://dc.lft.to/lastmile_qr_scan", "android": "https://dc.lft.to/lastmile_qr_scan"}, "type": "electric_scooter", "name": "a58ed73d0c97da32e43a385a7dfe431c", "is_reserved": 0, "lon": -77.04241433333334, "is_disabled": 0, "fusion_lat": 0.0, "lat": 38.90343716666667, "bike_id": "a58ed73d0c97da32e43a385a7dfe431c", "fusion_lon": 0.0}, {"rental_uris": {"ios": "https://dc.lft.to/lastmile_qr_scan", "android": "https://dc.lft.to/lastmile_qr_scan"}, "type": "electric_scooter", "name": "39f103fdbd1196bf2259d63008a9fea1", "is_reserved": 0, "lon": -77.033808, "is_disabled": 0, "fusion_lat": 0.0, "lat": 38.924758833333335, "bike_id": "39f103fdbd1196bf2259d63008a9fea1", "fusion_lon": 0.0}, {"rental_uris": {"ios": "https://dc.lft.to/lastmile_qr_scan", "android": "https://dc.lft.to/lastmile_qr_scan"}, "type": "electric_bike", "name": "e10e9ff6d8d53abd7a7d9c9a628c7884", "is_reserved": 0, "lon": -77.07753316666667, "is_disabled": 0, "fusion_lat": 0.0, "lat": 38.841925, "bike_id": "e10e9ff6d8d53abd7a7d9c9a628c7884", "fusion_lon": 0.0}, {"rental_uris": {"ios": "https://dc.lft.to/lastmile_qr_scan", "android": "https://dc.lft.to/lastmile_qr_scan"}, "type": "electric_scooter", "name": "a7a7780d917583731a8f6ade5972549b", "is_reserved": 0, "lon": -77.0297165, "is_disabled": 0, "fusion_lat": 0.0, "lat": 38.9244455, "bike_id": "a7a7780d917583731a8f6ade5972549b", "fusion_lon": 0.0}, {"rental_uris": {"ios": "https://dc.lft.to/lastmile_qr_scan", "android": "https://dc.lft.to/lastmile_qr_scan"}, "type": "electric_scooter", "name": "00372c714c488e14b80919e055212f0a", "is_reserved": 0, "lon": -77.02664566666667, "is_disabled": 0, "fusion_lat": 0.0, "lat": 38.921809, "bike_id": "00372c714c488e14b80919e055212f0a", "fusion_lon": 0.0}, {"rental_uris": {"ios": "https://dc.lft.to/lastmile_qr_scan", "android": "https://dc.lft.to/lastmile_qr_scan"}, "type": "electric_scooter", "name": "125c00add7a1714c6c1add92a4deccd4", "is_reserved": 0, "lon": -77.028073, "is_disabled": 0, "fusion_lat": 0.0, "lat": 38.917576833333335, "bike_id": "125c00add7a1714c6c1add92a4deccd4", "fusion_lon": 0.0}, {"rental_uris": {"ios": "https://dc.lft.to/lastmile_qr_scan", "android": "https://dc.lft.to/lastmile_qr_scan"}, "type": "electric_scooter", "name": "7781cf9f3ea96459642bfb02436b5b9f", "is_reserved": 0, "lon": -77.0293705, "is_disabled": 0, "fusion_lat": 0.0, "lat": 38.907265833333334, "bike_id": "7781cf9f3ea96459642bfb02436b5b9f", "fusion_lon": 0.0}, {"rental_uris": {"ios": "https://dc.lft.to/lastmile_qr_scan", "android": "https://dc.lft.to/lastmile_qr_scan"}, "type": "electric_scooter", "name": "d68b32e5279830ea997fece0db9cfea9", "is_reserved": 0, "lon": -77.018073, "is_disabled": 0, "fusion_lat": 0.0, "lat": 38.92030316666666, "bike_id": "d68b32e5279830ea997fece0db9cfea9", "fusion_lon": 0.0}, {"rental_uris": {"ios": "https://dc.lft.to/lastmile_qr_scan", "android": "https://dc.lft.to/lastmile_qr_scan"}, "type": "electric_scooter", "name": "be13169ba65447c714869ee76dde29c9", "is_reserved": 0, "lon": -77.07307433333334, "is_disabled": 0, "fusion_lat": 0.0, "lat": 38.92199016666667, "bike_id": "be13169ba65447c714869ee76dde29c9", "fusion_lon": 0.0}, {"rental_uris": {"ios": "https://dc.lft.to/lastmile_qr_scan", "android": "https://dc.lft.to/lastmile_qr_scan"}, "type": "electric_scooter", "name": "1313fcff8b9c48dc3344f11478086e6a", "is_reserved": 0, "lon": -77.01901166666667, "is_disabled": 0, "fusion_lat": 0.0, "lat": 38.932782, "bike_id": "1313fcff8b9c48dc3344f11478086e6a", "fusion_lon": 0.0}, {"rental_uris": {"ios": "https://dc.lft.to/lastmile_qr_scan", "android": "https://dc.lft.to/lastmile_qr_scan"}, "type": "electric_scooter", "name": "84ca92439c1893ae5fd122cbb6e0cf77", "is_reserved": 0, "lon": -77.02073483333334, "is_disabled": 0, "fusion_lat": 0.0, "lat": 38.93026233333333, "bike_id": "84ca92439c1893ae5fd122cbb6e0cf77", "fusion_lon": 0.0}, {"rental_uris": {"ios": "https://dc.lft.to/lastmile_qr_scan", "android": "https://dc.lft.to/lastmile_qr_scan"}, "type": "electric_scooter", "name": "b1c7b965f58fd61f18c15daf9b91c65b", "is_reserved": 0, "lon": -77.036436, "is_disabled": 0, "fusion_lat": 0.0, "lat": 38.917353166666665, "bike_id": "b1c7b965f58fd61f18c15daf9b91c65b", "fusion_lon": 0.0}, {"rental_uris": {"ios": "https://dc.lft.to/lastmile_qr_scan", "android": "https://dc.lft.to/lastmile_qr_scan"}, "type": "electric_scooter", "name": "11f4d26c285e7373af2fc6a4b6ab0a89", "is_reserved": 0, "lon": -77.02817383333333, "is_disabled": 0, "fusion_lat": 0.0, "lat": 38.89947266666667, "bike_id": "11f4d26c285e7373af2fc6a4b6ab0a89", "fusion_lon": 0.0}, {"rental_uris": {"ios": "https://dc.lft.to/lastmile_qr_scan", "android": "https://dc.lft.to/lastmile_qr_scan"}, "type": "electric_scooter", "name": "3af664727ea7f25716c53e7fb3d94428", "is_reserved": 0, "lon": -77.01838633333334, "is_disabled": 0, "fusion_lat": 0.0, "lat": 38.915035, "bike_id": "3af664727ea7f25716c53e7fb3d94428", "fusion_lon": 0.0}, {"rental_uris": {"ios": "https://dc.lft.to/lastmile_qr_scan", "android": "https://dc.lft.to/lastmile_qr_scan"}, "type": "electric_scooter", "name": "63403ee215cb097f40af6cd74ecc0e87", "is_reserved": 0, "lon": -77.03730616666667, "is_disabled": 0, "fusion_lat": 0.0, "lat": 38.920399833333335, "bike_id": "63403ee215cb097f40af6cd74ecc0e87", "fusion_lon": 0.0}, {"rental_uris": {"ios": "https://dc.lft.to/lastmile_qr_scan", "android": "https://dc.lft.to/lastmile_qr_scan"}, "type": "electric_scooter", "name": "0eadf4359c27f3cfec021415b22dd3b0", "is_reserved": 0, "lon": -77.03259683333333, "is_disabled": 0, "fusion_lat": 0.0, "lat": 38.921656666666664, "bike_id": "0eadf4359c27f3cfec021415b22dd3b0", "fusion_lon": 0.0}, {"rental_uris": {"ios": "https://dc.lft.to/lastmile_qr_scan", "android": "https://dc.lft.to/lastmile_qr_scan"}, "type": "electric_bike", "name": "0406f34505161ced990cf94e19a1c4c9", "is_reserved": 0, "lon": -77.00377483333334, "is_disabled": 0, "fusion_lat": 0.0, "lat": 38.836058333333334, "bike_id": "0406f34505161ced990cf94e19a1c4c9", "fusion_lon": 0.0}, {"rental_uris": {"ios": "https://dc.lft.to/lastmile_qr_scan", "android": "https://dc.lft.to/lastmile_qr_scan"}, "type": "electric_scooter", "name": "33a94d714a364db864f4c8dc35e1a235", "is_reserved": 0, "lon": -77.0389195, "is_disabled": 0, "fusion_lat": 0.0, "lat": 38.918503666666666, "bike_id": "33a94d714a364db864f4c8dc35e1a235", "fusion_lon": 0.0}, {"rental_uris": {"ios": "https://dc.lft.to/lastmile_qr_scan", "android": "https://dc.lft.to/lastmile_qr_scan"}, "type": "electric_scooter", "name": "5d362ae07fe85ab3e80cda624d571f9d", "is_reserved": 0, "lon": -76.99032, "is_disabled": 0, "fusion_lat": 0.0, "lat": 38.888714, "bike_id": "5d362ae07fe85ab3e80cda624d571f9d", "fusion_lon": 0.0}, {"rental_uris": {"ios": "https://dc.lft.to/lastmile_qr_scan", "android": "https://dc.lft.to/lastmile_qr_scan"}, "type": "electric_bike", "name": "a192410ef1b50e9f76da7242a4fae4f1", "is_reserved": 0, "lon": -76.96325816666666, "is_disabled": 0, "fusion_lat": 0.0, "lat": 38.9389545, "bike_id": "a192410ef1b50e9f76da7242a4fae4f1", "fusion_lon": 0.0}, {"rental_uris": {"ios": "https://dc.lft.to/lastmile_qr_scan", "android": "https://dc.lft.to/lastmile_qr_scan"}, "type": "electric_scooter", "name": "4209c6cdef35dbda5fefcedc8def0661", "is_reserved": 0, "lon": -76.99347066666667, "is_disabled": 0, "fusion_lat": 0.0, "lat": 38.90014683333333, "bike_id": "4209c6cdef35dbda5fefcedc8def0661", "fusion_lon": 0.0}, {"rental_uris": {"ios": "https://dc.lft.to/lastmile_qr_scan", "android": "https://dc.lft.to/lastmile_qr_scan"}, "type": "electric_scooter", "name": "5e9ca82d5a7e6761078994639bbd74ae", "is_reserved": 0, "lon": -77.00212733333333, "is_disabled": 0, "fusion_lat": 0.0, "lat": 38.907645, "bike_id": "5e9ca82d5a7e6761078994639bbd74ae", "fusion_lon": 0.0}, {"rental_uris": {"ios": "https://dc.lft.to/lastmile_qr_scan", "android": "https://dc.lft.to/lastmile_qr_scan"}, "type": "electric_scooter", "name": "8eed0aaa1c1e3810afd817c4955f0e25", "is_reserved": 0, "lon": -77.03442266666667, "is_disabled": 0, "fusion_lat": 0.0, "lat": 38.917907666666665, "bike_id": "8eed0aaa1c1e3810afd817c4955f0e25", "fusion_lon": 0.0}, {"rental_uris": {"ios": "https://dc.lft.to/lastmile_qr_scan", "android": "https://dc.lft.to/lastmile_qr_scan"}, "type": "electric_scooter", "name": "4ffcf0ce289f9d61f71c5f1e875b463a", "is_reserved": 0, "lon": -76.995586, "is_disabled": 0, "fusion_lat": 0.0, "lat": 38.90368333333333, "bike_id": "4ffcf0ce289f9d61f71c5f1e875b463a", "fusion_lon": 0.0}, {"rental_uris": {"ios": "https://dc.lft.to/lastmile_qr_scan", "android": "https://dc.lft.to/lastmile_qr_scan"}, "type": "electric_scooter", "name": "46395f9e339d17c9e11d3680a25e2e3d", "is_reserved": 0, "lon": -77.0141175, "is_disabled": 0, "fusion_lat": 0.0, "lat": 38.87587033333333, "bike_id": "46395f9e339d17c9e11d3680a25e2e3d", "fusion_lon": 0.0}, {"rental_uris": {"ios": "https://dc.lft.to/lastmile_qr_scan", "android": "https://dc.lft.to/lastmile_qr_scan"}, "type": "electric_scooter", "name": "3b455d59313650de1aacf4cdb58c6bf3", "is_reserved": 0, "lon": -77.04382133333333, "is_disabled": 0, "fusion_lat": 0.0, "lat": 38.920661833333334, "bike_id": "3b455d59313650de1aacf4cdb58c6bf3", "fusion_lon": 0.0}, {"rental_uris": {"ios": "https://dc.lft.to/lastmile_qr_scan", "android": "https://dc.lft.to/lastmile_qr_scan"}, "type": "electric_scooter", "name": "b635884206ec389955dc017437022c65", "is_reserved": 0, "lon": -77.0199935, "is_disabled": 0, "fusion_lat": 0.0, "lat": 38.905014, "bike_id": "b635884206ec389955dc017437022c65", "fusion_lon": 0.0}, {"rental_uris": {"ios": "https://dc.lft.to/lastmile_qr_scan", "android": "https://dc.lft.to/lastmile_qr_scan"}, "type": "electric_scooter", "name": "0c6fff9267a9d213cc6f5365acdcfa3e", "is_reserved": 0, "lon": -77.06482783333334, "is_disabled": 0, "fusion_lat": 0.0, "lat": 38.9270285, "bike_id": "0c6fff9267a9d213cc6f5365acdcfa3e", "fusion_lon": 0.0}, {"rental_uris": {"ios": "https://dc.lft.to/lastmile_qr_scan", "android": "https://dc.lft.to/lastmile_qr_scan"}, "type": "electric_bike", "name": "026237d6f9b4742d5025386bd6ccce12", "is_reserved": 0, "lon": -76.98095266666667, "is_disabled": 0, "fusion_lat": 0.0, "lat": 38.953571, "bike_id": "026237d6f9b4742d5025386bd6ccce12", "fusion_lon": 0.0}, {"rental_uris": {"ios": "https://dc.lft.to/lastmile_qr_scan", "android": "https://dc.lft.to/lastmile_qr_scan"}, "type": "electric_scooter", "name": "258e3c9f3e5c66b2de7a09a05a0f6577", "is_reserved": 0, "lon": -77.00252766666667, "is_disabled": 0, "fusion_lat": 0.0, "lat": 38.89481716666667, "bike_id": "258e3c9f3e5c66b2de7a09a05a0f6577", "fusion_lon": 0.0}, {"rental_uris": {"ios": "https://dc.lft.to/lastmile_qr_scan", "android": "https://dc.lft.to/lastmile_qr_scan"}, "type": "electric_scooter", "name": "3568821274cde3de5eaac7e1230e6307", "is_reserved": 0, "lon": -76.99161433333333, "is_disabled": 0, "fusion_lat": 0.0, "lat": 38.888119333333336, "bike_id": "3568821274cde3de5eaac7e1230e6307", "fusion_lon": 0.0}, {"rental_uris": {"ios": "https://dc.lft.to/lastmile_qr_scan", "android": "https://dc.lft.to/lastmile_qr_scan"}, "type": "electric_scooter", "name": "b3be82f3aea36e464e15bf89db6fd133", "is_reserved": 0, "lon": -77.0004955, "is_disabled": 0, "fusion_lat": 0.0, "lat": 38.874205833333335, "bike_id": "b3be82f3aea36e464e15bf89db6fd133", "fusion_lon": 0.0}, {"rental_uris": {"ios": "https://dc.lft.to/lastmile_qr_scan", "android": "https://dc.lft.to/lastmile_qr_scan"}, "type": "electric_scooter", "name": "5c8691f4d1916de66041fec566a528f1", "is_reserved": 0, "lon": -76.99382483333333, "is_disabled": 0, "fusion_lat": 0.0, "lat": 38.89339366666667, "bike_id": "5c8691f4d1916de66041fec566a528f1", "fusion_lon": 0.0}, {"rental_uris": {"ios": "https://dc.lft.to/lastmile_qr_scan", "android": "https://dc.lft.to/lastmile_qr_scan"}, "type": "electric_scooter", "name": "7db47042dc118b41fd27e0f044eeb9f4", "is_reserved": 0, "lon": -77.01022416666666, "is_disabled": 0, "fusion_lat": 0.0, "lat": 38.91410783333333, "bike_id": "7db47042dc118b41fd27e0f044eeb9f4", "fusion_lon": 0.0}, {"rental_uris": {"ios": "https://dc.lft.to/lastmile_qr_scan", "android": "https://dc.lft.to/lastmile_qr_scan"}, "type": "electric_scooter", "name": "240d0d68651f5abcbc4c3b95410dacdb", "is_reserved": 0, "lon": -77.028139, "is_disabled": 0, "fusion_lat": 0.0, "lat": 38.95086583333333, "bike_id": "240d0d68651f5abcbc4c3b95410dacdb", "fusion_lon": 0.0}, {"rental_uris": {"ios": "https://dc.lft.to/lastmile_qr_scan", "android": "https://dc.lft.to/lastmile_qr_scan"}, "type": "electric_scooter", "name": "e5981cd2442b636069e6236895a3cedc", "is_reserved": 0, "lon": -77.0330425, "is_disabled": 0, "fusion_lat": 0.0, "lat": 38.92858233333333, "bike_id": "e5981cd2442b636069e6236895a3cedc", "fusion_lon": 0.0}, {"rental_uris": {"ios": "https://dc.lft.to/lastmile_qr_scan", "android": "https://dc.lft.to/lastmile_qr_scan"}, "type": "electric_bike", "name": "3bad074e18e80ab544b8e2a655421fe0", "is_reserved": 0, "lon": -76.90741983333334, "is_disabled": 0, "fusion_lat": 0.0, "lat": 38.89617583333333, "bike_id": "3bad074e18e80ab544b8e2a655421fe0", "fusion_lon": 0.0}, {"rental_uris": {"ios": "https://dc.lft.to/lastmile_qr_scan", "android": "https://dc.lft.to/lastmile_qr_scan"}, "type": "electric_scooter", "name": "e961eb70eedeb2353552fb47a453438d", "is_reserved": 0, "lon": -77.024397, "is_disabled": 0, "fusion_lat": 0.0, "lat": 38.937515833333336, "bike_id": "e961eb70eedeb2353552fb47a453438d", "fusion_lon": 0.0}, {"rental_uris": {"ios": "https://dc.lft.to/lastmile_qr_scan", "android": "https://dc.lft.to/lastmile_qr_scan"}, "type": "electric_scooter", "name": "6aa78320f01a49ce45abe07d7fd6b0ab", "is_reserved": 0, "lon": -77.02201516666666, "is_disabled": 0, "fusion_lat": 0.0, "lat": 38.91440016666667, "bike_id": "6aa78320f01a49ce45abe07d7fd6b0ab", "fusion_lon": 0.0}, {"rental_uris": {"ios": "https://dc.lft.to/lastmile_qr_scan", "android": "https://dc.lft.to/lastmile_qr_scan"}, "type": "electric_scooter", "name": "82889941411986b36389ed510bce30a5", "is_reserved": 0, "lon": -77.03018816666666, "is_disabled": 0, "fusion_lat": 0.0, "lat": 38.878476166666665, "bike_id": "82889941411986b36389ed510bce30a5", "fusion_lon": 0.0}, {"rental_uris": {"ios": "https://dc.lft.to/lastmile_qr_scan", "android": "https://dc.lft.to/lastmile_qr_scan"}, "type": "electric_bike", "name": "be3219ee362e61f584b6f0b459838ce2", "is_reserved": 0, "lon": -77.02980083333334, "is_disabled": 0, "fusion_lat": 0.0, "lat": 38.934983333333335, "bike_id": "be3219ee362e61f584b6f0b459838ce2", "fusion_lon": 0.0}, {"rental_uris": {"ios": "https://dc.lft.to/lastmile_qr_scan", "android": "https://dc.lft.to/lastmile_qr_scan"}, "type": "electric_scooter", "name": "059b020a5a6bc30e3f299fcfb00a928c", "is_reserved": 0, "lon": -77.03856433333333, "is_disabled": 0, "fusion_lat": 0.0, "lat": 38.91690116666667, "bike_id": "059b020a5a6bc30e3f299fcfb00a928c", "fusion_lon": 0.0}, {"rental_uris": {"ios": "https://dc.lft.to/lastmile_qr_scan", "android": "https://dc.lft.to/lastmile_qr_scan"}, "type": "electric_scooter", "name": "b9d86808908fa54018a5c9acaf85b055", "is_reserved": 0, "lon": -77.0316445, "is_disabled": 0, "fusion_lat": 0.0, "lat": 38.915712, "bike_id": "b9d86808908fa54018a5c9acaf85b055", "fusion_lon": 0.0}, {"rental_uris": {"ios": "https://dc.lft.to/lastmile_qr_scan", "android": "https://dc.lft.to/lastmile_qr_scan"}, "type": "electric_scooter", "name": "e235ef4be608c49431b7bdb0e2c03291", "is_reserved": 0, "lon": -77.05754783333333, "is_disabled": 0, "fusion_lat": 0.0, "lat": 38.92498066666667, "bike_id": "e235ef4be608c49431b7bdb0e2c03291", "fusion_lon": 0.0}, {"rental_uris": {"ios": "https://dc.lft.to/lastmile_qr_scan", "android": "https://dc.lft.to/lastmile_qr_scan"}, "type": "electric_bike", "name": "584ca90666d481fb3be15c4621e55833", "is_reserved": 0, "lon": -77.00612583333333, "is_disabled": 0, "fusion_lat": 0.0, "lat": 38.82398633333333, "bike_id": "584ca90666d481fb3be15c4621e55833", "fusion_lon": 0.0}, {"rental_uris": {"ios": "https://dc.lft.to/lastmile_qr_scan", "android": "https://dc.lft.to/lastmile_qr_scan"}, "type": "electric_scooter", "name": "5c19ac42f7a42a6722cae895dae11232", "is_reserved": 0, "lon": -77.023171, "is_disabled": 0, "fusion_lat": 0.0, "lat": 38.89658883333333, "bike_id": "5c19ac42f7a42a6722cae895dae11232", "fusion_lon": 0.0}, {"rental_uris": {"ios": "https://dc.lft.to/lastmile_qr_scan", "android": "https://dc.lft.to/lastmile_qr_scan"}, "type": "electric_scooter", "name": "63255a9dd6570391d0e3ca0277a6fba2", "is_reserved": 0, "lon": -77.0227645, "is_disabled": 0, "fusion_lat": 0.0, "lat": 38.898485666666666, "bike_id": "63255a9dd6570391d0e3ca0277a6fba2", "fusion_lon": 0.0}, {"rental_uris": {"ios": "https://dc.lft.to/lastmile_qr_scan", "android": "https://dc.lft.to/lastmile_qr_scan"}, "type": "electric_scooter", "name": "8efa661df905d1c47aa41febbea9521e", "is_reserved": 0, "lon": -77.0074365, "is_disabled": 0, "fusion_lat": 0.0, "lat": 38.9070965, "bike_id": "8efa661df905d1c47aa41febbea9521e", "fusion_lon": 0.0}, {"rental_uris": {"ios": "https://dc.lft.to/lastmile_qr_scan", "android": "https://dc.lft.to/lastmile_qr_scan"}, "type": "electric_bike", "name": "e6899ecc85223185720a35c4b979fe16", "is_reserved": 0, "lon": -77.03762716666667, "is_disabled": 0, "fusion_lat": 0.0, "lat": 38.93967, "bike_id": "e6899ecc85223185720a35c4b979fe16", "fusion_lon": 0.0}, {"rental_uris": {"ios": "https://dc.lft.to/lastmile_qr_scan", "android": "https://dc.lft.to/lastmile_qr_scan"}, "type": "electric_bike", "name": "a4d85b9b560ff7ae23f41bd4588a4e72", "is_reserved": 0, "lon": -77.03658483333334, "is_disabled": 0, "fusion_lat": 0.0, "lat": 38.936514333333335, "bike_id": "a4d85b9b560ff7ae23f41bd4588a4e72", "fusion_lon": 0.0}, {"rental_uris": {"ios": "https://dc.lft.to/lastmile_qr_scan", "android": "https://dc.lft.to/lastmile_qr_scan"}, "type": "electric_scooter", "name": "bd0382564ce577905cbc55d5a4556c99", "is_reserved": 0, "lon": -77.02508983333334, "is_disabled": 0, "fusion_lat": 0.0, "lat": 38.9208135, "bike_id": "bd0382564ce577905cbc55d5a4556c99", "fusion_lon": 0.0}, {"rental_uris": {"ios": "https://dc.lft.to/lastmile_qr_scan", "android": "https://dc.lft.to/lastmile_qr_scan"}, "type": "electric_scooter", "name": "bc38825ff3e2b26ae6a6104152bec881", "is_reserved": 0, "lon": -77.0209495, "is_disabled": 0, "fusion_lat": 0.0, "lat": 38.91411266666667, "bike_id": "bc38825ff3e2b26ae6a6104152bec881", "fusion_lon": 0.0}, {"rental_uris": {"ios": "https://dc.lft.to/lastmile_qr_scan", "android": "https://dc.lft.to/lastmile_qr_scan"}, "type": "electric_scooter", "name": "698262af67f6eae1630146d2bce13041", "is_reserved": 0, "lon": -77.00546766666666, "is_disabled": 0, "fusion_lat": 0.0, "lat": 38.905611666666665, "bike_id": "698262af67f6eae1630146d2bce13041", "fusion_lon": 0.0}, {"rental_uris": {"ios": "https://dc.lft.to/lastmile_qr_scan", "android": "https://dc.lft.to/lastmile_qr_scan"}, "type": "electric_scooter", "name": "6ed6b6af9f31a1f25519b09c238388ba", "is_reserved": 0, "lon": -77.03125833333333, "is_disabled": 0, "fusion_lat": 0.0, "lat": 38.92378166666667, "bike_id": "6ed6b6af9f31a1f25519b09c238388ba", "fusion_lon": 0.0}, {"rental_uris": {"ios": "https://dc.lft.to/lastmile_qr_scan", "android": "https://dc.lft.to/lastmile_qr_scan"}, "type": "electric_scooter", "name": "aa46f0adc746f2d826bdb0a591acb9db", "is_reserved": 0, "lon": -77.0346815, "is_disabled": 0, "fusion_lat": 0.0, "lat": 38.90802583333333, "bike_id": "aa46f0adc746f2d826bdb0a591acb9db", "fusion_lon": 0.0}, {"rental_uris": {"ios": "https://dc.lft.to/lastmile_qr_scan", "android": "https://dc.lft.to/lastmile_qr_scan"}, "type": "electric_scooter", "name": "cd8e5f95a81b155a163e0bee6a8b2d01", "is_reserved": 0, "lon": -77.01868266666666, "is_disabled": 0, "fusion_lat": 0.0, "lat": 38.951531833333334, "bike_id": "cd8e5f95a81b155a163e0bee6a8b2d01", "fusion_lon": 0.0}, {"rental_uris": {"ios": "https://dc.lft.to/lastmile_qr_scan", "android": "https://dc.lft.to/lastmile_qr_scan"}, "type": "electric_scooter", "name": "3729bd789eaec3c4cb4d6007dfbc3bfe", "is_reserved": 0, "lon": -77.03842066666667, "is_disabled": 0, "fusion_lat": 0.0, "lat": 38.915426, "bike_id": "3729bd789eaec3c4cb4d6007dfbc3bfe", "fusion_lon": 0.0}, {"rental_uris": {"ios": "https://dc.lft.to/lastmile_qr_scan", "android": "https://dc.lft.to/lastmile_qr_scan"}, "type": "electric_scooter", "name": "e2f9c0fb15039ecd46d90bc20b920b52", "is_reserved": 0, "lon": -77.02100316666667, "is_disabled": 0, "fusion_lat": 0.0, "lat": 38.91636833333333, "bike_id": "e2f9c0fb15039ecd46d90bc20b920b52", "fusion_lon": 0.0}, {"rental_uris": {"ios": "https://dc.lft.to/lastmile_qr_scan", "android": "https://dc.lft.to/lastmile_qr_scan"}, "type": "electric_scooter", "name": "9232d5660d56d3fe3fd5d457d0f8c087", "is_reserved": 0, "lon": -77.04349333333333, "is_disabled": 0, "fusion_lat": 0.0, "lat": 38.92329683333333, "bike_id": "9232d5660d56d3fe3fd5d457d0f8c087", "fusion_lon": 0.0}, {"rental_uris": {"ios": "https://dc.lft.to/lastmile_qr_scan", "android": "https://dc.lft.to/lastmile_qr_scan"}, "type": "electric_bike", "name": "ac1008b5b0e08157d02e9bd23f5d8a94", "is_reserved": 0, "lon": -76.99028966666667, "is_disabled": 0, "fusion_lat": 0.0, "lat": 38.8964545, "bike_id": "ac1008b5b0e08157d02e9bd23f5d8a94", "fusion_lon": 0.0}, {"rental_uris": {"ios": "https://dc.lft.to/lastmile_qr_scan", "android": "https://dc.lft.to/lastmile_qr_scan"}, "type": "electric_scooter", "name": "5571b06fec50cc3413e4bc9bcd2c9e1c", "is_reserved": 0, "lon": -77.02961216666667, "is_disabled": 0, "fusion_lat": 0.0, "lat": 38.907264833333336, "bike_id": "5571b06fec50cc3413e4bc9bcd2c9e1c", "fusion_lon": 0.0}, {"rental_uris": {"ios": "https://dc.lft.to/lastmile_qr_scan", "android": "https://dc.lft.to/lastmile_qr_scan"}, "type": "electric_scooter", "name": "03599fb448f63c614a35ec6128656935", "is_reserved": 0, "lon": -77.034255, "is_disabled": 0, "fusion_lat": 0.0, "lat": 38.92733783333333, "bike_id": "03599fb448f63c614a35ec6128656935", "fusion_lon": 0.0}, {"rental_uris": {"ios": "https://dc.lft.to/lastmile_qr_scan", "android": "https://dc.lft.to/lastmile_qr_scan"}, "type": "electric_scooter", "name": "6f6777955a44f25352af120e3ea23c92", "is_reserved": 0, "lon": -77.03454316666667, "is_disabled": 0, "fusion_lat": 0.0, "lat": 38.908291166666665, "bike_id": "6f6777955a44f25352af120e3ea23c92", "fusion_lon": 0.0}, {"rental_uris": {"ios": "https://dc.lft.to/lastmile_qr_scan", "android": "https://dc.lft.to/lastmile_qr_scan"}, "type": "electric_scooter", "name": "e83940a2f4c683e3fd34c0b6a957efd7", "is_reserved": 0, "lon": -77.0270405, "is_disabled": 0, "fusion_lat": 0.0, "lat": 38.90441633333333, "bike_id": "e83940a2f4c683e3fd34c0b6a957efd7", "fusion_lon": 0.0}, {"rental_uris": {"ios": "https://dc.lft.to/lastmile_qr_scan", "android": "https://dc.lft.to/lastmile_qr_scan"}, "type": "electric_scooter", "name": "1033f065494fa470ebd3765451baeb34", "is_reserved": 0, "lon": -77.051817, "is_disabled": 0, "fusion_lat": 0.0, "lat": 38.90302233333333, "bike_id": "1033f065494fa470ebd3765451baeb34", "fusion_lon": 0.0}, {"rental_uris": {"ios": "https://dc.lft.to/lastmile_qr_scan", "android": "https://dc.lft.to/lastmile_qr_scan"}, "type": "electric_scooter", "name": "5d3db8abd9a29394dfad880ee6b9114b", "is_reserved": 0, "lon": -77.03564983333334, "is_disabled": 0, "fusion_lat": 0.0, "lat": 38.91808533333333, "bike_id": "5d3db8abd9a29394dfad880ee6b9114b", "fusion_lon": 0.0}, {"rental_uris": {"ios": "https://dc.lft.to/lastmile_qr_scan", "android": "https://dc.lft.to/lastmile_qr_scan"}, "type": "electric_scooter", "name": "f83b0c100ed01c7092b0a432f1b726d6", "is_reserved": 0, "lon": -76.94087716666667, "is_disabled": 0, "fusion_lat": 0.0, "lat": 38.891218, "bike_id": "f83b0c100ed01c7092b0a432f1b726d6", "fusion_lon": 0.0}, {"rental_uris": {"ios": "https://dc.lft.to/lastmile_qr_scan", "android": "https://dc.lft.to/lastmile_qr_scan"}, "type": "electric_scooter", "name": "f0ec9e2d1a8e6cb19ff461b913fc93cc", "is_reserved": 0, "lon": -77.0487655, "is_disabled": 0, "fusion_lat": 0.0, "lat": 38.909054833333336, "bike_id": "f0ec9e2d1a8e6cb19ff461b913fc93cc", "fusion_lon": 0.0}, {"rental_uris": {"ios": "https://dc.lft.to/lastmile_qr_scan", "android": "https://dc.lft.to/lastmile_qr_scan"}, "type": "electric_scooter", "name": "598413d744ab3fe02f9dba2e7fb2156d", "is_reserved": 0, "lon": -76.99891333333333, "is_disabled": 0, "fusion_lat": 0.0, "lat": 38.95293983333333, "bike_id": "598413d744ab3fe02f9dba2e7fb2156d", "fusion_lon": 0.0}, {"rental_uris": {"ios": "https://dc.lft.to/lastmile_qr_scan", "android": "https://dc.lft.to/lastmile_qr_scan"}, "type": "electric_scooter", "name": "0d0534887d08befe8be4d28dd6d93ab0", "is_reserved": 0, "lon": -76.99871533333334, "is_disabled": 0, "fusion_lat": 0.0, "lat": 38.900333333333336, "bike_id": "0d0534887d08befe8be4d28dd6d93ab0", "fusion_lon": 0.0}, {"rental_uris": {"ios": "https://dc.lft.to/lastmile_qr_scan", "android": "https://dc.lft.to/lastmile_qr_scan"}, "type": "electric_scooter", "name": "f49980881a0af816de90fd9ea977b489", "is_reserved": 0, "lon": -77.03188366666667, "is_disabled": 0, "fusion_lat": 0.0, "lat": 38.91397, "bike_id": "f49980881a0af816de90fd9ea977b489", "fusion_lon": 0.0}, {"rental_uris": {"ios": "https://dc.lft.to/lastmile_qr_scan", "android": "https://dc.lft.to/lastmile_qr_scan"}, "type": "electric_scooter", "name": "1c70cf6ab1b524ba644e089b66c0446a", "is_reserved": 0, "lon": -77.02370666666667, "is_disabled": 0, "fusion_lat": 0.0, "lat": 38.9021545, "bike_id": "1c70cf6ab1b524ba644e089b66c0446a", "fusion_lon": 0.0}, {"rental_uris": {"ios": "https://dc.lft.to/lastmile_qr_scan", "android": "https://dc.lft.to/lastmile_qr_scan"}, "type": "electric_scooter", "name": "8698eb3cadb23810566b6a46cfe901c7", "is_reserved": 0, "lon": -77.04125633333334, "is_disabled": 0, "fusion_lat": 0.0, "lat": 38.921994833333336, "bike_id": "8698eb3cadb23810566b6a46cfe901c7", "fusion_lon": 0.0}, {"rental_uris": {"ios": "https://dc.lft.to/lastmile_qr_scan", "android": "https://dc.lft.to/lastmile_qr_scan"}, "type": "electric_scooter", "name": "8a6fd876dbec3981ccd84bdced7d4f65", "is_reserved": 0, "lon": -77.02556833333334, "is_disabled": 0, "fusion_lat": 0.0, "lat": 38.915549166666665, "bike_id": "8a6fd876dbec3981ccd84bdced7d4f65", "fusion_lon": 0.0}, {"rental_uris": {"ios": "https://dc.lft.to/lastmile_qr_scan", "android": "https://dc.lft.to/lastmile_qr_scan"}, "type": "electric_scooter", "name": "dccd7f828858e33a303e6e6ec4286e07", "is_reserved": 0, "lon": -77.02692433333333, "is_disabled": 0, "fusion_lat": 0.0, "lat": 38.91390783333333, "bike_id": "dccd7f828858e33a303e6e6ec4286e07", "fusion_lon": 0.0}, {"rental_uris": {"ios": "https://dc.lft.to/lastmile_qr_scan", "android": "https://dc.lft.to/lastmile_qr_scan"}, "type": "electric_scooter", "name": "01f356c01e4e4417656732c1e05b041f", "is_reserved": 0, "lon": -76.988443, "is_disabled": 0, "fusion_lat": 0.0, "lat": 38.900364833333335, "bike_id": "01f356c01e4e4417656732c1e05b041f", "fusion_lon": 0.0}, {"rental_uris": {"ios": "https://dc.lft.to/lastmile_qr_scan", "android": "https://dc.lft.to/lastmile_qr_scan"}, "type": "electric_scooter", "name": "ee114526d1a25b5dca9c611d65a64f33", "is_reserved": 0, "lon": -77.03297016666667, "is_disabled": 0, "fusion_lat": 0.0, "lat": 38.927518166666665, "bike_id": "ee114526d1a25b5dca9c611d65a64f33", "fusion_lon": 0.0}, {"rental_uris": {"ios": "https://dc.lft.to/lastmile_qr_scan", "android": "https://dc.lft.to/lastmile_qr_scan"}, "type": "electric_scooter", "name": "e725d6b619f9b1e6c1166d8e88b96a9b", "is_reserved": 0, "lon": -77.04880583333333, "is_disabled": 0, "fusion_lat": 0.0, "lat": 38.90907716666667, "bike_id": "e725d6b619f9b1e6c1166d8e88b96a9b", "fusion_lon": 0.0}, {"rental_uris": {"ios": "https://dc.lft.to/lastmile_qr_scan", "android": "https://dc.lft.to/lastmile_qr_scan"}, "type": "electric_scooter", "name": "fad0544e3d6ec6ea59017943bb8a805b", "is_reserved": 0, "lon": -77.04868316666666, "is_disabled": 0, "fusion_lat": 0.0, "lat": 38.911029166666665, "bike_id": "fad0544e3d6ec6ea59017943bb8a805b", "fusion_lon": 0.0}, {"rental_uris": {"ios": "https://dc.lft.to/lastmile_qr_scan", "android": "https://dc.lft.to/lastmile_qr_scan"}, "type": "electric_scooter", "name": "534c8ec858a5da145b4a833509b86e69", "is_reserved": 0, "lon": -77.02245166666667, "is_disabled": 0, "fusion_lat": 0.0, "lat": 38.894596166666666, "bike_id": "534c8ec858a5da145b4a833509b86e69", "fusion_lon": 0.0}, {"rental_uris": {"ios": "https://dc.lft.to/lastmile_qr_scan", "android": "https://dc.lft.to/lastmile_qr_scan"}, "type": "electric_scooter", "name": "8748e49cb02f4e8adecdde96c5ce2b31", "is_reserved": 0, "lon": -77.025965, "is_disabled": 0, "fusion_lat": 0.0, "lat": 38.916922666666665, "bike_id": "8748e49cb02f4e8adecdde96c5ce2b31", "fusion_lon": 0.0}, {"rental_uris": {"ios": "https://dc.lft.to/lastmile_qr_scan", "android": "https://dc.lft.to/lastmile_qr_scan"}, "type": "electric_scooter", "name": "1569e4d8c359d9b27563b49257c4e6f4", "is_reserved": 0, "lon": -77.0232415, "is_disabled": 0, "fusion_lat": 0.0, "lat": 38.93061483333334, "bike_id": "1569e4d8c359d9b27563b49257c4e6f4", "fusion_lon": 0.0}, {"rental_uris": {"ios": "https://dc.lft.to/lastmile_qr_scan", "android": "https://dc.lft.to/lastmile_qr_scan"}, "type": "electric_scooter", "name": "8657284c2b4996b9a03b2bff6a30d5fb", "is_reserved": 0, "lon": -77.03468, "is_disabled": 0, "fusion_lat": 0.0, "lat": 38.91723116666667, "bike_id": "8657284c2b4996b9a03b2bff6a30d5fb", "fusion_lon": 0.0}, {"rental_uris": {"ios": "https://dc.lft.to/lastmile_qr_scan", "android": "https://dc.lft.to/lastmile_qr_scan"}, "type": "electric_scooter", "name": "2263b224c2b27c8e14f14556a2466aab", "is_reserved": 0, "lon": -76.99912416666666, "is_disabled": 0, "fusion_lat": 0.0, "lat": 38.937474, "bike_id": "2263b224c2b27c8e14f14556a2466aab", "fusion_lon": 0.0}, {"rental_uris": {"ios": "https://dc.lft.to/lastmile_qr_scan", "android": "https://dc.lft.to/lastmile_qr_scan"}, "type": "electric_bike", "name": "673e84c5fb3d36d087eca52acb4bcea9", "is_reserved": 0, "lon": -76.98688683333333, "is_disabled": 0, "fusion_lat": 0.0, "lat": 38.94476483333333, "bike_id": "673e84c5fb3d36d087eca52acb4bcea9", "fusion_lon": 0.0}, {"rental_uris": {"ios": "https://dc.lft.to/lastmile_qr_scan", "android": "https://dc.lft.to/lastmile_qr_scan"}, "type": "electric_scooter", "name": "9da458a50f435493c7d465fda286c2ce", "is_reserved": 0, "lon": -77.04084183333333, "is_disabled": 0, "fusion_lat": 0.0, "lat": 38.9171545, "bike_id": "9da458a50f435493c7d465fda286c2ce", "fusion_lon": 0.0}, {"rental_uris": {"ios": "https://dc.lft.to/lastmile_qr_scan", "android": "https://dc.lft.to/lastmile_qr_scan"}, "type": "electric_scooter", "name": "56726ebfeb2ac2e22e998dd1cdcbeabe", "is_reserved": 0, "lon": -77.03380333333334, "is_disabled": 0, "fusion_lat": 0.0, "lat": 38.901409, "bike_id": "56726ebfeb2ac2e22e998dd1cdcbeabe", "fusion_lon": 0.0}, {"rental_uris": {"ios": "https://dc.lft.to/lastmile_qr_scan", "android": "https://dc.lft.to/lastmile_qr_scan"}, "type": "electric_scooter", "name": "7f43c4d0769b41f51052fc0899ba5b14", "is_reserved": 0, "lon": -76.98360666666666, "is_disabled": 0, "fusion_lat": 0.0, "lat": 38.88745083333333, "bike_id": "7f43c4d0769b41f51052fc0899ba5b14", "fusion_lon": 0.0}, {"rental_uris": {"ios": "https://dc.lft.to/lastmile_qr_scan", "android": "https://dc.lft.to/lastmile_qr_scan"}, "type": "electric_scooter", "name": "c50298ab7ab13963108c089c0fccda09", "is_reserved": 0, "lon": -77.02385733333334, "is_disabled": 0, "fusion_lat": 0.0, "lat": 38.919981666666665, "bike_id": "c50298ab7ab13963108c089c0fccda09", "fusion_lon": 0.0}, {"rental_uris": {"ios": "https://dc.lft.to/lastmile_qr_scan", "android": "https://dc.lft.to/lastmile_qr_scan"}, "type": "electric_scooter", "name": "d5bd0873d8bfb80ae65bdb0239b5ead1", "is_reserved": 0, "lon": -77.02642233333333, "is_disabled": 0, "fusion_lat": 0.0, "lat": 38.90423766666667, "bike_id": "d5bd0873d8bfb80ae65bdb0239b5ead1", "fusion_lon": 0.0}, {"rental_uris": {"ios": "https://dc.lft.to/lastmile_qr_scan", "android": "https://dc.lft.to/lastmile_qr_scan"}, "type": "electric_scooter", "name": "e8322b2e58ec7228a28e9f6493ee81b2", "is_reserved": 0, "lon": -77.01876833333333, "is_disabled": 0, "fusion_lat": 0.0, "lat": 38.914212, "bike_id": "e8322b2e58ec7228a28e9f6493ee81b2", "fusion_lon": 0.0}, {"rental_uris": {"ios": "https://dc.lft.to/lastmile_qr_scan", "android": "https://dc.lft.to/lastmile_qr_scan"}, "type": "electric_scooter", "name": "d9acd42b65743770dcc3edbb50923eda", "is_reserved": 0, "lon": -77.042301, "is_disabled": 0, "fusion_lat": 0.0, "lat": 38.921730333333336, "bike_id": "d9acd42b65743770dcc3edbb50923eda", "fusion_lon": 0.0}, {"rental_uris": {"ios": "https://dc.lft.to/lastmile_qr_scan", "android": "https://dc.lft.to/lastmile_qr_scan"}, "type": "electric_scooter", "name": "079a82367a29864ce980b25d516f1668", "is_reserved": 0, "lon": -77.06333866666667, "is_disabled": 0, "fusion_lat": 0.0, "lat": 38.92150866666667, "bike_id": "079a82367a29864ce980b25d516f1668", "fusion_lon": 0.0}, {"rental_uris": {"ios": "https://dc.lft.to/lastmile_qr_scan", "android": "https://dc.lft.to/lastmile_qr_scan"}, "type": "electric_scooter", "name": "f0294c5ba471b11a793bbe57903fe44c", "is_reserved": 0, "lon": -77.02682433333334, "is_disabled": 0, "fusion_lat": 0.0, "lat": 38.900628833333336, "bike_id": "f0294c5ba471b11a793bbe57903fe44c", "fusion_lon": 0.0}, {"rental_uris": {"ios": "https://dc.lft.to/lastmile_qr_scan", "android": "https://dc.lft.to/lastmile_qr_scan"}, "type": "electric_scooter", "name": "7fe1d82a8292ebca59f4dd8181fa373c", "is_reserved": 0, "lon": -77.02708883333334, "is_disabled": 0, "fusion_lat": 0.0, "lat": 38.916659833333334, "bike_id": "7fe1d82a8292ebca59f4dd8181fa373c", "fusion_lon": 0.0}, {"rental_uris": {"ios": "https://dc.lft.to/lastmile_qr_scan", "android": "https://dc.lft.to/lastmile_qr_scan"}, "type": "electric_bike", "name": "3415201ddaa8b08b6d2775ca1ea2d12f", "is_reserved": 0, "lon": -77.089838, "is_disabled": 0, "fusion_lat": 0.0, "lat": 38.911743333333334, "bike_id": "3415201ddaa8b08b6d2775ca1ea2d12f", "fusion_lon": 0.0}, {"rental_uris": {"ios": "https://dc.lft.to/lastmile_qr_scan", "android": "https://dc.lft.to/lastmile_qr_scan"}, "type": "electric_scooter", "name": "242bb0e921295cb644c2fc9a9d865c13", "is_reserved": 0, "lon": -77.02808883333333, "is_disabled": 0, "fusion_lat": 0.0, "lat": 38.90932983333333, "bike_id": "242bb0e921295cb644c2fc9a9d865c13", "fusion_lon": 0.0}, {"rental_uris": {"ios": "https://dc.lft.to/lastmile_qr_scan", "android": "https://dc.lft.to/lastmile_qr_scan"}, "type": "electric_scooter", "name": "da74e4b9052981813a73ffda689c3fd6", "is_reserved": 0, "lon": -77.02798616666666, "is_disabled": 0, "fusion_lat": 0.0, "lat": 38.89646116666667, "bike_id": "da74e4b9052981813a73ffda689c3fd6", "fusion_lon": 0.0}, {"rental_uris": {"ios": "https://dc.lft.to/lastmile_qr_scan", "android": "https://dc.lft.to/lastmile_qr_scan"}, "type": "electric_scooter", "name": "0d5248a709848512e013de253c1f9a9c", "is_reserved": 0, "lon": -77.02967466666666, "is_disabled": 0, "fusion_lat": 0.0, "lat": 38.90542633333333, "bike_id": "0d5248a709848512e013de253c1f9a9c", "fusion_lon": 0.0}, {"rental_uris": {"ios": "https://dc.lft.to/lastmile_qr_scan", "android": "https://dc.lft.to/lastmile_qr_scan"}, "type": "electric_scooter", "name": "75e9dac0775521006904180897cf967c", "is_reserved": 0, "lon": -77.02560566666666, "is_disabled": 0, "fusion_lat": 0.0, "lat": 38.88744333333333, "bike_id": "75e9dac0775521006904180897cf967c", "fusion_lon": 0.0}, {"rental_uris": {"ios": "https://dc.lft.to/lastmile_qr_scan", "android": "https://dc.lft.to/lastmile_qr_scan"}, "type": "electric_scooter", "name": "e87ae7c5d6800604c75bef68cf56eea4", "is_reserved": 0, "lon": -77.02857883333333, "is_disabled": 0, "fusion_lat": 0.0, "lat": 38.905571, "bike_id": "e87ae7c5d6800604c75bef68cf56eea4", "fusion_lon": 0.0}, {"rental_uris": {"ios": "https://dc.lft.to/lastmile_qr_scan", "android": "https://dc.lft.to/lastmile_qr_scan"}, "type": "electric_scooter", "name": "5cd4dc17b6bafbd4f99445ef9d019010", "is_reserved": 0, "lon": -77.03205466666667, "is_disabled": 0, "fusion_lat": 0.0, "lat": 38.913108666666666, "bike_id": "5cd4dc17b6bafbd4f99445ef9d019010", "fusion_lon": 0.0}, {"rental_uris": {"ios": "https://dc.lft.to/lastmile_qr_scan", "android": "https://dc.lft.to/lastmile_qr_scan"}, "type": "electric_scooter", "name": "b95f653741d2874ab47e319735f3357b", "is_reserved": 0, "lon": -77.0279505, "is_disabled": 0, "fusion_lat": 0.0, "lat": 38.90134533333333, "bike_id": "b95f653741d2874ab47e319735f3357b", "fusion_lon": 0.0}, {"rental_uris": {"ios": "https://dc.lft.to/lastmile_qr_scan", "android": "https://dc.lft.to/lastmile_qr_scan"}, "type": "electric_scooter", "name": "671dcb563eff893a4b4e37e5042995c2", "is_reserved": 0, "lon": -77.02823083333334, "is_disabled": 0, "fusion_lat": 0.0, "lat": 38.8990425, "bike_id": "671dcb563eff893a4b4e37e5042995c2", "fusion_lon": 0.0}, {"rental_uris": {"ios": "https://dc.lft.to/lastmile_qr_scan", "android": "https://dc.lft.to/lastmile_qr_scan"}, "type": "electric_bike", "name": "7570535947b8c44229d8dedc09ed48ca", "is_reserved": 0, "lon": -77.0369685, "is_disabled": 0, "fusion_lat": 0.0, "lat": 38.93561616666667, "bike_id": "7570535947b8c44229d8dedc09ed48ca", "fusion_lon": 0.0}, {"rental_uris": {"ios": "https://dc.lft.to/lastmile_qr_scan", "android": "https://dc.lft.to/lastmile_qr_scan"}, "type": "electric_scooter", "name": "b52826c82bd816130cb428e04b76a7a1", "is_reserved": 0, "lon": -77.03344333333334, "is_disabled": 0, "fusion_lat": 0.0, "lat": 38.902832833333335, "bike_id": "b52826c82bd816130cb428e04b76a7a1", "fusion_lon": 0.0}, {"rental_uris": {"ios": "https://dc.lft.to/lastmile_qr_scan", "android": "https://dc.lft.to/lastmile_qr_scan"}, "type": "electric_scooter", "name": "48368a7d40855739a71eef95dbde13d6", "is_reserved": 0, "lon": -77.04336833333333, "is_disabled": 0, "fusion_lat": 0.0, "lat": 38.91300733333333, "bike_id": "48368a7d40855739a71eef95dbde13d6", "fusion_lon": 0.0}, {"rental_uris": {"ios": "https://dc.lft.to/lastmile_qr_scan", "android": "https://dc.lft.to/lastmile_qr_scan"}, "type": "electric_scooter", "name": "a54c7f813a80e2bd6953548b9415cf59", "is_reserved": 0, "lon": -77.03328733333333, "is_disabled": 0, "fusion_lat": 0.0, "lat": 38.89814166666667, "bike_id": "a54c7f813a80e2bd6953548b9415cf59", "fusion_lon": 0.0}, {"rental_uris": {"ios": "https://dc.lft.to/lastmile_qr_scan", "android": "https://dc.lft.to/lastmile_qr_scan"}, "type": "electric_scooter", "name": "2482cff3a02160ce15792bb67688d3d5", "is_reserved": 0, "lon": -76.9854025, "is_disabled": 0, "fusion_lat": 0.0, "lat": 38.9129275, "bike_id": "2482cff3a02160ce15792bb67688d3d5", "fusion_lon": 0.0}, {"rental_uris": {"ios": "https://dc.lft.to/lastmile_qr_scan", "android": "https://dc.lft.to/lastmile_qr_scan"}, "type": "electric_scooter", "name": "c8e4d718909bfb37a40ea7ee75400273", "is_reserved": 0, "lon": -77.02766366666667, "is_disabled": 0, "fusion_lat": 0.0, "lat": 38.934614833333335, "bike_id": "c8e4d718909bfb37a40ea7ee75400273", "fusion_lon": 0.0}, {"rental_uris": {"ios": "https://dc.lft.to/lastmile_qr_scan", "android": "https://dc.lft.to/lastmile_qr_scan"}, "type": "electric_scooter", "name": "3d7c7141408787dd9ab01473e7af08b5", "is_reserved": 0, "lon": -77.02950816666667, "is_disabled": 0, "fusion_lat": 0.0, "lat": 38.904095, "bike_id": "3d7c7141408787dd9ab01473e7af08b5", "fusion_lon": 0.0}, {"rental_uris": {"ios": "https://dc.lft.to/lastmile_qr_scan", "android": "https://dc.lft.to/lastmile_qr_scan"}, "type": "electric_scooter", "name": "e687da42f89c7da105ff120539d86791", "is_reserved": 0, "lon": -77.06287066666667, "is_disabled": 0, "fusion_lat": 0.0, "lat": 38.91246833333334, "bike_id": "e687da42f89c7da105ff120539d86791", "fusion_lon": 0.0}, {"rental_uris": {"ios": "https://dc.lft.to/lastmile_qr_scan", "android": "https://dc.lft.to/lastmile_qr_scan"}, "type": "electric_scooter", "name": "24bc8e6ac1edff4e008391f6527fe62c", "is_reserved": 0, "lon": -76.957423, "is_disabled": 0, "fusion_lat": 0.0, "lat": 38.883916, "bike_id": "24bc8e6ac1edff4e008391f6527fe62c", "fusion_lon": 0.0}, {"rental_uris": {"ios": "https://dc.lft.to/lastmile_qr_scan", "android": "https://dc.lft.to/lastmile_qr_scan"}, "type": "electric_scooter", "name": "55a4bd630b22fb2c965637f809ad56df", "is_reserved": 0, "lon": -77.00708916666666, "is_disabled": 0, "fusion_lat": 0.0, "lat": 38.905646, "bike_id": "55a4bd630b22fb2c965637f809ad56df", "fusion_lon": 0.0}, {"rental_uris": {"ios": "https://dc.lft.to/lastmile_qr_scan", "android": "https://dc.lft.to/lastmile_qr_scan"}, "type": "electric_scooter", "name": "813c79e305183d301fbb6bce36dddec9", "is_reserved": 0, "lon": -77.0251315, "is_disabled": 0, "fusion_lat": 0.0, "lat": 38.93550483333333, "bike_id": "813c79e305183d301fbb6bce36dddec9", "fusion_lon": 0.0}, {"rental_uris": {"ios": "https://dc.lft.to/lastmile_qr_scan", "android": "https://dc.lft.to/lastmile_qr_scan"}, "type": "electric_scooter", "name": "c493ed402e0aaad0e6affe395a8550d5", "is_reserved": 0, "lon": -77.00550416666667, "is_disabled": 0, "fusion_lat": 0.0, "lat": 38.876430166666665, "bike_id": "c493ed402e0aaad0e6affe395a8550d5", "fusion_lon": 0.0}, {"rental_uris": {"ios": "https://dc.lft.to/lastmile_qr_scan", "android": "https://dc.lft.to/lastmile_qr_scan"}, "type": "electric_scooter", "name": "7ae0dd794593f61057a5692ed179b37c", "is_reserved": 0, "lon": -77.06312483333333, "is_disabled": 0, "fusion_lat": 0.0, "lat": 38.9051935, "bike_id": "7ae0dd794593f61057a5692ed179b37c", "fusion_lon": 0.0}, {"rental_uris": {"ios": "https://dc.lft.to/lastmile_qr_scan", "android": "https://dc.lft.to/lastmile_qr_scan"}, "type": "electric_scooter", "name": "ebd4bda8a3d14a573644f3d0b7483b8e", "is_reserved": 0, "lon": -76.98509, "is_disabled": 0, "fusion_lat": 0.0, "lat": 38.879989, "bike_id": "ebd4bda8a3d14a573644f3d0b7483b8e", "fusion_lon": 0.0}, {"rental_uris": {"ios": "https://dc.lft.to/lastmile_qr_scan", "android": "https://dc.lft.to/lastmile_qr_scan"}, "type": "electric_bike", "name": "bbe8efb62e0a796dd7f2f5cd25ef0290", "is_reserved": 0, "lon": -77.08527583333333, "is_disabled": 0, "fusion_lat": 0.0, "lat": 38.8564775, "bike_id": "bbe8efb62e0a796dd7f2f5cd25ef0290", "fusion_lon": 0.0}, {"rental_uris": {"ios": "https://dc.lft.to/lastmile_qr_scan", "android": "https://dc.lft.to/lastmile_qr_scan"}, "type": "electric_scooter", "name": "42d0de38e65639d38fd3fbf4d2e4f5f7", "is_reserved": 0, "lon": -77.03211683333333, "is_disabled": 0, "fusion_lat": 0.0, "lat": 38.91316966666667, "bike_id": "42d0de38e65639d38fd3fbf4d2e4f5f7", "fusion_lon": 0.0}, {"rental_uris": {"ios": "https://dc.lft.to/lastmile_qr_scan", "android": "https://dc.lft.to/lastmile_qr_scan"}, "type": "electric_bike", "name": "77b81ff41ccab9e24a716d450e8d3e21", "is_reserved": 0, "lon": -77.12673483333333, "is_disabled": 0, "fusion_lat": 0.0, "lat": 38.81919283333333, "bike_id": "77b81ff41ccab9e24a716d450e8d3e21", "fusion_lon": 0.0}, {"rental_uris": {"ios": "https://dc.lft.to/lastmile_qr_scan", "android": "https://dc.lft.to/lastmile_qr_scan"}, "type": "electric_scooter", "name": "2595d60c8daaa723dbaf6120ae0e4374", "is_reserved": 0, "lon": -77.0137835, "is_disabled": 0, "fusion_lat": 0.0, "lat": 38.899123333333335, "bike_id": "2595d60c8daaa723dbaf6120ae0e4374", "fusion_lon": 0.0}, {"rental_uris": {"ios": "https://dc.lft.to/lastmile_qr_scan", "android": "https://dc.lft.to/lastmile_qr_scan"}, "type": "electric_scooter", "name": "117c1544024339efaf4818792ed7f56a", "is_reserved": 0, "lon": -77.01925216666666, "is_disabled": 0, "fusion_lat": 0.0, "lat": 38.928703, "bike_id": "117c1544024339efaf4818792ed7f56a", "fusion_lon": 0.0}, {"rental_uris": {"ios": "https://dc.lft.to/lastmile_qr_scan", "android": "https://dc.lft.to/lastmile_qr_scan"}, "type": "electric_scooter", "name": "4e12bacbf026187dfa4e4d995e1036e8", "is_reserved": 0, "lon": -77.03163016666667, "is_disabled": 0, "fusion_lat": 0.0, "lat": 38.959338, "bike_id": "4e12bacbf026187dfa4e4d995e1036e8", "fusion_lon": 0.0}, {"rental_uris": {"ios": "https://dc.lft.to/lastmile_qr_scan", "android": "https://dc.lft.to/lastmile_qr_scan"}, "type": "electric_scooter", "name": "86e821614f12d445cfcb937928dae51b", "is_reserved": 0, "lon": -77.0111455, "is_disabled": 0, "fusion_lat": 0.0, "lat": 38.909719, "bike_id": "86e821614f12d445cfcb937928dae51b", "fusion_lon": 0.0}, {"rental_uris": {"ios": "https://dc.lft.to/lastmile_qr_scan", "android": "https://dc.lft.to/lastmile_qr_scan"}, "type": "electric_scooter", "name": "d59bf44500e303b7613a2dcd93d377f1", "is_reserved": 0, "lon": -76.99236216666667, "is_disabled": 0, "fusion_lat": 0.0, "lat": 38.90818566666667, "bike_id": "d59bf44500e303b7613a2dcd93d377f1", "fusion_lon": 0.0}, {"rental_uris": {"ios": "https://dc.lft.to/lastmile_qr_scan", "android": "https://dc.lft.to/lastmile_qr_scan"}, "type": "electric_scooter", "name": "012449afeb3dbd37e36c48da2adda5f0", "is_reserved": 0, "lon": -77.05286283333334, "is_disabled": 0, "fusion_lat": 0.0, "lat": 38.90348733333333, "bike_id": "012449afeb3dbd37e36c48da2adda5f0", "fusion_lon": 0.0}, {"rental_uris": {"ios": "https://dc.lft.to/lastmile_qr_scan", "android": "https://dc.lft.to/lastmile_qr_scan"}, "type": "electric_scooter", "name": "c57aad69d7998a5f42f67ead2f773347", "is_reserved": 0, "lon": -77.02387683333333, "is_disabled": 0, "fusion_lat": 0.0, "lat": 38.90345966666667, "bike_id": "c57aad69d7998a5f42f67ead2f773347", "fusion_lon": 0.0}, {"rental_uris": {"ios": "https://dc.lft.to/lastmile_qr_scan", "android": "https://dc.lft.to/lastmile_qr_scan"}, "type": "electric_scooter", "name": "530c4d5a1fa2528db4abddc91c50a913", "is_reserved": 0, "lon": -77.03353583333333, "is_disabled": 0, "fusion_lat": 0.0, "lat": 38.930457, "bike_id": "530c4d5a1fa2528db4abddc91c50a913", "fusion_lon": 0.0}, {"rental_uris": {"ios": "https://dc.lft.to/lastmile_qr_scan", "android": "https://dc.lft.to/lastmile_qr_scan"}, "type": "electric_scooter", "name": "e2a7cd7e0db8258e27f6e4533a174460", "is_reserved": 0, "lon": -77.0613935, "is_disabled": 0, "fusion_lat": 0.0, "lat": 38.943247, "bike_id": "e2a7cd7e0db8258e27f6e4533a174460", "fusion_lon": 0.0}, {"rental_uris": {"ios": "https://dc.lft.to/lastmile_qr_scan", "android": "https://dc.lft.to/lastmile_qr_scan"}, "type": "electric_scooter", "name": "da63015eea2a2a29f14a3c5414a9784b", "is_reserved": 0, "lon": -77.0363945, "is_disabled": 0, "fusion_lat": 0.0, "lat": 38.91248433333333, "bike_id": "da63015eea2a2a29f14a3c5414a9784b", "fusion_lon": 0.0}, {"rental_uris": {"ios": "https://dc.lft.to/lastmile_qr_scan", "android": "https://dc.lft.to/lastmile_qr_scan"}, "type": "electric_scooter", "name": "51891ae24a484bc7705634cf1105e8ad", "is_reserved": 0, "lon": -77.04184316666667, "is_disabled": 0, "fusion_lat": 0.0, "lat": 38.92330833333333, "bike_id": "51891ae24a484bc7705634cf1105e8ad", "fusion_lon": 0.0}, {"rental_uris": {"ios": "https://dc.lft.to/lastmile_qr_scan", "android": "https://dc.lft.to/lastmile_qr_scan"}, "type": "electric_scooter", "name": "a471e7018224f48001e82fd512f824a8", "is_reserved": 0, "lon": -77.03380366666667, "is_disabled": 0, "fusion_lat": 0.0, "lat": 38.899565, "bike_id": "a471e7018224f48001e82fd512f824a8", "fusion_lon": 0.0}, {"rental_uris": {"ios": "https://dc.lft.to/lastmile_qr_scan", "android": "https://dc.lft.to/lastmile_qr_scan"}, "type": "electric_bike", "name": "1cafea231554806bf4f317e5f7868e13", "is_reserved": 0, "lon": -76.98631433333334, "is_disabled": 0, "fusion_lat": 0.0, "lat": 38.93687383333334, "bike_id": "1cafea231554806bf4f317e5f7868e13", "fusion_lon": 0.0}, {"rental_uris": {"ios": "https://dc.lft.to/lastmile_qr_scan", "android": "https://dc.lft.to/lastmile_qr_scan"}, "type": "electric_bike", "name": "973fdb09feef60f9a5a92de516d3b56f", "is_reserved": 0, "lon": -77.08670083333334, "is_disabled": 0, "fusion_lat": 0.0, "lat": 38.862601, "bike_id": "973fdb09feef60f9a5a92de516d3b56f", "fusion_lon": 0.0}, {"rental_uris": {"ios": "https://dc.lft.to/lastmile_qr_scan", "android": "https://dc.lft.to/lastmile_qr_scan"}, "type": "electric_scooter", "name": "fa4b4e4bffaccdf1a0d6df370715e495", "is_reserved": 0, "lon": -77.0436145, "is_disabled": 0, "fusion_lat": 0.0, "lat": 38.892232, "bike_id": "fa4b4e4bffaccdf1a0d6df370715e495", "fusion_lon": 0.0}, {"rental_uris": {"ios": "https://dc.lft.to/lastmile_qr_scan", "android": "https://dc.lft.to/lastmile_qr_scan"}, "type": "electric_scooter", "name": "db844398c9a66349bb7a8e1d66066e49", "is_reserved": 0, "lon": -76.983361, "is_disabled": 0, "fusion_lat": 0.0, "lat": 38.900957166666664, "bike_id": "db844398c9a66349bb7a8e1d66066e49", "fusion_lon": 0.0}, {"rental_uris": {"ios": "https://dc.lft.to/lastmile_qr_scan", "android": "https://dc.lft.to/lastmile_qr_scan"}, "type": "electric_scooter", "name": "b88763186cde5f571021a5c3f7b2368d", "is_reserved": 0, "lon": -77.02476666666666, "is_disabled": 0, "fusion_lat": 0.0, "lat": 38.91815616666667, "bike_id": "b88763186cde5f571021a5c3f7b2368d", "fusion_lon": 0.0}, {"rental_uris": {"ios": "https://dc.lft.to/lastmile_qr_scan", "android": "https://dc.lft.to/lastmile_qr_scan"}, "type": "electric_scooter", "name": "17c1a4c7183f98171f2e284b92135c39", "is_reserved": 0, "lon": -77.027613, "is_disabled": 0, "fusion_lat": 0.0, "lat": 38.9029045, "bike_id": "17c1a4c7183f98171f2e284b92135c39", "fusion_lon": 0.0}, {"rental_uris": {"ios": "https://dc.lft.to/lastmile_qr_scan", "android": "https://dc.lft.to/lastmile_qr_scan"}, "type": "electric_scooter", "name": "0644bfb590057a61d271bbdd79dbd3e4", "is_reserved": 0, "lon": -77.0171245, "is_disabled": 0, "fusion_lat": 0.0, "lat": 38.911026666666665, "bike_id": "0644bfb590057a61d271bbdd79dbd3e4", "fusion_lon": 0.0}, {"rental_uris": {"ios": "https://dc.lft.to/lastmile_qr_scan", "android": "https://dc.lft.to/lastmile_qr_scan"}, "type": "electric_scooter", "name": "c8e1afc57eca284ac48c2b76d5d1ad64", "is_reserved": 0, "lon": -77.04803, "is_disabled": 0, "fusion_lat": 0.0, "lat": 38.91917866666667, "bike_id": "c8e1afc57eca284ac48c2b76d5d1ad64", "fusion_lon": 0.0}, {"rental_uris": {"ios": "https://dc.lft.to/lastmile_qr_scan", "android": "https://dc.lft.to/lastmile_qr_scan"}, "type": "electric_scooter", "name": "1905f38085e43696f87eb99965603260", "is_reserved": 0, "lon": -76.99495066666667, "is_disabled": 0, "fusion_lat": 0.0, "lat": 38.882252666666666, "bike_id": "1905f38085e43696f87eb99965603260", "fusion_lon": 0.0}, {"rental_uris": {"ios": "https://dc.lft.to/lastmile_qr_scan", "android": "https://dc.lft.to/lastmile_qr_scan"}, "type": "electric_scooter", "name": "df39fcbcab22b4cb18b4e117361de8d8", "is_reserved": 0, "lon": -77.02513866666666, "is_disabled": 0, "fusion_lat": 0.0, "lat": 38.920796333333335, "bike_id": "df39fcbcab22b4cb18b4e117361de8d8", "fusion_lon": 0.0}, {"rental_uris": {"ios": "https://dc.lft.to/lastmile_qr_scan", "android": "https://dc.lft.to/lastmile_qr_scan"}, "type": "electric_scooter", "name": "42a14dc9c6e5dad27765e7076d1e9721", "is_reserved": 0, "lon": -77.04359866666667, "is_disabled": 0, "fusion_lat": 0.0, "lat": 38.9224735, "bike_id": "42a14dc9c6e5dad27765e7076d1e9721", "fusion_lon": 0.0}, {"rental_uris": {"ios": "https://dc.lft.to/lastmile_qr_scan", "android": "https://dc.lft.to/lastmile_qr_scan"}, "type": "electric_bike", "name": "f899c105c57cd0bad04214b66ec66e56", "is_reserved": 0, "lon": -76.91807216666666, "is_disabled": 0, "fusion_lat": 0.0, "lat": 38.999993, "bike_id": "f899c105c57cd0bad04214b66ec66e56", "fusion_lon": 0.0}, {"rental_uris": {"ios": "https://dc.lft.to/lastmile_qr_scan", "android": "https://dc.lft.to/lastmile_qr_scan"}, "type": "electric_bike", "name": "5b2046d0fb894203bd8d51c04960c09d", "is_reserved": 0, "lon": -76.97845366666667, "is_disabled": 0, "fusion_lat": 0.0, "lat": 38.88874366666667, "bike_id": "5b2046d0fb894203bd8d51c04960c09d", "fusion_lon": 0.0}, {"rental_uris": {"ios": "https://dc.lft.to/lastmile_qr_scan", "android": "https://dc.lft.to/lastmile_qr_scan"}, "type": "electric_scooter", "name": "24003dab8eaa108cad2091334c783ab6", "is_reserved": 0, "lon": -77.06169483333333, "is_disabled": 0, "fusion_lat": 0.0, "lat": 38.941260166666666, "bike_id": "24003dab8eaa108cad2091334c783ab6", "fusion_lon": 0.0}, {"rental_uris": {"ios": "https://dc.lft.to/lastmile_qr_scan", "android": "https://dc.lft.to/lastmile_qr_scan"}, "type": "electric_scooter", "name": "141d5e45849f56c3ac15f651fc304e8a", "is_reserved": 0, "lon": -77.02476066666667, "is_disabled": 0, "fusion_lat": 0.0, "lat": 38.918168333333334, "bike_id": "141d5e45849f56c3ac15f651fc304e8a", "fusion_lon": 0.0}, {"rental_uris": {"ios": "https://dc.lft.to/lastmile_qr_scan", "android": "https://dc.lft.to/lastmile_qr_scan"}, "type": "electric_scooter", "name": "03ea08d5e8c590081a46430a3bc7572d", "is_reserved": 0, "lon": -77.020365, "is_disabled": 0, "fusion_lat": 0.0, "lat": 38.897085833333335, "bike_id": "03ea08d5e8c590081a46430a3bc7572d", "fusion_lon": 0.0}, {"rental_uris": {"ios": "https://dc.lft.to/lastmile_qr_scan", "android": "https://dc.lft.to/lastmile_qr_scan"}, "type": "electric_scooter", "name": "828901821d579878ea65cca674071582", "is_reserved": 0, "lon": -77.0462435, "is_disabled": 0, "fusion_lat": 0.0, "lat": 38.92331, "bike_id": "828901821d579878ea65cca674071582", "fusion_lon": 0.0}, {"rental_uris": {"ios": "https://dc.lft.to/lastmile_qr_scan", "android": "https://dc.lft.to/lastmile_qr_scan"}, "type": "electric_bike", "name": "8969d3f134c8fa6442bd3764e48b9f9b", "is_reserved": 0, "lon": -77.1324085, "is_disabled": 0, "fusion_lat": 0.0, "lat": 38.80574, "bike_id": "8969d3f134c8fa6442bd3764e48b9f9b", "fusion_lon": 0.0}, {"rental_uris": {"ios": "https://dc.lft.to/lastmile_qr_scan", "android": "https://dc.lft.to/lastmile_qr_scan"}, "type": "electric_scooter", "name": "e4d13ae78a4e570cffc4c0839deb9ea7", "is_reserved": 0, "lon": -77.02815266666667, "is_disabled": 0, "fusion_lat": 0.0, "lat": 38.90490783333333, "bike_id": "e4d13ae78a4e570cffc4c0839deb9ea7", "fusion_lon": 0.0}, {"rental_uris": {"ios": "https://dc.lft.to/lastmile_qr_scan", "android": "https://dc.lft.to/lastmile_qr_scan"}, "type": "electric_scooter", "name": "d9be3e18f760e3f56961b437161f64b8", "is_reserved": 0, "lon": -77.03440933333333, "is_disabled": 0, "fusion_lat": 0.0, "lat": 38.907127333333335, "bike_id": "d9be3e18f760e3f56961b437161f64b8", "fusion_lon": 0.0}, {"rental_uris": {"ios": "https://dc.lft.to/lastmile_qr_scan", "android": "https://dc.lft.to/lastmile_qr_scan"}, "type": "electric_scooter", "name": "b257f9ade2a881f1f766291604e9a955", "is_reserved": 0, "lon": -77.03611983333333, "is_disabled": 0, "fusion_lat": 0.0, "lat": 38.92855133333333, "bike_id": "b257f9ade2a881f1f766291604e9a955", "fusion_lon": 0.0}, {"rental_uris": {"ios": "https://dc.lft.to/lastmile_qr_scan", "android": "https://dc.lft.to/lastmile_qr_scan"}, "type": "electric_scooter", "name": "bb599fad207e055cfbf3e268955e5024", "is_reserved": 0, "lon": -77.01519583333334, "is_disabled": 0, "fusion_lat": 0.0, "lat": 38.87269516666667, "bike_id": "bb599fad207e055cfbf3e268955e5024", "fusion_lon": 0.0}, {"rental_uris": {"ios": "https://dc.lft.to/lastmile_qr_scan", "android": "https://dc.lft.to/lastmile_qr_scan"}, "type": "electric_bike", "name": "fc0e212fd0ac7b513cad456084716677", "is_reserved": 0, "lon": -77.03247, "is_disabled": 0, "fusion_lat": 0.0, "lat": 38.961703, "bike_id": "fc0e212fd0ac7b513cad456084716677", "fusion_lon": 0.0}, {"rental_uris": {"ios": "https://dc.lft.to/lastmile_qr_scan", "android": "https://dc.lft.to/lastmile_qr_scan"}, "type": "electric_scooter", "name": "5322101710affc5df96f82d02741694b", "is_reserved": 0, "lon": -77.03361766666667, "is_disabled": 0, "fusion_lat": 0.0, "lat": 38.92445383333333, "bike_id": "5322101710affc5df96f82d02741694b", "fusion_lon": 0.0}, {"rental_uris": {"ios": "https://dc.lft.to/lastmile_qr_scan", "android": "https://dc.lft.to/lastmile_qr_scan"}, "type": "electric_scooter", "name": "fd35eccab05aeb3708d93b7193e642b4", "is_reserved": 0, "lon": -77.00484066666667, "is_disabled": 0, "fusion_lat": 0.0, "lat": 38.874602, "bike_id": "fd35eccab05aeb3708d93b7193e642b4", "fusion_lon": 0.0}, {"rental_uris": {"ios": "https://dc.lft.to/lastmile_qr_scan", "android": "https://dc.lft.to/lastmile_qr_scan"}, "type": "electric_bike", "name": "68c11f165727b8271b430698367ae457", "is_reserved": 0, "lon": -76.94888, "is_disabled": 0, "fusion_lat": 0.0, "lat": 38.984596, "bike_id": "68c11f165727b8271b430698367ae457", "fusion_lon": 0.0}, {"rental_uris": {"ios": "https://dc.lft.to/lastmile_qr_scan", "android": "https://dc.lft.to/lastmile_qr_scan"}, "type": "electric_scooter", "name": "065c7922f47a72b1d3804c9e7e2a5cd8", "is_reserved": 0, "lon": -77.02401483333334, "is_disabled": 0, "fusion_lat": 0.0, "lat": 38.920841, "bike_id": "065c7922f47a72b1d3804c9e7e2a5cd8", "fusion_lon": 0.0}, {"rental_uris": {"ios": "https://dc.lft.to/lastmile_qr_scan", "android": "https://dc.lft.to/lastmile_qr_scan"}, "type": "electric_scooter", "name": "b2ef05f5e238d0efa1ef8c9797fcbc33", "is_reserved": 0, "lon": -77.03055066666667, "is_disabled": 0, "fusion_lat": 0.0, "lat": 38.923798166666664, "bike_id": "b2ef05f5e238d0efa1ef8c9797fcbc33", "fusion_lon": 0.0}, {"rental_uris": {"ios": "https://dc.lft.to/lastmile_qr_scan", "android": "https://dc.lft.to/lastmile_qr_scan"}, "type": "electric_bike", "name": "6a8408b73fb3ada768db8996c84f9dc0", "is_reserved": 0, "lon": -77.0263975, "is_disabled": 0, "fusion_lat": 0.0, "lat": 38.98816866666667, "bike_id": "6a8408b73fb3ada768db8996c84f9dc0", "fusion_lon": 0.0}, {"rental_uris": {"ios": "https://dc.lft.to/lastmile_qr_scan", "android": "https://dc.lft.to/lastmile_qr_scan"}, "type": "electric_scooter", "name": "88a5453ecaf51a770bbe6bb3d1fe9424", "is_reserved": 0, "lon": -77.03089633333333, "is_disabled": 0, "fusion_lat": 0.0, "lat": 38.909294333333335, "bike_id": "88a5453ecaf51a770bbe6bb3d1fe9424", "fusion_lon": 0.0}, {"rental_uris": {"ios": "https://dc.lft.to/lastmile_qr_scan", "android": "https://dc.lft.to/lastmile_qr_scan"}, "type": "electric_scooter", "name": "4afb3a87734c7ab3049cfc9f03b7010e", "is_reserved": 0, "lon": -77.03725533333333, "is_disabled": 0, "fusion_lat": 0.0, "lat": 38.92028583333333, "bike_id": "4afb3a87734c7ab3049cfc9f03b7010e", "fusion_lon": 0.0}, {"rental_uris": {"ios": "https://dc.lft.to/lastmile_qr_scan", "android": "https://dc.lft.to/lastmile_qr_scan"}, "type": "electric_scooter", "name": "07d432bd2a9678eb5f81ba3f9c42fb0e", "is_reserved": 0, "lon": -77.05021566666667, "is_disabled": 0, "fusion_lat": 0.0, "lat": 38.89739183333333, "bike_id": "07d432bd2a9678eb5f81ba3f9c42fb0e", "fusion_lon": 0.0}, {"rental_uris": {"ios": "https://dc.lft.to/lastmile_qr_scan", "android": "https://dc.lft.to/lastmile_qr_scan"}, "type": "electric_scooter", "name": "421ff1a81191cec8c4d3cb7adb8bb961", "is_reserved": 0, "lon": -77.03848883333333, "is_disabled": 0, "fusion_lat": 0.0, "lat": 38.9166695, "bike_id": "421ff1a81191cec8c4d3cb7adb8bb961", "fusion_lon": 0.0}, {"rental_uris": {"ios": "https://dc.lft.to/lastmile_qr_scan", "android": "https://dc.lft.to/lastmile_qr_scan"}, "type": "electric_scooter", "name": "8858f49ddb13af92833d984578f6a826", "is_reserved": 0, "lon": -77.01763266666667, "is_disabled": 0, "fusion_lat": 0.0, "lat": 38.876828833333335, "bike_id": "8858f49ddb13af92833d984578f6a826", "fusion_lon": 0.0}, {"rental_uris": {"ios": "https://dc.lft.to/lastmile_qr_scan", "android": "https://dc.lft.to/lastmile_qr_scan"}, "type": "electric_scooter", "name": "86903b8881ebd9833bdd8ac10723293f", "is_reserved": 0, "lon": -76.980792, "is_disabled": 0, "fusion_lat": 0.0, "lat": 38.9017435, "bike_id": "86903b8881ebd9833bdd8ac10723293f", "fusion_lon": 0.0}, {"rental_uris": {"ios": "https://dc.lft.to/lastmile_qr_scan", "android": "https://dc.lft.to/lastmile_qr_scan"}, "type": "electric_bike", "name": "1e5f2d1ad5637c867490eb8236923d0b", "is_reserved": 0, "lon": -76.99696083333333, "is_disabled": 0, "fusion_lat": 0.0, "lat": 38.838651, "bike_id": "1e5f2d1ad5637c867490eb8236923d0b", "fusion_lon": 0.0}, {"rental_uris": {"ios": "https://dc.lft.to/lastmile_qr_scan", "android": "https://dc.lft.to/lastmile_qr_scan"}, "type": "electric_scooter", "name": "21442d235f20b843e3ab1d148f6082aa", "is_reserved": 0, "lon": -76.99297916666667, "is_disabled": 0, "fusion_lat": 0.0, "lat": 38.881248, "bike_id": "21442d235f20b843e3ab1d148f6082aa", "fusion_lon": 0.0}, {"rental_uris": {"ios": "https://dc.lft.to/lastmile_qr_scan", "android": "https://dc.lft.to/lastmile_qr_scan"}, "type": "electric_scooter", "name": "cdc90dd7b4284936a09e2461e327ed4b", "is_reserved": 0, "lon": -77.04032083333334, "is_disabled": 0, "fusion_lat": 0.0, "lat": 38.911966, "bike_id": "cdc90dd7b4284936a09e2461e327ed4b", "fusion_lon": 0.0}, {"rental_uris": {"ios": "https://dc.lft.to/lastmile_qr_scan", "android": "https://dc.lft.to/lastmile_qr_scan"}, "type": "electric_scooter", "name": "8277d1e3d40a6ae1bd41fb5d518c354f", "is_reserved": 0, "lon": -77.00540283333333, "is_disabled": 0, "fusion_lat": 0.0, "lat": 38.87471716666667, "bike_id": "8277d1e3d40a6ae1bd41fb5d518c354f", "fusion_lon": 0.0}, {"rental_uris": {"ios": "https://dc.lft.to/lastmile_qr_scan", "android": "https://dc.lft.to/lastmile_qr_scan"}, "type": "electric_bike", "name": "36d4f2a6773dde98f12188ea273e22a2", "is_reserved": 0, "lon": -77.07973433333333, "is_disabled": 0, "fusion_lat": 0.0, "lat": 38.919486166666665, "bike_id": "36d4f2a6773dde98f12188ea273e22a2", "fusion_lon": 0.0}, {"rental_uris": {"ios": "https://dc.lft.to/lastmile_qr_scan", "android": "https://dc.lft.to/lastmile_qr_scan"}, "type": "electric_scooter", "name": "cc9602d60e7224c69192930c25759fc5", "is_reserved": 0, "lon": -77.051986, "is_disabled": 0, "fusion_lat": 0.0, "lat": 38.924600833333336, "bike_id": "cc9602d60e7224c69192930c25759fc5", "fusion_lon": 0.0}, {"rental_uris": {"ios": "https://dc.lft.to/lastmile_qr_scan", "android": "https://dc.lft.to/lastmile_qr_scan"}, "type": "electric_scooter", "name": "c9b9175094305c54e620956161956fd7", "is_reserved": 0, "lon": -77.0240975, "is_disabled": 0, "fusion_lat": 0.0, "lat": 38.938139666666665, "bike_id": "c9b9175094305c54e620956161956fd7", "fusion_lon": 0.0}, {"rental_uris": {"ios": "https://dc.lft.to/lastmile_qr_scan", "android": "https://dc.lft.to/lastmile_qr_scan"}, "type": "electric_scooter", "name": "1fed8beed61e6a10bca41ade4ea1d497", "is_reserved": 0, "lon": -77.02864383333333, "is_disabled": 0, "fusion_lat": 0.0, "lat": 38.913603, "bike_id": "1fed8beed61e6a10bca41ade4ea1d497", "fusion_lon": 0.0}, {"rental_uris": {"ios": "https://dc.lft.to/lastmile_qr_scan", "android": "https://dc.lft.to/lastmile_qr_scan"}, "type": "electric_bike", "name": "dd323075d169a4b4e21afb5f5d4dbce4", "is_reserved": 0, "lon": -76.99279183333333, "is_disabled": 0, "fusion_lat": 0.0, "lat": 38.972609, "bike_id": "dd323075d169a4b4e21afb5f5d4dbce4", "fusion_lon": 0.0}, {"rental_uris": {"ios": "https://dc.lft.to/lastmile_qr_scan", "android": "https://dc.lft.to/lastmile_qr_scan"}, "type": "electric_scooter", "name": "3ba83d975ac0e9788d7d8c67d643ec28", "is_reserved": 0, "lon": -77.01785833333334, "is_disabled": 0, "fusion_lat": 0.0, "lat": 38.876828833333335, "bike_id": "3ba83d975ac0e9788d7d8c67d643ec28", "fusion_lon": 0.0}, {"rental_uris": {"ios": "https://dc.lft.to/lastmile_qr_scan", "android": "https://dc.lft.to/lastmile_qr_scan"}, "type": "electric_scooter", "name": "a9a93b8c8b8e6f5c3f1caf1ff083d195", "is_reserved": 0, "lon": -77.02953966666666, "is_disabled": 0, "fusion_lat": 0.0, "lat": 38.917112833333334, "bike_id": "a9a93b8c8b8e6f5c3f1caf1ff083d195", "fusion_lon": 0.0}, {"rental_uris": {"ios": "https://dc.lft.to/lastmile_qr_scan", "android": "https://dc.lft.to/lastmile_qr_scan"}, "type": "electric_scooter", "name": "3bcd177ab3cbfed0ce6f231a41a80ea9", "is_reserved": 0, "lon": -77.02199483333334, "is_disabled": 0, "fusion_lat": 0.0, "lat": 38.914409166666665, "bike_id": "3bcd177ab3cbfed0ce6f231a41a80ea9", "fusion_lon": 0.0}, {"rental_uris": {"ios": "https://dc.lft.to/lastmile_qr_scan", "android": "https://dc.lft.to/lastmile_qr_scan"}, "type": "electric_scooter", "name": "d6c8e5f4580780a3d2ac1dc9a9f43429", "is_reserved": 0, "lon": -77.01623316666667, "is_disabled": 0, "fusion_lat": 0.0, "lat": 38.90372283333333, "bike_id": "d6c8e5f4580780a3d2ac1dc9a9f43429", "fusion_lon": 0.0}, {"rental_uris": {"ios": "https://dc.lft.to/lastmile_qr_scan", "android": "https://dc.lft.to/lastmile_qr_scan"}, "type": "electric_scooter", "name": "57ebebb87d97339988812c0044ac154a", "is_reserved": 0, "lon": -77.00195983333333, "is_disabled": 0, "fusion_lat": 0.0, "lat": 38.900432, "bike_id": "57ebebb87d97339988812c0044ac154a", "fusion_lon": 0.0}, {"rental_uris": {"ios": "https://dc.lft.to/lastmile_qr_scan", "android": "https://dc.lft.to/lastmile_qr_scan"}, "type": "electric_scooter", "name": "7561799489775843336be416cccc3f6f", "is_reserved": 0, "lon": -76.98184583333334, "is_disabled": 0, "fusion_lat": 0.0, "lat": 38.9057965, "bike_id": "7561799489775843336be416cccc3f6f", "fusion_lon": 0.0}, {"rental_uris": {"ios": "https://dc.lft.to/lastmile_qr_scan", "android": "https://dc.lft.to/lastmile_qr_scan"}, "type": "electric_scooter", "name": "0b426dc9aa5bdd0fc56e62e9a4c9f178", "is_reserved": 0, "lon": -77.01555616666667, "is_disabled": 0, "fusion_lat": 0.0, "lat": 38.88322316666667, "bike_id": "0b426dc9aa5bdd0fc56e62e9a4c9f178", "fusion_lon": 0.0}, {"rental_uris": {"ios": "https://dc.lft.to/lastmile_qr_scan", "android": "https://dc.lft.to/lastmile_qr_scan"}, "type": "electric_scooter", "name": "4568e5e81bf516e7e1fbdb16ae60ac60", "is_reserved": 0, "lon": -77.02302966666667, "is_disabled": 0, "fusion_lat": 0.0, "lat": 38.920821833333335, "bike_id": "4568e5e81bf516e7e1fbdb16ae60ac60", "fusion_lon": 0.0}, {"rental_uris": {"ios": "https://dc.lft.to/lastmile_qr_scan", "android": "https://dc.lft.to/lastmile_qr_scan"}, "type": "electric_scooter", "name": "c782c8bd905c064413522d97968fa01b", "is_reserved": 0, "lon": -77.02411733333334, "is_disabled": 0, "fusion_lat": 0.0, "lat": 38.92070066666667, "bike_id": "c782c8bd905c064413522d97968fa01b", "fusion_lon": 0.0}, {"rental_uris": {"ios": "https://dc.lft.to/lastmile_qr_scan", "android": "https://dc.lft.to/lastmile_qr_scan"}, "type": "electric_bike", "name": "77dc448ea7167c5173fdb51aef022ec5", "is_reserved": 0, "lon": -76.950628, "is_disabled": 0, "fusion_lat": 0.0, "lat": 39.085049, "bike_id": "77dc448ea7167c5173fdb51aef022ec5", "fusion_lon": 0.0},