{"data": {"bikes": [{"is_disabled": 0, "rental_uris": {"android": "https://dc.lft.to/lastmile_qr_scan", "ios": "https://dc.lft.to/lastmile_qr_scan"}, "is_reserved": 0, "name": "9ae99a59db0cfee5ece1ea8864da1920", "lon": -76.96563083333334, "type": "electric_scooter", "bike_id": "9ae99a59db0cfee5ece1ea8864da1920", "fusion_lon": 0.0, "lat": 38.91843316666667, "fusion_lat": 0.0}, {"is_disabled": 0, "rental_uris": {"android": "https://dc.lft.to/lastmile_qr_scan", "ios": "https://dc.lft.to/lastmile_qr_scan"}, "is_reserved": 0, "name": "ab3605a9e26d4f68fab5111cad0a66fd", "lon": -76.99672233333334, "type": "electric_scooter", "bike_id": "ab3605a9e26d4f68fab5111cad0a66fd", "fusion_lon": 0.0, "lat": 38.9218895, "fusion_lat": 0.0}, {"is_disabled": 0, "rental_uris": {"android": "https://dc.lft.to/lastmile_qr_scan", "ios": "https://dc.lft.to/lastmile_qr_scan"}, "is_reserved": 0, "name": "dcca8d52680077c673fa3765a719b8de", "lon": -77.04534516666666, "type": "electric_scooter", "bike_id": "dcca8d52680077c673fa3765a719b8de", "fusion_lon": 0.0, "lat": 38.900638, "fusion_lat": 0.0}, {"is_disabled": 0, "rental_uris": {"android": "https://dc.lft.to/lastmile_qr_scan", "ios": "https://dc.lft.to/lastmile_qr_scan"}, "is_reserved": 0, "name": "f6df43fae331948251945c97669ff05f", "lon": -77.02297566666667, "type": "electric_scooter", "bike_id": "f6df43fae331948251945c97669ff05f", "fusion_lon": 0.0, "lat": 38.90731916666667, "fusion_lat": 0.0}, {"is_disabled": 0, "rental_uris": {"android": "https://dc.lft.to/lastmile_qr_scan", "ios": "https://dc.lft.to/lastmile_qr_scan"}, "is_reserved": 0, "name": "7da2b6d0ae993d650877cf8288d2658a", "lon": -77.00603883333333, "type": "electric_scooter", "bike_id": "7da2b6d0ae993d650877cf8288d2658a", "fusion_lon": 0.0, "lat": 38.876521333333336, "fusion_lat": 0.0}, {"is_disabled": 0, "rental_uris": {"android": "https://dc.lft.to/lastmile_qr_scan", "ios": "https://dc.lft.to/lastmile_qr_scan"}, "is_reserved": 0, "name": "6f874557026178a552247810c60f35d7", "lon": -76.98334983333334, "type": "electric_scooter", "bike_id": "6f874557026178a552247810c60f35d7", "fusion_lon": 0.0, "lat": 38.89545916666667, "fusion_lat": 0.0}, {"is_disabled": 0, "rental_uris": {"android": "https://dc.lft.to/lastmile_qr_scan", "ios": "https://dc.lft.to/lastmile_qr_scan"}, "is_reserved": 0, "name": "e3246c827eab3448a6971d9d75087c64", "lon": -77.00861083333334, "type": "electric_bike", "bike_id": "e3246c827eab3448a6971d9d75087c64", "fusion_lon": 0.0, "lat": 38.827309166666666, "fusion_lat": 0.0}, {"is_disabled": 0, "rental_uris": {"android": "https://dc.lft.to/lastmile_qr_scan", "ios": "https://dc.lft.to/lastmile_qr_scan"}, "is_reserved": 0, "name": "4788f55d69b78cb3a7905c5a2781af65", "lon": -77.04186783333333, "type": "electric_scooter", "bike_id": "4788f55d69b78cb3a7905c5a2781af65", "fusion_lon": 0.0, "lat": 38.91662316666667, "fusion_lat": 0.0}, {"is_disabled": 0, "rental_uris": {"android": "https://dc.lft.to/lastmile_qr_scan", "ios": "https://dc.lft.to/lastmile_qr_scan"}, "is_reserved": 0, "name": "e89d70905638eb0a82522ddf581dc25b", "lon": -76.97963733333333, "type": "electric_bike", "bike_id": "e89d70905638eb0a82522ddf581dc25b", "fusion_lon": 0.0, "lat": 38.901651666666666, "fusion_lat": 0.0}, {"is_disabled": 0, "rental_uris": {"android": "https://dc.lft.to/lastmile_qr_scan", "ios": "https://dc.lft.to/lastmile_qr_scan"}, "is_reserved": 0, "name": "e0b2a188a74d12ebb33ffda2040fe3e7", "lon": -76.9952135, "type": "electric_scooter", "bike_id": "e0b2a188a74d12ebb33ffda2040fe3e7", "fusion_lon": 0.0, "lat": 38.8837235, "fusion_lat": 0.0}, {"is_disabled": 0, "rental_uris": {"android": "https://dc.lft.to/lastmile_qr_scan", "ios": "https://dc.lft.to/lastmile_qr_scan"}, "is_reserved": 0, "name": "dfe95ee43b0738dea8289a0e9956140f", "lon": -77.029946, "type": "electric_scooter", "bike_id": "dfe95ee43b0738dea8289a0e9956140f", "fusion_lon": 0.0, "lat": 38.91713333333333, "fusion_lat": 0.0}, {"is_disabled": 0, "rental_uris": {"android": "https://dc.lft.to/lastmile_qr_scan", "ios": "https://dc.lft.to/lastmile_qr_scan"}, "is_reserved": 0, "name": "695e692da64fa3763c2e2d977267f688", "lon": -77.0287215, "type": "electric_scooter", "bike_id": "695e692da64fa3763c2e2d977267f688", "fusion_lon": 0.0, "lat": 38.8953675, "fusion_lat": 0.0}, {"is_disabled": 0, "rental_uris": {"android": "https://dc.lft.to/lastmile_qr_scan", "ios": "https://dc.lft.to/lastmile_qr_scan"}, "is_reserved": 0, "name": "4540ac84bc432be1c4587083ffdc2578", "lon": -77.020567, "type": "electric_scooter", "bike_id": "4540ac84bc432be1c4587083ffdc2578", "fusion_lon": 0.0, "lat": 38.89712816666667, "fusion_lat": 0.0}, {"is_disabled": 0, "rental_uris": {"android": "https://dc.lft.to/lastmile_qr_scan", "ios": "https://dc.lft.to/lastmile_qr_scan"}, "is_reserved": 0, "name": "48fc14927cb56542b81bc2f6daea3727", "lon": -76.965246, "type": "electric_scooter", "bike_id": "48fc14927cb56542b81bc2f6daea3727", "fusion_lon": 0.0, "lat": 38.8508275, "fusion_lat": 0.0}, {"is_disabled": 0, "rental_uris": {"android": "https://dc.lft.to/lastmile_qr_scan", "ios": "https://dc.lft.to/lastmile_qr_scan"}, "is_reserved": 0, "name": "7c5213e9868d4bc80fa134298035f47c", "lon": -77.02929133333333, "type": "electric_scooter", "bike_id": "7c5213e9868d4bc80fa134298035f47c", "fusion_lon": 0.0, "lat": 38.88218066666667, "fusion_lat": 0.0}, {"is_disabled": 0, "rental_uris": {"android": "https://dc.lft.to/lastmile_qr_scan", "ios": "https://dc.lft.to/lastmile_qr_scan"}, "is_reserved": 0, "name": "5d4f3d9be0112d0aa76a1536ab88dfc7", "lon": -77.04320883333334, "type": "electric_bike", "bike_id": "5d4f3d9be0112d0aa76a1536ab88dfc7", "fusion_lon": 0.0, "lat": 38.83122433333333, "fusion_lat": 0.0}, {"is_disabled": 0, "rental_uris": {"android": "https://dc.lft.to/lastmile_qr_scan", "ios": "https://dc.lft.to/lastmile_qr_scan"}, "is_reserved": 0, "name": "fcb491e29692d7d7adc96ac44b1762e7", "lon": -77.02981333333334, "type": "electric_scooter", "bike_id": "fcb491e29692d7d7adc96ac44b1762e7", "fusion_lon": 0.0, "lat": 38.898270833333335, "fusion_lat": 0.0}, {"is_disabled": 0, "rental_uris": {"android": "https://dc.lft.to/lastmile_qr_scan", "ios": "https://dc.lft.to/lastmile_qr_scan"}, "is_reserved": 0, "name": "9303bbbf4705f3d514c6c65bab3f081b", "lon": -77.03201766666666, "type": "electric_scooter", "bike_id": "9303bbbf4705f3d514c6c65bab3f081b", "fusion_lon": 0.0, "lat": 38.906524, "fusion_lat": 0.0}, {"is_disabled": 0, "rental_uris": {"android": "https://dc.lft.to/lastmile_qr_scan", "ios": "https://dc.lft.to/lastmile_qr_scan"}, "is_reserved": 0, "name": "94ff1a2595bcf21f6142686eb6f67a12", "lon": -77.01747716666667, "type": "electric_scooter", "bike_id": "94ff1a2595bcf21f6142686eb6f67a12", "fusion_lon": 0.0, "lat": 38.90389016666666, "fusion_lat": 0.0}, {"is_disabled": 0, "rental_uris": {"android": "https://dc.lft.to/lastmile_qr_scan", "ios": "https://dc.lft.to/lastmile_qr_scan"}, "is_reserved": 0, "name": "3bc9a66251e6cde5df20ca0e67bffa28", "lon": -77.03420133333333, "type": "electric_scooter", "bike_id": "3bc9a66251e6cde5df20ca0e67bffa28", "fusion_lon": 0.0, "lat": 38.91190133333333, "fusion_lat": 0.0}, {"is_disabled": 0, "rental_uris": {"android": "https://dc.lft.to/lastmile_qr_scan", "ios": "https://dc.lft.to/lastmile_qr_scan"}, "is_reserved": 0, "name": "5620788fa9acdfb3beb79a85bb91b03b", "lon": -77.042395, "type": "electric_scooter", "bike_id": "5620788fa9acdfb3beb79a85bb91b03b", "fusion_lon": 0.0, "lat": 38.91917383333333, "fusion_lat": 0.0}, {"is_disabled": 0, "rental_uris": {"android": "https://dc.lft.to/lastmile_qr_scan", "ios": "https://dc.lft.to/lastmile_qr_scan"}, "is_reserved": 0, "name": "5dbb21aa1a37570ff1f5620102c1cc36", "lon": -76.97531866666667, "type": "electric_scooter", "bike_id": "5dbb21aa1a37570ff1f5620102c1cc36", "fusion_lon": 0.0, "lat": 38.9223305, "fusion_lat": 0.0}, {"is_disabled": 0, "rental_uris": {"android": "https://dc.lft.to/lastmile_qr_scan", "ios": "https://dc.lft.to/lastmile_qr_scan"}, "is_reserved": 0, "name": "cf69a289754b094fb47a2ae7da492497", "lon": -77.05788, "type": "electric_scooter", "bike_id": "cf69a289754b094fb47a2ae7da492497", "fusion_lon": 0.0, "lat": 38.90511, "fusion_lat": 0.0}, {"is_disabled": 0, "rental_uris": {"android": "https://dc.lft.to/lastmile_qr_scan", "ios": "https://dc.lft.to/lastmile_qr_scan"}, "is_reserved": 0, "name": "75d855529c1c87873f554138153c05a1", "lon": -77.01519183333333, "type": "electric_scooter", "bike_id": "75d855529c1c87873f554138153c05a1", "fusion_lon": 0.0, "lat": 38.884866, "fusion_lat": 0.0}, {"is_disabled": 0, "rental_uris": {"android": "https://dc.lft.to/lastmile_qr_scan", "ios": "https://dc.lft.to/lastmile_qr_scan"}, "is_reserved": 0, "name": "67bd3ad7d112763d6d4d8e36ef8bac10", "lon": -77.03273216666666, "type": "electric_scooter", "bike_id": "67bd3ad7d112763d6d4d8e36ef8bac10", "fusion_lon": 0.0, "lat": 38.904619833333335, "fusion_lat": 0.0}, {"is_disabled": 0, "rental_uris": {"android": "https://dc.lft.to/lastmile_qr_scan", "ios": "https://dc.lft.to/lastmile_qr_scan"}, "is_reserved": 0, "name": "85ca07316fad3dbc8754c4a8992fa385", "lon": -77.0317265, "type": "electric_scooter", "bike_id": "85ca07316fad3dbc8754c4a8992fa385", "fusion_lon": 0.0, "lat": 38.91680983333333, "fusion_lat": 0.0}, {"is_disabled": 0, "rental_uris": {"android": "https://dc.lft.to/lastmile_qr_scan", "ios": "https://dc.lft.to/lastmile_qr_scan"}, "is_reserved": 0, "name": "fd495e4f6b289513bc1e718b59208b9c", "lon": -77.03246916666667, "type": "electric_scooter", "bike_id": "fd495e4f6b289513bc1e718b59208b9c", "fusion_lon": 0.0, "lat": 38.901230166666664, "fusion_lat": 0.0}, {"is_disabled": 0, "rental_uris": {"android": "https://dc.lft.to/lastmile_qr_scan", "ios": "https://dc.lft.to/lastmile_qr_scan"}, "is_reserved": 0, "name": "8980918c182de72ab812ab103129ffa9", "lon": -77.03861033333334, "type": "electric_scooter", "bike_id": "8980918c182de72ab812ab103129ffa9", "fusion_lon": 0.0, "lat": 38.90117, "fusion_lat": 0.0}, {"is_disabled": 0, "rental_uris": {"android": "https://dc.lft.to/lastmile_qr_scan", "ios": "https://dc.lft.to/lastmile_qr_scan"}, "is_reserved": 0, "name": "c364d660ce8fc00d2c15c77cb17bdbf4", "lon": -77.02598783333333, "type": "electric_scooter", "bike_id": "c364d660ce8fc00d2c15c77cb17bdbf4", "fusion_lon": 0.0, "lat": 38.905770833333335, "fusion_lat": 0.0}, {"is_disabled": 0, "rental_uris": {"android": "https://dc.lft.to/lastmile_qr_scan", "ios": "https://dc.lft.to/lastmile_qr_scan"}, "is_reserved": 0, "name": "22dde88f0bdaac45801c1221411c4bdf", "lon": -77.04168383333334, "type": "electric_scooter", "bike_id": "22dde88f0bdaac45801c1221411c4bdf", "fusion_lon": 0.0, "lat": 38.91360133333333, "fusion_lat": 0.0}, {"is_disabled": 0, "rental_uris": {"android": "https://dc.lft.to/lastmile_qr_scan", "ios": "https://dc.lft.to/lastmile_qr_scan"}, "is_reserved": 0, "name": "b225cb0f49e93187fccb1078d883679b", "lon": -77.02189483333333, "type": "electric_scooter", "bike_id": "b225cb0f49e93187fccb1078d883679b", "fusion_lon": 0.0, "lat": 38.90580683333334, "fusion_lat": 0.0}, {"is_disabled": 0, "rental_uris": {"android": "https://dc.lft.to/lastmile_qr_scan", "ios": "https://dc.lft.to/lastmile_qr_scan"}, "is_reserved": 0, "name": "27dca69da46fecb52c2ca5fbf22f554a", "lon": -76.99646133333333, "type": "electric_scooter", "bike_id": "27dca69da46fecb52c2ca5fbf22f554a", "fusion_lon": 0.0, "lat": 38.88722466666667, "fusion_lat": 0.0}, {"is_disabled": 0, "rental_uris": {"android": "https://dc.lft.to/lastmile_qr_scan", "ios": "https://dc.lft.to/lastmile_qr_scan"}, "is_reserved": 0, "name": "977a66fc5f8b7ddd8fd4f15b2f5c9f61", "lon": -77.0394505, "type": "electric_scooter", "bike_id": "977a66fc5f8b7ddd8fd4f15b2f5c9f61", "fusion_lon": 0.0, "lat": 38.90964183333333, "fusion_lat": 0.0}, {"is_disabled": 0, "rental_uris": {"android": "https://dc.lft.to/lastmile_qr_scan", "ios": "https://dc.lft.to/lastmile_qr_scan"}, "is_reserved": 0, "name": "166bbd8959d2ff643009426baaf8357e", "lon": -76.96366933333333, "type": "electric_bike", "bike_id": "166bbd8959d2ff643009426baaf8357e", "fusion_lon": 0.0, "lat": 38.94894333333333, "fusion_lat": 0.0}, {"is_disabled": 0, "rental_uris": {"android": "https://dc.lft.to/lastmile_qr_scan", "ios": "https://dc.lft.to/lastmile_qr_scan"}, "is_reserved": 0, "name": "e3b9e8fbc46bed966d0897d08236958e", "lon": -77.04384866666666, "type": "electric_bike", "bike_id": "e3b9e8fbc46bed966d0897d08236958e", "fusion_lon": 0.0, "lat": 39.052681666666665, "fusion_lat": 0.0}, {"is_disabled": 0, "rental_uris": {"android": "https://dc.lft.to/lastmile_qr_scan", "ios": "https://dc.lft.to/lastmile_qr_scan"}, "is_reserved": 0, "name": "8b4f0de47e3cacbcd160fbeafe0a9d20", "lon": -77.03575766666667, "type": "electric_scooter", "bike_id": "8b4f0de47e3cacbcd160fbeafe0a9d20", "fusion_lon": 0.0, "lat": 38.93682283333333, "fusion_lat": 0.0}, {"is_disabled": 0, "rental_uris": {"android": "https://dc.lft.to/lastmile_qr_scan", "ios": "https://dc.lft.to/lastmile_qr_scan"}, "is_reserved": 0, "name": "a423a016bfe551329b44bdb1640a1896", "lon": -76.91232116666667, "type": "electric_scooter", "bike_id": "a423a016bfe551329b44bdb1640a1896", "fusion_lon": 0.0, "lat": 38.89397016666667, "fusion_lat": 0.0}, {"is_disabled": 0, "rental_uris": {"android": "https://dc.lft.to/lastmile_qr_scan", "ios": "https://dc.lft.to/lastmile_qr_scan"}, "is_reserved": 0, "name": "b8c62efdb8c3c412c421241ac645ce54", "lon": -77.06101633333333, "type": "electric_scooter", "bike_id": "b8c62efdb8c3c412c421241ac645ce54", "fusion_lon": 0.0, "lat": 38.937120166666666, "fusion_lat": 0.0}, {"is_disabled": 0, "rental_uris": {"android": "https://dc.lft.to/lastmile_qr_scan", "ios": "https://dc.lft.to/lastmile_qr_scan"}, "is_reserved": 0, "name": "bb7a21c06dc96c90853df3adfbe94037", "lon": -77.0242015, "type": "electric_scooter", "bike_id": "bb7a21c06dc96c90853df3adfbe94037", "fusion_lon": 0.0, "lat": 38.93713616666667, "fusion_lat": 0.0}, {"is_disabled": 0, "rental_uris": {"android": "https://dc.lft.to/lastmile_qr_scan", "ios": "https://dc.lft.to/lastmile_qr_scan"}, "is_reserved": 0, "name": "3328f1df60832da74e216f6c931363f5", "lon": -77.03948583333333, "type": "electric_scooter", "bike_id": "3328f1df60832da74e216f6c931363f5", "fusion_lon": 0.0, "lat": 38.8999975, "fusion_lat": 0.0}, {"is_disabled": 0, "rental_uris": {"android": "https://dc.lft.to/lastmile_qr_scan", "ios": "https://dc.lft.to/lastmile_qr_scan"}, "is_reserved": 0, "name": "a2e826298d78df2e9ab4629266c1ba4d", "lon": -77.041211, "type": "electric_scooter", "bike_id": "a2e826298d78df2e9ab4629266c1ba4d", "fusion_lon": 0.0, "lat": 38.9216565, "fusion_lat": 0.0}, {"is_disabled": 0, "rental_uris": {"android": "https://dc.lft.to/lastmile_qr_scan", "ios": "https://dc.lft.to/lastmile_qr_scan"}, "is_reserved": 0, "name": "77b04584bf04957d4cffb8c4bb7cf156", "lon": -77.00430616666667, "type": "electric_scooter", "bike_id": "77b04584bf04957d4cffb8c4bb7cf156", "fusion_lon": 0.0, "lat": 38.838121, "fusion_lat": 0.0}, {"is_disabled": 0, "rental_uris": {"android": "https://dc.lft.to/lastmile_qr_scan", "ios": "https://dc.lft.to/lastmile_qr_scan"}, "is_reserved": 0, "name": "c987da1cd83f82123b97d696518400ac", "lon": -77.01806916666666, "type": "electric_scooter", "bike_id": "c987da1cd83f82123b97d696518400ac", "fusion_lon": 0.0, "lat": 38.92101616666667, "fusion_lat": 0.0}, {"is_disabled": 0, "rental_uris": {"android": "https://dc.lft.to/lastmile_qr_scan", "ios": "https://dc.lft.to/lastmile_qr_scan"}, "is_reserved": 0, "name": "a11b094bb54de9164b96e57012b58dfa", "lon": -76.98493383333333, "type": "electric_scooter", "bike_id": "a11b094bb54de9164b96e57012b58dfa", "fusion_lon": 0.0, "lat": 38.910121, "fusion_lat": 0.0}, {"is_disabled": 0, "rental_uris": {"android": "https://dc.lft.to/lastmile_qr_scan", "ios": "https://dc.lft.to/lastmile_qr_scan"}, "is_reserved": 0, "name": "a430c20a519bd0fbe8794e532a7a195e", "lon": -77.03210066666666, "type": "electric_scooter", "bike_id": "a430c20a519bd0fbe8794e532a7a195e", "fusion_lon": 0.0, "lat": 38.912267666666665, "fusion_lat": 0.0}, {"is_disabled": 0, "rental_uris": {"android": "https://dc.lft.to/lastmile_qr_scan", "ios": "https://dc.lft.to/lastmile_qr_scan"}, "is_reserved": 0, "name": "8516cf3a64abdc7f5876c867a57eb16d", "lon": -76.98807733333334, "type": "electric_scooter", "bike_id": "8516cf3a64abdc7f5876c867a57eb16d", "fusion_lon": 0.0, "lat": 38.908208, "fusion_lat": 0.0}, {"is_disabled": 0, "rental_uris": {"android": "https://dc.lft.to/lastmile_qr_scan", "ios": "https://dc.lft.to/lastmile_qr_scan"}, "is_reserved": 0, "name": "7bda213e9ca31de365f2645b049d97fe", "lon": -77.02159, "type": "electric_scooter", "bike_id": "7bda213e9ca31de365f2645b049d97fe", "fusion_lon": 0.0, "lat": 38.926037666666666, "fusion_lat": 0.0}, {"is_disabled": 0, "rental_uris": {"android": "https://dc.lft.to/lastmile_qr_scan", "ios": "https://dc.lft.to/lastmile_qr_scan"}, "is_reserved": 0, "name": "c22dea51e06b1a53a83027e2ddd8f9be", "lon": -77.026008, "type": "electric_scooter", "bike_id": "c22dea51e06b1a53a83027e2ddd8f9be", "fusion_lon": 0.0, "lat": 38.916928666666664, "fusion_lat": 0.0}, {"is_disabled": 0, "rental_uris": {"android": "https://dc.lft.to/lastmile_qr_scan", "ios": "https://dc.lft.to/lastmile_qr_scan"}, "is_reserved": 0, "name": "6affc44ef9240a05970f8a86e48b60c7", "lon": -77.0452555, "type": "electric_scooter", "bike_id": "6affc44ef9240a05970f8a86e48b60c7", "fusion_lon": 0.0, "lat": 38.906628166666664, "fusion_lat": 0.0}, {"is_disabled": 0, "rental_uris": {"android": "https://dc.lft.to/lastmile_qr_scan", "ios": "https://dc.lft.to/lastmile_qr_scan"}, "is_reserved": 0, "name": "eb91823d856a9754b1b03b8f5b24536a", "lon": -76.99569216666667, "type": "electric_bike", "bike_id": "eb91823d856a9754b1b03b8f5b24536a", "fusion_lon": 0.0, "lat": 39.0078405, "fusion_lat": 0.0}, {"is_disabled": 0, "rental_uris": {"android": "https://dc.lft.to/lastmile_qr_scan", "ios": "https://dc.lft.to/lastmile_qr_scan"}, "is_reserved": 0, "name": "aaf6b1ca279a3c690aabf9786be26c6c", "lon": -76.9871245, "type": "electric_scooter", "bike_id": "aaf6b1ca279a3c690aabf9786be26c6c", "fusion_lon": 0.0, "lat": 38.8669695, "fusion_lat": 0.0}, {"is_disabled": 0, "rental_uris": {"android": "https://dc.lft.to/lastmile_qr_scan", "ios": "https://dc.lft.to/lastmile_qr_scan"}, "is_reserved": 0, "name": "fe095dc276b6f925ab8a35414d48fe9c", "lon": -77.03205433333333, "type": "electric_scooter", "bike_id": "fe095dc276b6f925ab8a35414d48fe9c", "fusion_lon": 0.0, "lat": 38.91961516666667, "fusion_lat": 0.0}, {"is_disabled": 0, "rental_uris": {"android": "https://dc.lft.to/lastmile_qr_scan", "ios": "https://dc.lft.to/lastmile_qr_scan"}, "is_reserved": 0, "name": "4e254df6fed92bed08322542ae6d46a3", "lon": -76.98871783333334, "type": "electric_scooter", "bike_id": "4e254df6fed92bed08322542ae6d46a3", "fusion_lon": 0.0, "lat": 38.892097166666666, "fusion_lat": 0.0}, {"is_disabled": 0, "rental_uris": {"android": "https://dc.lft.to/lastmile_qr_scan", "ios": "https://dc.lft.to/lastmile_qr_scan"}, "is_reserved": 0, "name": "664ae5c6a7beb73279aba932ec74fee2", "lon": -77.02955, "type": "electric_scooter", "bike_id": "664ae5c6a7beb73279aba932ec74fee2", "fusion_lon": 0.0, "lat": 38.91774316666667, "fusion_lat": 0.0}, {"is_disabled": 0, "rental_uris": {"android": "https://dc.lft.to/lastmile_qr_scan", "ios": "https://dc.lft.to/lastmile_qr_scan"}, "is_reserved": 0, "name": "f6a8a05c59627e44f6d3d8e2f10278ec", "lon": -77.03208033333334, "type": "electric_scooter", "bike_id": "f6a8a05c59627e44f6d3d8e2f10278ec", "fusion_lon": 0.0, "lat": 38.925894, "fusion_lat": 0.0}, {"is_disabled": 0, "rental_uris": {"android": "https://dc.lft.to/lastmile_qr_scan", "ios": "https://dc.lft.to/lastmile_qr_scan"}, "is_reserved": 0, "name": "09c42d45d3b58aa28ae0a0a7b4116bbd", "lon": -77.04027333333333, "type": "electric_scooter", "bike_id": "09c42d45d3b58aa28ae0a0a7b4116bbd", "fusion_lon": 0.0, "lat": 38.91704683333333, "fusion_lat": 0.0}, {"is_disabled": 0, "rental_uris": {"android": "https://dc.lft.to/lastmile_qr_scan", "ios": "https://dc.lft.to/lastmile_qr_scan"}, "is_reserved": 0, "name": "a0589681d152d1cc97ab1eaa08dd16f2", "lon": -77.02615516666667, "type": "electric_scooter", "bike_id": "a0589681d152d1cc97ab1eaa08dd16f2", "fusion_lon": 0.0, "lat": 38.896547, "fusion_lat": 0.0}, {"is_disabled": 0, "rental_uris": {"android": "https://dc.lft.to/lastmile_qr_scan", "ios": "https://dc.lft.to/lastmile_qr_scan"}, "is_reserved": 0, "name": "5c7bb996e84214103396079931d74d1b", "lon": -76.9673625, "type": "electric_bike", "bike_id": "5c7bb996e84214103396079931d74d1b", "fusion_lon": 0.0, "lat": 38.950601666666664, "fusion_lat": 0.0}, {"is_disabled": 0, "rental_uris": {"android": "https://dc.lft.to/lastmile_qr_scan", "ios": "https://dc.lft.to/lastmile_qr_scan"}, "is_reserved": 0, "name": "17680dabb411b608e8116f56aa97675e", "lon": -76.98886416666667, "type": "electric_scooter", "bike_id": "17680dabb411b608e8116f56aa97675e", "fusion_lon": 0.0, "lat": 38.86670083333333, "fusion_lat": 0.0}, {"is_disabled": 0, "rental_uris": {"android": "https://dc.lft.to/lastmile_qr_scan", "ios": "https://dc.lft.to/lastmile_qr_scan"}, "is_reserved": 0, "name": "2b0f6a6dfe6775130a545216dc8ea3f5", "lon": -77.02945466666667, "type": "electric_scooter", "bike_id": "2b0f6a6dfe6775130a545216dc8ea3f5", "fusion_lon": 0.0, "lat": 38.904680666666664, "fusion_lat": 0.0}, {"is_disabled": 0, "rental_uris": {"android": "https://dc.lft.to/lastmile_qr_scan", "ios": "https://dc.lft.to/lastmile_qr_scan"}, "is_reserved": 0, "name": "15ef21741b9bc22fd613159e7e5137dd", "lon": -76.96786816666666, "type": "electric_scooter", "bike_id": "15ef21741b9bc22fd613159e7e5137dd", "fusion_lon": 0.0, "lat": 38.87339933333333, "fusion_lat": 0.0}, {"is_disabled": 0, "rental_uris": {"android": "https://dc.lft.to/lastmile_qr_scan", "ios": "https://dc.lft.to/lastmile_qr_scan"}, "is_reserved": 0, "name": "089f20ada66d547b2b4216b02d055dce", "lon": -77.03052566666666, "type": "electric_scooter", "bike_id": "089f20ada66d547b2b4216b02d055dce", "fusion_lon": 0.0, "lat": 38.901279333333335, "fusion_lat": 0.0}, {"is_disabled": 0, "rental_uris": {"android": "https://dc.lft.to/lastmile_qr_scan", "ios": "https://dc.lft.to/lastmile_qr_scan"}, "is_reserved": 0, "name": "44bf75a398cf21acac963dcfc5872a63", "lon": -77.02351666666667, "type": "electric_scooter", "bike_id": "44bf75a398cf21acac963dcfc5872a63", "fusion_lon": 0.0, "lat": 38.930290166666666, "fusion_lat": 0.0}, {"is_disabled": 0, "rental_uris": {"android": "https://dc.lft.to/lastmile_qr_scan", "ios": "https://dc.lft.to/lastmile_qr_scan"}, "is_reserved": 0, "name": "ec9f733b91a240e183583ca0fe64ec9e", "lon": -77.00848083333334, "type": "electric_scooter", "bike_id": "ec9f733b91a240e183583ca0fe64ec9e", "fusion_lon": 0.0, "lat": 38.885057, "fusion_lat": 0.0}, {"is_disabled": 0, "rental_uris": {"android": "https://dc.lft.to/lastmile_qr_scan", "ios": "https://dc.lft.to/lastmile_qr_scan"}, "is_reserved": 0, "name": "f6abe334fb97a98345b4f6ee89175b4a", "lon": -77.00204733333334, "type": "electric_bike", "bike_id": "f6abe334fb97a98345b4f6ee89175b4a", "fusion_lon": 0.0, "lat": 38.8194525, "fusion_lat": 0.0}, {"is_disabled": 0, "rental_uris": {"android": "https://dc.lft.to/lastmile_qr_scan", "ios": "https://dc.lft.to/lastmile_qr_scan"}, "is_reserved": 0, "name": "867e5f16a47aa5bcb07624b7ec17b3d1", "lon": -77.010595, "type": "electric_scooter", "bike_id": "867e5f16a47aa5bcb07624b7ec17b3d1", "fusion_lon": 0.0, "lat": 38.866630666666666, "fusion_lat": 0.0}, {"is_disabled": 0, "rental_uris": {"android": "https://dc.lft.to/lastmile_qr_scan", "ios": "https://dc.lft.to/lastmile_qr_scan"}, "is_reserved": 0, "name": "16b6dddb0e22828ba06bca8e5973593a", "lon": -77.06702416666667, "type": "electric_scooter", "bike_id": "16b6dddb0e22828ba06bca8e5973593a", "fusion_lon": 0.0, "lat": 38.95591433333333, "fusion_lat": 0.0}, {"is_disabled": 0, "rental_uris": {"android": "https://dc.lft.to/lastmile_qr_scan", "ios": "https://dc.lft.to/lastmile_qr_scan"}, "is_reserved": 0, "name": "528d66aefef7b6155195abc6fe620e4e", "lon": -76.96090016666666, "type": "electric_bike", "bike_id": "528d66aefef7b6155195abc6fe620e4e", "fusion_lon": 0.0, "lat": 38.91852016666667, "fusion_lat": 0.0}, {"is_disabled": 0, "rental_uris": {"android": "https://dc.lft.to/lastmile_qr_scan", "ios": "https://dc.lft.to/lastmile_qr_scan"}, "is_reserved": 0, "name": "874268539784d7c6f01b93e609259c81", "lon": -77.0308525, "type": "electric_scooter", "bike_id": "874268539784d7c6f01b93e609259c81", "fusion_lon": 0.0, "lat": 38.9225235, "fusion_lat": 0.0}, {"is_disabled": 0, "rental_uris": {"android": "https://dc.lft.to/lastmile_qr_scan", "ios": "https://dc.lft.to/lastmile_qr_scan"}, "is_reserved": 0, "name": "bfd39f027657c3d906cd3f7f3429e87b", "lon": -77.06383283333334, "type": "electric_bike", "bike_id": "bfd39f027657c3d906cd3f7f3429e87b", "fusion_lon": 0.0, "lat": 39.0173505, "fusion_lat": 0.0}, {"is_disabled": 0, "rental_uris": {"android": "https://dc.lft.to/lastmile_qr_scan", "ios": "https://dc.lft.to/lastmile_qr_scan"}, "is_reserved": 0, "name": "5e51ba315369182b20b452e1bbbee5f1", "lon": -77.052073, "type": "electric_scooter", "bike_id": "5e51ba315369182b20b452e1bbbee5f1", "fusion_lon": 0.0, "lat": 38.89798016666667, "fusion_lat": 0.0}, {"is_disabled": 0, "rental_uris": {"android": "https://dc.lft.to/lastmile_qr_scan", "ios": "https://dc.lft.to/lastmile_qr_scan"}, "is_reserved": 0, "name": "366b16c4a4ee1a59ff5c6e425845e78b", "lon": -76.9652505, "type": "electric_scooter", "bike_id": "366b16c4a4ee1a59ff5c6e425845e78b", "fusion_lon": 0.0, "lat": 38.87630166666667, "fusion_lat": 0.0}, {"is_disabled": 0, "rental_uris": {"android": "https://dc.lft.to/lastmile_qr_scan", "ios": "https://dc.lft.to/lastmile_qr_scan"}, "is_reserved": 0, "name": "99605b2fbd87c0742cfc4a38e7cae7da", "lon": -77.03657133333333, "type": "electric_scooter", "bike_id": "99605b2fbd87c0742cfc4a38e7cae7da", "fusion_lon": 0.0, "lat": 38.9245865, "fusion_lat": 0.0}, {"is_disabled": 0, "rental_uris": {"android": "https://dc.lft.to/lastmile_qr_scan", "ios": "https://dc.lft.to/lastmile_qr_scan"}, "is_reserved": 0, "name": "7bd51f37b7ef17c5ac164e44066b689f", "lon": -77.02250316666667, "type": "electric_scooter", "bike_id": "7bd51f37b7ef17c5ac164e44066b689f", "fusion_lon": 0.0, "lat": 38.886307, "fusion_lat": 0.0}, {"is_disabled": 0, "rental_uris": {"android": "https://dc.lft.to/lastmile_qr_scan", "ios": "https://dc.lft.to/lastmile_qr_scan"}, "is_reserved": 0, "name": "256efa8b1cbd3ef406592855b644d2d9", "lon": -77.02848633333333, "type": "electric_scooter", "bike_id": "256efa8b1cbd3ef406592855b644d2d9", "fusion_lon": 0.0, "lat": 38.9224515, "fusion_lat": 0.0}, {"is_disabled": 0, "rental_uris": {"android": "https://dc.lft.to/lastmile_qr_scan", "ios": "https://dc.lft.to/lastmile_qr_scan"}, "is_reserved": 0, "name": "e6f921eeafff39f06157ccb7bfda3c39", "lon": -77.03835416666666, "type": "electric_scooter", "bike_id": "e6f921eeafff39f06157ccb7bfda3c39", "fusion_lon": 0.0, "lat": 38.91032883333333, "fusion_lat": 0.0}, {"is_disabled": 0, "rental_uris": {"android": "https://dc.lft.to/lastmile_qr_scan", "ios": "https://dc.lft.to/lastmile_qr_scan"}, "is_reserved": 0, "name": "76e111ca68a15da317dc8f51454ec513", "lon": -76.93370833333333, "type": "electric_scooter", "bike_id": "76e111ca68a15da317dc8f51454ec513", "fusion_lon": 0.0, "lat": 38.899146, "fusion_lat": 0.0}, {"is_disabled": 0, "rental_uris": {"android": "https://dc.lft.to/lastmile_qr_scan", "ios": "https://dc.lft.to/lastmile_qr_scan"}, "is_reserved": 0, "name": "151ccb00b8d98fa41f339ceaee99b07c", "lon": -76.990047, "type": "electric_scooter", "bike_id": "151ccb00b8d98fa41f339ceaee99b07c", "fusion_lon": 0.0, "lat": 38.86505233333333, "fusion_lat": 0.0}, {"is_disabled": 0, "rental_uris": {"android": "https://dc.lft.to/lastmile_qr_scan", "ios": "https://dc.lft.to/lastmile_qr_scan"}, "is_reserved": 0, "name": "e69a8801d452f21f6c77e0da0ad8d916", "lon": -77.01253083333333, "type": "electric_scooter", "bike_id": "e69a8801d452f21f6c77e0da0ad8d916", "fusion_lon": 0.0, "lat": 38.908443, "fusion_lat": 0.0}, {"is_disabled": 0, "rental_uris": {"android": "https://dc.lft.to/lastmile_qr_scan", "ios": "https://dc.lft.to/lastmile_qr_scan"}, "is_reserved": 0, "name": "c8b0d150bf0345ae50ea5bc0d35723dd", "lon": -77.00913633333333, "type": "electric_scooter", "bike_id": "c8b0d150bf0345ae50ea5bc0d35723dd", "fusion_lon": 0.0, "lat": 38.895593166666664, "fusion_lat": 0.0}, {"is_disabled": 0, "rental_uris": {"android": "https://dc.lft.to/lastmile_qr_scan", "ios": "https://dc.lft.to/lastmile_qr_scan"}, "is_reserved": 0, "name": "e60834264716bdbfb5a7c0d577142d44", "lon": -77.01400733333334, "type": "electric_scooter", "bike_id": "e60834264716bdbfb5a7c0d577142d44", "fusion_lon": 0.0, "lat": 38.92845333333333, "fusion_lat": 0.0}, {"is_disabled": 0, "rental_uris": {"android": "https://dc.lft.to/lastmile_qr_scan", "ios": "https://dc.lft.to/lastmile_qr_scan"}, "is_reserved": 0, "name": "0da6f233c2768c70f4eb5b1dec1990af", "lon": -77.0307085, "type": "electric_bike", "bike_id": "0da6f233c2768c70f4eb5b1dec1990af", "fusion_lon": 0.0, "lat": 38.88366633333333, "fusion_lat": 0.0}, {"is_disabled": 0, "rental_uris": {"android": "https://dc.lft.to/lastmile_qr_scan", "ios": "https://dc.lft.to/lastmile_qr_scan"}, "is_reserved": 0, "name": "078c9af7a9508143fde69e7705db3e2a", "lon": -77.01754733333334, "type": "electric_scooter", "bike_id": "078c9af7a9508143fde69e7705db3e2a", "fusion_lon": 0.0, "lat": 38.883206, "fusion_lat": 0.0}, {"is_disabled": 0, "rental_uris": {"android": "https://dc.lft.to/lastmile_qr_scan", "ios": "https://dc.lft.to/lastmile_qr_scan"}, "is_reserved": 0, "name": "6e06b72f4667c68a5baa5bb208b7cadb", "lon": -77.03262716666667, "type": "electric_scooter", "bike_id": "6e06b72f4667c68a5baa5bb208b7cadb", "fusion_lon": 0.0, "lat": 38.909772, "fusion_lat": 0.0}, {"is_disabled": 0, "rental_uris": {"android": "https://dc.lft.to/lastmile_qr_scan", "ios": "https://dc.lft.to/lastmile_qr_scan"}, "is_reserved": 0, "name": "9fc1d9e3ef46ea6205aa5a81fdc1da2f", "lon": -76.99652983333333, "type": "electric_scooter", "bike_id": "9fc1d9e3ef46ea6205aa5a81fdc1da2f", "fusion_lon": 0.0, "lat": 38.88608883333333, "fusion_lat": 0.0}, {"is_disabled": 0, "rental_uris": {"android": "https://dc.lft.to/lastmile_qr_scan", "ios": "https://dc.lft.to/lastmile_qr_scan"}, "is_reserved": 0, "name": "e3196641d37c0276eb10a9606fc901e4", "lon": -76.96547866666667, "type": "electric_scooter", "bike_id": "e3196641d37c0276eb10a9606fc901e4", "fusion_lon": 0.0, "lat": 38.91835283333333, "fusion_lat": 0.0}, {"is_disabled": 0, "rental_uris": {"android": "https://dc.lft.to/lastmile_qr_scan", "ios": "https://dc.lft.to/lastmile_qr_scan"}, "is_reserved": 0, "name": "d02d07af951461c855eb60d87b1945a5", "lon": -76.96882433333333, "type": "electric_bike", "bike_id": "d02d07af951461c855eb60d87b1945a5", "fusion_lon": 0.0, "lat": 38.846051333333335, "fusion_lat": 0.0}, {"is_disabled": 0, "rental_uris": {"android": "https://dc.lft.to/lastmile_qr_scan", "ios": "https://dc.lft.to/lastmile_qr_scan"}, "is_reserved": 0, "name": "a0cd16a9c88126ec97c3b849e9b8b3ed", "lon": -77.0035525, "type": "electric_scooter", "bike_id": "a0cd16a9c88126ec97c3b849e9b8b3ed", "fusion_lon": 0.0, "lat": 38.900820833333334, "fusion_lat": 0.0}, {"is_disabled": 0, "rental_uris": {"android": "https://dc.lft.to/lastmile_qr_scan", "ios": "https://dc.lft.to/lastmile_qr_scan"}, "is_reserved": 0, "name": "9c120dfc01b8aaa922f3e5db81b23163", "lon": -77.01609683333334, "type": "electric_scooter", "bike_id": "9c120dfc01b8aaa922f3e5db81b23163", "fusion_lon": 0.0, "lat": 38.88490183333333, "fusion_lat": 0.0}, {"is_disabled": 0, "rental_uris": {"android": "https://dc.lft.to/lastmile_qr_scan", "ios": "https://dc.lft.to/lastmile_qr_scan"}, "is_reserved": 0, "name": "5f378c9dd28fab6760a6e7321272294b", "lon": -76.97799716666667, "type": "electric_scooter", "bike_id": "5f378c9dd28fab6760a6e7321272294b", "fusion_lon": 0.0, "lat": 38.92063383333333, "fusion_lat": 0.0}, {"is_disabled": 0, "rental_uris": {"android": "https://dc.lft.to/lastmile_qr_scan", "ios": "https://dc.lft.to/lastmile_qr_scan"}, "is_reserved": 0, "name": "0df58467995e1d4d9366e29d706e1f45", "lon": -77.032097, "type": "electric_scooter", "bike_id": "0df58467995e1d4d9366e29d706e1f45", "fusion_lon": 0.0, "lat": 38.93966833333333, "fusion_lat": 0.0}, {"is_disabled": 0, "rental_uris": {"android": "https://dc.lft.to/lastmile_qr_scan", "ios": "https://dc.lft.to/lastmile_qr_scan"}, "is_reserved": 0, "name": "d87769c560a634a1aef96cfff6c194df", "lon": -77.031023, "type": "electric_scooter", "bike_id": "d87769c560a634a1aef96cfff6c194df", "fusion_lon": 0.0, "lat": 38.925769, "fusion_lat": 0.0}, {"is_disabled": 0, "rental_uris": {"android": "https://dc.lft.to/lastmile_qr_scan", "ios": "https://dc.lft.to/lastmile_qr_scan"}, "is_reserved": 0, "name": "90512a23cb7848ff6b15b138d40f297b", "lon": -76.98660316666667, "type": "electric_scooter", "bike_id": "90512a23cb7848ff6b15b138d40f297b", "fusion_lon": 0.0, "lat": 38.90144766666667, "fusion_lat": 0.0}, {"is_disabled": 0, "rental_uris": {"android": "https://dc.lft.to/lastmile_qr_scan", "ios": "https://dc.lft.to/lastmile_qr_scan"}, "is_reserved": 0, "name": "5d22bbae26fce7379167e5f194a36204", "lon": -77.043946, "type": "electric_scooter", "bike_id": "5d22bbae26fce7379167e5f194a36204", "fusion_lon": 0.0, "lat": 38.923518666666666, "fusion_lat": 0.0}, {"is_disabled": 0, "rental_uris": {"android": "https://dc.lft.to/lastmile_qr_scan", "ios": "https://dc.lft.to/lastmile_qr_scan"}, "is_reserved": 0, "name": "7b7395bf0a37ca6ef96392335ba64903", "lon": -77.01495766666666, "type": "electric_scooter", "bike_id": "7b7395bf0a37ca6ef96392335ba64903", "fusion_lon": 0.0, "lat": 38.95646983333334, "fusion_lat": 0.0}, {"is_disabled": 0, "rental_uris": {"android": "https://dc.lft.to/lastmile_qr_scan", "ios": "https://dc.lft.to/lastmile_qr_scan"}, "is_reserved": 0, "name": "d0758821d4fa3ed811e7ef34581db307", "lon": -77.02709033333333, "type": "electric_scooter", "bike_id": "d0758821d4fa3ed811e7ef34581db307", "fusion_lon": 0.0, "lat": 38.90595233333333, "fusion_lat": 0.0}, {"is_disabled": 0, "rental_uris": {"android": "https://dc.lft.to/lastmile_qr_scan", "ios": "https://dc.lft.to/lastmile_qr_scan"}, "is_reserved": 0, "name": "63098419b3cf64efb1da5b2ee7b78497", "lon": -77.04512933333334, "type": "electric_scooter", "bike_id": "63098419b3cf64efb1da5b2ee7b78497", "fusion_lon": 0.0, "lat": 38.88605916666667, "fusion_lat": 0.0}, {"is_disabled": 0, "rental_uris": {"android": "https://dc.lft.to/lastmile_qr_scan", "ios": "https://dc.lft.to/lastmile_qr_scan"}, "is_reserved": 0, "name": "14fdcc957ac54a5bb5439e7c56e01472", "lon": -77.01951883333334, "type": "electric_scooter", "bike_id": "14fdcc957ac54a5bb5439e7c56e01472", "fusion_lon": 0.0, "lat": 38.92251733333333, "fusion_lat": 0.0}, {"is_disabled": 0, "rental_uris": {"android": "https://dc.lft.to/lastmile_qr_scan", "ios": "https://dc.lft.to/lastmile_qr_scan"}, "is_reserved": 0, "name": "9c65a86cbc3bf202d8b10cc9ccc42251", "lon": -77.0349765, "type": "electric_scooter", "bike_id": "9c65a86cbc3bf202d8b10cc9ccc42251", "fusion_lon": 0.0, "lat": 38.917071166666666, "fusion_lat": 0.0}, {"is_disabled": 0, "rental_uris": {"android": "https://dc.lft.to/lastmile_qr_scan", "ios": "https://dc.lft.to/lastmile_qr_scan"}, "is_reserved": 0, "name": "4f3110d821279494cb61023b270c04f9", "lon": -76.98374183333334, "type": "electric_scooter", "bike_id": "4f3110d821279494cb61023b270c04f9", "fusion_lon": 0.0, "lat": 38.8953285, "fusion_lat": 0.0}, {"is_disabled": 0, "rental_uris": {"android": "https://dc.lft.to/lastmile_qr_scan", "ios": "https://dc.lft.to/lastmile_qr_scan"}, "is_reserved": 0, "name": "a86a85f4d5af26c01c8767192914eb97", "lon": -77.00706783333334, "type": "electric_scooter", "bike_id": "a86a85f4d5af26c01c8767192914eb97", "fusion_lon": 0.0, "lat": 38.884997, "fusion_lat": 0.0}, {"is_disabled": 0, "rental_uris": {"android": "https://dc.lft.to/lastmile_qr_scan", "ios": "https://dc.lft.to/lastmile_qr_scan"}, "is_reserved": 0, "name": "218cfe92b4bbbf4c588be9be993906a4", "lon": -77.024714, "type": "electric_scooter", "bike_id": "218cfe92b4bbbf4c588be9be993906a4", "fusion_lon": 0.0, "lat": 38.8978215, "fusion_lat": 0.0}, {"is_disabled": 0, "rental_uris": {"android": "https://dc.lft.to/lastmile_qr_scan", "ios": "https://dc.lft.to/lastmile_qr_scan"}, "is_reserved": 0, "name": "94adf21d7db53e3135d453c781199309", "lon": -77.03475433333334, "type": "electric_scooter", "bike_id": "94adf21d7db53e3135d453c781199309", "fusion_lon": 0.0, "lat": 38.917083166666664, "fusion_lat": 0.0}, {"is_disabled": 0, "rental_uris": {"android": "https://dc.lft.to/lastmile_qr_scan", "ios": "https://dc.lft.to/lastmile_qr_scan"}, "is_reserved": 0, "name": "6f69c55a849290d50b3b1b70e4b29678", "lon": -77.00866216666667, "type": "electric_scooter", "bike_id": "6f69c55a849290d50b3b1b70e4b29678", "fusion_lon": 0.0, "lat": 38.879473, "fusion_lat": 0.0}, {"is_disabled": 0, "rental_uris": {"android": "https://dc.lft.to/lastmile_qr_scan", "ios": "https://dc.lft.to/lastmile_qr_scan"}, "is_reserved": 0, "name": "df6abeb849e4b70a294280a93d0bfe43", "lon": -77.02204166666667, "type": "electric_scooter", "bike_id": "df6abeb849e4b70a294280a93d0bfe43", "fusion_lon": 0.0, "lat": 38.895095833333336, "fusion_lat": 0.0}, {"is_disabled": 0, "rental_uris": {"android": "https://dc.lft.to/lastmile_qr_scan", "ios": "https://dc.lft.to/lastmile_qr_scan"}, "is_reserved": 0, "name": "1ee6c06cf3aca98fc3f6d08ca483c7d8", "lon": -76.99631883333333, "type": "electric_scooter", "bike_id": "1ee6c06cf3aca98fc3f6d08ca483c7d8", "fusion_lon": 0.0, "lat": 38.846218666666665, "fusion_lat": 0.0}, {"is_disabled": 0, "rental_uris": {"android": "https://dc.lft.to/lastmile_qr_scan", "ios": "https://dc.lft.to/lastmile_qr_scan"}, "is_reserved": 0, "name": "1432616938d88e0c25ce10464602ceee", "lon": -77.01491483333334, "type": "electric_scooter", "bike_id": "1432616938d88e0c25ce10464602ceee", "fusion_lon": 0.0, "lat": 38.89917466666667, "fusion_lat": 0.0}, {"is_disabled": 0, "rental_uris": {"android": "https://dc.lft.to/lastmile_qr_scan", "ios": "https://dc.lft.to/lastmile_qr_scan"}, "is_reserved": 0, "name": "24a83ce40f758286eb991a4f86dded52", "lon": -77.04658716666667, "type": "electric_scooter", "bike_id": "24a83ce40f758286eb991a4f86dded52", "fusion_lon": 0.0, "lat": 38.89243466666667, "fusion_lat": 0.0}, {"is_disabled": 0, "rental_uris": {"android": "https://dc.lft.to/lastmile_qr_scan", "ios": "https://dc.lft.to/lastmile_qr_scan"}, "is_reserved": 0, "name": "640287a346842619eb57cb0808d2f8f2", "lon": -77.1623515, "type": "electric_bike", "bike_id": "640287a346842619eb57cb0808d2f8f2", "fusion_lon": 0.0, "lat": 38.88674616666667, "fusion_lat": 0.0}, {"is_disabled": 0, "rental_uris": {"android": "https://dc.lft.to/lastmile_qr_scan", "ios": "https://dc.lft.to/lastmile_qr_scan"}, "is_reserved": 0, "name": "7bda0cd4db34372e54f52706bfffc6cc", "lon": -76.930536, "type": "electric_scooter", "bike_id": "7bda0cd4db34372e54f52706bfffc6cc", "fusion_lon": 0.0, "lat": 38.897944, "fusion_lat": 0.0}, {"is_disabled": 0, "rental_uris": {"android": "https://dc.lft.to/lastmile_qr_scan", "ios": "https://dc.lft.to/lastmile_qr_scan"}, "is_reserved": 0, "name": "8732cc752e0234582b3b22a2917b5b4e", "lon": -76.937402, "type": "electric_scooter", "bike_id": "8732cc752e0234582b3b22a2917b5b4e", "fusion_lon": 0.0, "lat": 38.89010183333333, "fusion_lat": 0.0}, {"is_disabled": 0, "rental_uris": {"android": "https://dc.lft.to/lastmile_qr_scan", "ios": "https://dc.lft.to/lastmile_qr_scan"}, "is_reserved": 0, "name": "03868d041d62b85e3ef381aa5d7667ad", "lon": -77.04154733333333, "type": "electric_scooter", "bike_id": "03868d041d62b85e3ef381aa5d7667ad", "fusion_lon": 0.0, "lat": 38.91419033333333, "fusion_lat": 0.0}, {"is_disabled": 0, "rental_uris": {"android": "https://dc.lft.to/lastmile_qr_scan", "ios": "https://dc.lft.to/lastmile_qr_scan"}, "is_reserved": 0, "name": "e0b0cbc15b7bf6518909836fc3f92ae3", "lon": -77.03349883333334, "type": "electric_scooter", "bike_id": "e0b0cbc15b7bf6518909836fc3f92ae3", "fusion_lon": 0.0, "lat": 38.917954, "fusion_lat": 0.0}, {"is_disabled": 0, "rental_uris": {"android": "https://dc.lft.to/lastmile_qr_scan", "ios": "https://dc.lft.to/lastmile_qr_scan"}, "is_reserved": 0, "name": "517079a15db05e00d67054bc713dfa44", "lon": -77.03186466666666, "type": "electric_scooter", "bike_id": "517079a15db05e00d67054bc713dfa44", "fusion_lon": 0.0, "lat": 38.90985533333333, "fusion_lat": 0.0}, {"is_disabled": 0, "rental_uris": {"android": "https://dc.lft.to/lastmile_qr_scan", "ios": "https://dc.lft.to/lastmile_qr_scan"}, "is_reserved": 0, "name": "a4d6b1c8db4d25ab50550bc284930a91", "lon": -77.02320316666666, "type": "electric_scooter", "bike_id": "a4d6b1c8db4d25ab50550bc284930a91", "fusion_lon": 0.0, "lat": 38.92093333333333, "fusion_lat": 0.0}, {"is_disabled": 0, "rental_uris": {"android": "https://dc.lft.to/lastmile_qr_scan", "ios": "https://dc.lft.to/lastmile_qr_scan"}, "is_reserved": 0, "name": "040840ee93d5e47f86ab0bd817a3b6d2", "lon": -76.996944, "type": "electric_bike", "bike_id": "040840ee93d5e47f86ab0bd817a3b6d2", "fusion_lon": 0.0, "lat": 38.831551, "fusion_lat": 0.0}, {"is_disabled": 0, "rental_uris": {"android": "https://dc.lft.to/lastmile_qr_scan", "ios": "https://dc.lft.to/lastmile_qr_scan"}, "is_reserved": 0, "name": "29546460a6fc6bac0378df8e60262c4b", "lon": -77.034764, "type": "electric_scooter", "bike_id": "29546460a6fc6bac0378df8e60262c4b", "fusion_lon": 0.0, "lat": 38.92149766666667, "fusion_lat": 0.0}, {"is_disabled": 0, "rental_uris": {"android": "https://dc.lft.to/lastmile_qr_scan", "ios": "https://dc.lft.to/lastmile_qr_scan"}, "is_reserved": 0, "name": "73f337fd7d7b34eccfc7454fe785c466", "lon": -77.039255, "type": "electric_scooter", "bike_id": "73f337fd7d7b34eccfc7454fe785c466", "fusion_lon": 0.0, "lat": 38.919129166666664, "fusion_lat": 0.0}, {"is_disabled": 0, "rental_uris": {"android": "https://dc.lft.to/lastmile_qr_scan", "ios": "https://dc.lft.to/lastmile_qr_scan"}, "is_reserved": 0, "name": "6f098662b530d3d444f476ff484d0725", "lon": -77.0321535, "type": "electric_scooter", "bike_id": "6f098662b530d3d444f476ff484d0725", "fusion_lon": 0.0, "lat": 38.9183775, "fusion_lat": 0.0}, {"is_disabled": 0, "rental_uris": {"android": "https://dc.lft.to/lastmile_qr_scan", "ios": "https://dc.lft.to/lastmile_qr_scan"}, "is_reserved": 0, "name": "891ade658c78d56579caaed50aa2731a", "lon": -77.04019333333333, "type": "electric_scooter", "bike_id": "891ade658c78d56579caaed50aa2731a", "fusion_lon": 0.0, "lat": 38.92203033333333, "fusion_lat": 0.0}, {"is_disabled": 0, "rental_uris": {"android": "https://dc.lft.to/lastmile_qr_scan", "ios": "https://dc.lft.to/lastmile_qr_scan"}, "is_reserved": 0, "name": "6953818408ed6e1c0409b786d9d1955d", "lon": -77.02482833333333, "type": "electric_scooter", "bike_id": "6953818408ed6e1c0409b786d9d1955d", "fusion_lon": 0.0, "lat": 38.91615733333333, "fusion_lat": 0.0}, {"is_disabled": 0, "rental_uris": {"android": "https://dc.lft.to/lastmile_qr_scan", "ios": "https://dc.lft.to/lastmile_qr_scan"}, "is_reserved": 0, "name": "ceade7874b0ca11e34112c8b68edbd09", "lon": -77.03817766666667, "type": "electric_scooter", "bike_id": "ceade7874b0ca11e34112c8b68edbd09", "fusion_lon": 0.0, "lat": 38.93065633333333, "fusion_lat": 0.0}, {"is_disabled": 0, "rental_uris": {"android": "https://dc.lft.to/lastmile_qr_scan", "ios": "https://dc.lft.to/lastmile_qr_scan"}, "is_reserved": 0, "name": "fd4838fcc0a02bbc97be6699e21c6739", "lon": -76.99648483333333, "type": "electric_scooter", "bike_id": "fd4838fcc0a02bbc97be6699e21c6739", "fusion_lon": 0.0, "lat": 38.885062166666664, "fusion_lat": 0.0}, {"is_disabled": 0, "rental_uris": {"android": "https://dc.lft.to/lastmile_qr_scan", "ios": "https://dc.lft.to/lastmile_qr_scan"}, "is_reserved": 0, "name": "adf74c6114168a4ded9255ccfa81394a", "lon": -77.00701333333333, "type": "electric_scooter", "bike_id": "adf74c6114168a4ded9255ccfa81394a", "fusion_lon": 0.0, "lat": 38.905589, "fusion_lat": 0.0}, {"is_disabled": 0, "rental_uris": {"android": "https://dc.lft.to/lastmile_qr_scan", "ios": "https://dc.lft.to/lastmile_qr_scan"}, "is_reserved": 0, "name": "bd9f4b500ef8df4c4124a51f6b98e2f4", "lon": -77.03527916666667, "type": "electric_scooter", "bike_id": "bd9f4b500ef8df4c4124a51f6b98e2f4", "fusion_lon": 0.0, "lat": 38.922557, "fusion_lat": 0.0}, {"is_disabled": 0, "rental_uris": {"android": "https://dc.lft.to/lastmile_qr_scan", "ios": "https://dc.lft.to/lastmile_qr_scan"}, "is_reserved": 0, "name": "afb635ff9c100e1945cee4990a017317", "lon": -76.97331366666667, "type": "electric_bike", "bike_id": "afb635ff9c100e1945cee4990a017317", "fusion_lon": 0.0, "lat": 38.85063266666667, "fusion_lat": 0.0}, {"is_disabled": 0, "rental_uris": {"android": "https://dc.lft.to/lastmile_qr_scan", "ios": "https://dc.lft.to/lastmile_qr_scan"}, "is_reserved": 0, "name": "58ae937f735526dee9be66f14611047c", "lon": -77.0128945, "type": "electric_scooter", "bike_id": "58ae937f735526dee9be66f14611047c", "fusion_lon": 0.0, "lat": 38.9202095, "fusion_lat": 0.0}, {"is_disabled": 0, "rental_uris": {"android": "https://dc.lft.to/lastmile_qr_scan", "ios": "https://dc.lft.to/lastmile_qr_scan"}, "is_reserved": 0, "name": "14eadaa2b60b34cd411c4853b71a5aff", "lon": -77.032913, "type": "electric_scooter", "bike_id": "14eadaa2b60b34cd411c4853b71a5aff", "fusion_lon": 0.0, "lat": 38.95637466666667, "fusion_lat": 0.0}, {"is_disabled": 0, "rental_uris": {"android": "https://dc.lft.to/lastmile_qr_scan", "ios": "https://dc.lft.to/lastmile_qr_scan"}, "is_reserved": 0, "name": "61f4b1768e4e1bd15f9fdc7c047b53bc", "lon": -77.03957816666667, "type": "electric_scooter", "bike_id": "61f4b1768e4e1bd15f9fdc7c047b53bc", "fusion_lon": 0.0, "lat": 38.8978885, "fusion_lat": 0.0}, {"is_disabled": 0, "rental_uris": {"android": "https://dc.lft.to/lastmile_qr_scan", "ios": "https://dc.lft.to/lastmile_qr_scan"}, "is_reserved": 0, "name": "bf97509f07a19570dec992ee82a602c8", "lon": -77.02729566666666, "type": "electric_scooter", "bike_id": "bf97509f07a19570dec992ee82a602c8", "fusion_lon": 0.0, "lat": 38.932506000000004, "fusion_lat": 0.0}, {"is_disabled": 0, "rental_uris": {"android": "https://dc.lft.to/lastmile_qr_scan", "ios": "https://dc.lft.to/lastmile_qr_scan"}, "is_reserved": 0, "name": "97de92509574f734c7a4a3b11bbf357e", "lon": -77.03867083333333, "type": "electric_scooter", "bike_id": "97de92509574f734c7a4a3b11bbf357e", "fusion_lon": 0.0, "lat": 38.909088, "fusion_lat": 0.0}, {"is_disabled": 0, "rental_uris": {"android": "https://dc.lft.to/lastmile_qr_scan", "ios": "https://dc.lft.to/lastmile_qr_scan"}, "is_reserved": 0, "name": "87b5e65717afee5869e0d834ea331bbc", "lon": -77.03608983333334, "type": "electric_scooter", "bike_id": "87b5e65717afee5869e0d834ea331bbc", "fusion_lon": 0.0, "lat": 38.93149416666667, "fusion_lat": 0.0}, {"is_disabled": 0, "rental_uris": {"android": "https://dc.lft.to/lastmile_qr_scan", "ios": "https://dc.lft.to/lastmile_qr_scan"}, "is_reserved": 0, "name": "9c2ec9f0c70d36c7f0cc2052b2011539", "lon": -77.01292216666667, "type": "electric_scooter", "bike_id": "9c2ec9f0c70d36c7f0cc2052b2011539", "fusion_lon": 0.0, "lat": 38.900805166666665, "fusion_lat": 0.0}, {"is_disabled": 0, "rental_uris": {"android": "https://dc.lft.to/lastmile_qr_scan", "ios": "https://dc.lft.to/lastmile_qr_scan"}, "is_reserved": 0, "name": "6fe3878ca8c6bc6a7f80dc0eef53da35", "lon": -76.988304, "type": "electric_bike", "bike_id": "6fe3878ca8c6bc6a7f80dc0eef53da35", "fusion_lon": 0.0, "lat": 38.98563, "fusion_lat": 0.0}, {"is_disabled": 0, "rental_uris": {"android": "https://dc.lft.to/lastmile_qr_scan", "ios": "https://dc.lft.to/lastmile_qr_scan"}, "is_reserved": 0, "name": "01d29965dc2c0ad199d51e5ecb7f1a39", "lon": -76.980643, "type": "electric_scooter", "bike_id": "01d29965dc2c0ad199d51e5ecb7f1a39", "fusion_lon": 0.0, "lat": 38.916749833333334, "fusion_lat": 0.0}, {"is_disabled": 0, "rental_uris": {"android": "https://dc.lft.to/lastmile_qr_scan", "ios": "https://dc.lft.to/lastmile_qr_scan"}, "is_reserved": 0, "name": "32334ad914b75d63306c85c9fbb183f5", "lon": -77.10652816666666, "type": "electric_bike", "bike_id": "32334ad914b75d63306c85c9fbb183f5", "fusion_lon": 0.0, "lat": 39.02999616666666, "fusion_lat": 0.0}, {"is_disabled": 0, "rental_uris": {"android": "https://dc.lft.to/lastmile_qr_scan", "ios": "https://dc.lft.to/lastmile_qr_scan"}, "is_reserved": 0, "name": "953332d145eebaff8f1d43ee8e66f9ae", "lon": -77.0285445, "type": "electric_scooter", "bike_id": "953332d145eebaff8f1d43ee8e66f9ae", "fusion_lon": 0.0, "lat": 38.9330065, "fusion_lat": 0.0}, {"is_disabled": 0, "rental_uris": {"android": "https://dc.lft.to/lastmile_qr_scan", "ios": "https://dc.lft.to/lastmile_qr_scan"}, "is_reserved": 0, "name": "c0add518dbc19ba63ade0f1ec3340971", "lon": -77.04621366666667, "type": "electric_scooter", "bike_id": "c0add518dbc19ba63ade0f1ec3340971", "fusion_lon": 0.0, "lat": 38.923184166666665, "fusion_lat": 0.0}, {"is_disabled": 0, "rental_uris": {"android": "https://dc.lft.to/lastmile_qr_scan", "ios": "https://dc.lft.to/lastmile_qr_scan"}, "is_reserved": 0, "name": "8bbea5563511b3aa3086dae6d4382bf7", "lon": -77.03349316666667, "type": "electric_scooter", "bike_id": "8bbea5563511b3aa3086dae6d4382bf7", "fusion_lon": 0.0, "lat": 38.92237766666667, "fusion_lat": 0.0}, {"is_disabled": 0, "rental_uris": {"android": "https://dc.lft.to/lastmile_qr_scan", "ios": "https://dc.lft.to/lastmile_qr_scan"}, "is_reserved": 0, "name": "f2f85dd8e06a9ce2e02666a5915c5663", "lon": -77.04691966666667, "type": "electric_scooter", "bike_id": "f2f85dd8e06a9ce2e02666a5915c5663", "fusion_lon": 0.0, "lat": 38.897422, "fusion_lat": 0.0}, {"is_disabled": 0, "rental_uris": {"android": "https://dc.lft.to/lastmile_qr_scan", "ios": "https://dc.lft.to/lastmile_qr_scan"}, "is_reserved": 0, "name": "63528e533ccd0f7e80d891bcca2b0b47", "lon": -77.03631016666667, "type": "electric_scooter", "bike_id": "63528e533ccd0f7e80d891bcca2b0b47", "fusion_lon": 0.0, "lat": 38.9304935, "fusion_lat": 0.0}, {"is_disabled": 0, "rental_uris": {"android": "https://dc.lft.to/lastmile_qr_scan", "ios": "https://dc.lft.to/lastmile_qr_scan"}, "is_reserved": 0, "name": "73403b9f001a8d86c8ba318f2ef70488", "lon": -77.05075883333333, "type": "electric_scooter", "bike_id": "73403b9f001a8d86c8ba318f2ef70488", "fusion_lon": 0.0, "lat": 38.90529266666667, "fusion_lat": 0.0}, {"is_disabled": 0, "rental_uris": {"android": "https://dc.lft.to/lastmile_qr_scan", "ios": "https://dc.lft.to/lastmile_qr_scan"}, "is_reserved": 0, "name": "b30e1e34e88f534e40c901e5a0171084", "lon": -76.987823, "type": "electric_scooter", "bike_id": "b30e1e34e88f534e40c901e5a0171084", "fusion_lon": 0.0, "lat": 38.8446985, "fusion_lat": 0.0}, {"is_disabled": 0, "rental_uris": {"android": "https://dc.lft.to/lastmile_qr_scan", "ios": "https://dc.lft.to/lastmile_qr_scan"}, "is_reserved": 0, "name": "348dadd0929c5879d60a4b17ae0c89e0", "lon": -77.02744866666667, "type": "electric_scooter", "bike_id": "348dadd0929c5879d60a4b17ae0c89e0", "fusion_lon": 0.0, "lat": 38.94308083333333, "fusion_lat": 0.0}, {"is_disabled": 0, "rental_uris": {"android": "https://dc.lft.to/lastmile_qr_scan", "ios": "https://dc.lft.to/lastmile_qr_scan"}, "is_reserved": 0, "name": "11393ea0b9553586e05e7272e8297bdf", "lon": -77.04184916666667, "type": "electric_scooter", "bike_id": "11393ea0b9553586e05e7272e8297bdf", "fusion_lon": 0.0, "lat": 38.892305, "fusion_lat": 0.0}, {"is_disabled": 0, "rental_uris": {"android": "https://dc.lft.to/lastmile_qr_scan", "ios": "https://dc.lft.to/lastmile_qr_scan"}, "is_reserved": 0, "name": "cb7a592209041254b541bc52d757cf98", "lon": -77.0296095, "type": "electric_scooter", "bike_id": "cb7a592209041254b541bc52d757cf98", "fusion_lon": 0.0, "lat": 38.900024, "fusion_lat": 0.0}, {"is_disabled": 0, "rental_uris": {"android": "https://dc.lft.to/lastmile_qr_scan", "ios": "https://dc.lft.to/lastmile_qr_scan"}, "is_reserved": 0, "name": "21f45a67d1fa4f31e80f519daa08f83c", "lon": -77.03409933333333, "type": "electric_scooter", "bike_id": "21f45a67d1fa4f31e80f519daa08f83c", "fusion_lon": 0.0, "lat": 38.919267, "fusion_lat": 0.0}, {"is_disabled": 0, "rental_uris": {"android": "https://dc.lft.to/lastmile_qr_scan", "ios": "https://dc.lft.to/lastmile_qr_scan"}, "is_reserved": 0, "name": "d9b896b53f3b27fecfb5e4acde1af6dd", "lon": -77.03300483333334, "type": "electric_scooter", "bike_id": "d9b896b53f3b27fecfb5e4acde1af6dd", "fusion_lon": 0.0, "lat": 38.926445, "fusion_lat": 0.0}, {"is_disabled": 0, "rental_uris": {"android": "https://dc.lft.to/lastmile_qr_scan", "ios": "https://dc.lft.to/lastmile_qr_scan"}, "is_reserved": 0, "name": "8a05ccf1365d28e6563f11a5c87527a7", "lon": -76.98209783333333, "type": "electric_bike", "bike_id": "8a05ccf1365d28e6563f11a5c87527a7", "fusion_lon": 0.0, "lat": 38.985026, "fusion_lat": 0.0}, {"is_disabled": 0, "rental_uris": {"android": "https://dc.lft.to/lastmile_qr_scan", "ios": "https://dc.lft.to/lastmile_qr_scan"}, "is_reserved": 0, "name": "920ec6fd85267aa2092255154ef95065", "lon": -76.98780483333333, "type": "electric_scooter", "bike_id": "920ec6fd85267aa2092255154ef95065", "fusion_lon": 0.0, "lat": 38.8982735, "fusion_lat": 0.0}, {"is_disabled": 0, "rental_uris": {"android": "https://dc.lft.to/lastmile_qr_scan", "ios": "https://dc.lft.to/lastmile_qr_scan"}, "is_reserved": 0, "name": "4504fa1bdf6c1864349ee88bfd84b347", "lon": -77.07348033333334, "type": "electric_scooter", "bike_id": "4504fa1bdf6c1864349ee88bfd84b347", "fusion_lon": 0.0, "lat": 38.926184, "fusion_lat": 0.0}, {"is_disabled": 0, "rental_uris": {"android": "https://dc.lft.to/lastmile_qr_scan", "ios": "https://dc.lft.to/lastmile_qr_scan"}, "is_reserved": 0, "name": "56515f0654a51ee5f356d7cd82c6f31c", "lon": -77.03167016666667, "type": "electric_scooter", "bike_id": "56515f0654a51ee5f356d7cd82c6f31c", "fusion_lon": 0.0, "lat": 38.9110935, "fusion_lat": 0.0}, {"is_disabled": 0, "rental_uris": {"android": "https://dc.lft.to/lastmile_qr_scan", "ios": "https://dc.lft.to/lastmile_qr_scan"}, "is_reserved": 0, "name": "81a6851c8b6b7a07f85978d379001819", "lon": -77.03948633333333, "type": "electric_scooter", "bike_id": "81a6851c8b6b7a07f85978d379001819", "fusion_lon": 0.0, "lat": 38.92484366666667, "fusion_lat": 0.0}, {"is_disabled": 0, "rental_uris": {"android": "https://dc.lft.to/lastmile_qr_scan", "ios": "https://dc.lft.to/lastmile_qr_scan"}, "is_reserved": 0, "name": "e006d9f7aa7d58d4ffddd60f737e263b", "lon": -77.0281505, "type": "electric_scooter", "bike_id": "e006d9f7aa7d58d4ffddd60f737e263b", "fusion_lon": 0.0, "lat": 38.904620666666666, "fusion_lat": 0.0}, {"is_disabled": 0, "rental_uris": {"android": "https://dc.lft.to/lastmile_qr_scan", "ios": "https://dc.lft.to/lastmile_qr_scan"}, "is_reserved": 0, "name": "c09a176dbcb4a1e0ae3fc0007fa8c2be", "lon": -76.97149983333334, "type": "electric_bike", "bike_id": "c09a176dbcb4a1e0ae3fc0007fa8c2be", "fusion_lon": 0.0, "lat": 38.915922333333334, "fusion_lat": 0.0}, {"is_disabled": 0, "rental_uris": {"android": "https://dc.lft.to/lastmile_qr_scan", "ios": "https://dc.lft.to/lastmile_qr_scan"}, "is_reserved": 0, "name": "a37f78004ab1fb59f181a5b8ff690519", "lon": -77.02801083333334, "type": "electric_scooter", "bike_id": "a37f78004ab1fb59f181a5b8ff690519", "fusion_lon": 0.0, "lat": 38.90395633333333, "fusion_lat": 0.0}, {"is_disabled": 0, "rental_uris": {"android": "https://dc.lft.to/lastmile_qr_scan", "ios": "https://dc.lft.to/lastmile_qr_scan"}, "is_reserved": 0, "name": "0d576ff66a63685004d6f561293b9948", "lon": -77.13181933333334, "type": "electric_bike", "bike_id": "0d576ff66a63685004d6f561293b9948", "fusion_lon": 0.0, "lat": 38.869118, "fusion_lat": 0.0}, {"is_disabled": 0, "rental_uris": {"android": "https://dc.lft.to/lastmile_qr_scan", "ios": "https://dc.lft.to/lastmile_qr_scan"}, "is_reserved": 0, "name": "2c109953fcef1c746ec8c4dae768d4c2", "lon": -77.0297775, "type": "electric_scooter", "bike_id": "2c109953fcef1c746ec8c4dae768d4c2", "fusion_lon": 0.0, "lat": 38.917029, "fusion_lat": 0.0}, {"is_disabled": 0, "rental_uris": {"android": "https://dc.lft.to/lastmile_qr_scan", "ios": "https://dc.lft.to/lastmile_qr_scan"}, "is_reserved": 0, "name": "4d7bbef0f6a955d7263610869f448fef", "lon": -77.02947283333333, "type": "electric_scooter", "bike_id": "4d7bbef0f6a955d7263610869f448fef", "fusion_lon": 0.0, "lat": 38.89938883333333, "fusion_lat": 0.0}, {"is_disabled": 0, "rental_uris": {"android": "https://dc.lft.to/lastmile_qr_scan", "ios": "https://dc.lft.to/lastmile_qr_scan"}, "is_reserved": 0, "name": "ed0cfa65e0744b724593fda4df7080da", "lon": -77.0340605, "type": "electric_scooter", "bike_id": "ed0cfa65e0744b724593fda4df7080da", "fusion_lon": 0.0, "lat": 38.908832, "fusion_lat": 0.0}, {"is_disabled": 0, "rental_uris": {"android": "https://dc.lft.to/lastmile_qr_scan", "ios": "https://dc.lft.to/lastmile_qr_scan"}, "is_reserved": 0, "name": "2236981be8d7b4e506726fa96458c909", "lon": -77.0153445, "type": "electric_scooter", "bike_id": "2236981be8d7b4e506726fa96458c909", "fusion_lon": 0.0, "lat": 38.887417166666665, "fusion_lat": 0.0}, {"is_disabled": 0, "rental_uris": {"android": "https://dc.lft.to/lastmile_qr_scan", "ios": "https://dc.lft.to/lastmile_qr_scan"}, "is_reserved": 0, "name": "108427c6755e161d285a12fa0811f4e0", "lon": -77.041554, "type": "electric_scooter", "bike_id": "108427c6755e161d285a12fa0811f4e0", "fusion_lon": 0.0, "lat": 38.901217333333335, "fusion_lat": 0.0}, {"is_disabled": 0, "rental_uris": {"android": "https://dc.lft.to/lastmile_qr_scan", "ios": "https://dc.lft.to/lastmile_qr_scan"}, "is_reserved": 0, "name": "f59bc07808846f97ec1721ab32acfa87", "lon": -77.016284, "type": "electric_scooter", "bike_id": "f59bc07808846f97ec1721ab32acfa87", "fusion_lon": 0.0, "lat": 38.895387, "fusion_lat": 0.0}, {"is_disabled": 0, "rental_uris": {"android": "https://dc.lft.to/lastmile_qr_scan", "ios": "https://dc.lft.to/lastmile_qr_scan"}, "is_reserved": 0, "name": "1edb58860f1b652626c58e2136553753", "lon": -76.94634416666666, "type": "electric_scooter", "bike_id": "1edb58860f1b652626c58e2136553753", "fusion_lon": 0.0, "lat": 38.898351, "fusion_lat": 0.0}, {"is_disabled": 0, "rental_uris": {"android": "https://dc.lft.to/lastmile_qr_scan", "ios": "https://dc.lft.to/lastmile_qr_scan"}, "is_reserved": 0, "name": "dddccd4102a6cbab1ca47741ea6cdcc9", "lon": -77.03223816666667, "type": "electric_scooter", "bike_id": "dddccd4102a6cbab1ca47741ea6cdcc9", "fusion_lon": 0.0, "lat": 38.9387505, "fusion_lat": 0.0}, {"is_disabled": 0, "rental_uris": {"android": "https://dc.lft.to/lastmile_qr_scan", "ios": "https://dc.lft.to/lastmile_qr_scan"}, "is_reserved": 0, "name": "97c1f1451a9ff7152dd26ab4d26eb122", "lon": -76.90815866666667, "type": "electric_bike", "bike_id": "97c1f1451a9ff7152dd26ab4d26eb122", "fusion_lon": 0.0, "lat": 38.99452216666667, "fusion_lat": 0.0}, {"is_disabled": 0, "rental_uris": {"android": "https://dc.lft.to/lastmile_qr_scan", "ios": "https://dc.lft.to/lastmile_qr_scan"}, "is_reserved": 0, "name": "f96e87573cd88fe2f3adc0d04308a6c6", "lon": -76.997608, "type": "electric_scooter", "bike_id": "f96e87573cd88fe2f3adc0d04308a6c6", "fusion_lon": 0.0, "lat": 38.92193533333333, "fusion_lat": 0.0}, {"is_disabled": 0, "rental_uris": {"android": "https://dc.lft.to/lastmile_qr_scan", "ios": "https://dc.lft.to/lastmile_qr_scan"}, "is_reserved": 0, "name": "7f6f1f4cf49aba199af54cf671ee8265", "lon": -76.979801, "type": "electric_scooter", "bike_id": "7f6f1f4cf49aba199af54cf671ee8265", "fusion_lon": 0.0, "lat": 38.870648333333335, "fusion_lat": 0.0}, {"is_disabled": 0, "rental_uris": {"android": "https://dc.lft.to/lastmile_qr_scan", "ios": "https://dc.lft.to/lastmile_qr_scan"}, "is_reserved": 0, "name": "099bef9145e6516b689eb7f847b8c914", "lon": -76.979036, "type": "electric_bike", "bike_id": "099bef9145e6516b689eb7f847b8c914", "fusion_lon": 0.0, "lat": 38.85489333333334, "fusion_lat": 0.0}, {"is_disabled": 0, "rental_uris": {"android": "https://dc.lft.to/lastmile_qr_scan", "ios": "https://dc.lft.to/lastmile_qr_scan"}, "is_reserved": 0, "name": "8abd4b9b7567798cc41a2802286ea593", "lon": -76.99534166666666, "type": "electric_scooter", "bike_id": "8abd4b9b7567798cc41a2802286ea593", "fusion_lon": 0.0, "lat": 38.86254916666667, "fusion_lat": 0.0}, {"is_disabled": 0, "rental_uris": {"android": "https://dc.lft.to/lastmile_qr_scan", "ios": "https://dc.lft.to/lastmile_qr_scan"}, "is_reserved": 0, "name": "f7fc7bbc14903a3ac73bb67e590b84c2", "lon": -76.91594, "type": "electric_bike", "bike_id": "f7fc7bbc14903a3ac73bb67e590b84c2", "fusion_lon": 0.0, "lat": 38.880121, "fusion_lat": 0.0}, {"is_disabled": 0, "rental_uris": {"android": "https://dc.lft.to/lastmile_qr_scan", "ios": "https://dc.lft.to/lastmile_qr_scan"}, "is_reserved": 0, "name": "a4744698b762838bb6602ecd6c5ffb4b", "lon": -77.040258, "type": "electric_scooter", "bike_id": "a4744698b762838bb6602ecd6c5ffb4b", "fusion_lon": 0.0, "lat": 38.9242055, "fusion_lat": 0.0}, {"is_disabled": 0, "rental_uris": {"android": "https://dc.lft.to/lastmile_qr_scan", "ios": "https://dc.lft.to/lastmile_qr_scan"}, "is_reserved": 0, "name": "c719d1441a6a143e84812ac66ff746d6", "lon": -77.00768166666667, "type": "electric_scooter", "bike_id": "c719d1441a6a143e84812ac66ff746d6", "fusion_lon": 0.0, "lat": 38.8711305, "fusion_lat": 0.0}, {"is_disabled": 0, "rental_uris": {"android": "https://dc.lft.to/lastmile_qr_scan", "ios": "https://dc.lft.to/lastmile_qr_scan"}, "is_reserved": 0, "name": "d3787cd4a1c8c5712b251ae609cda56f", "lon": -77.00337083333334, "type": "electric_scooter", "bike_id": "d3787cd4a1c8c5712b251ae609cda56f", "fusion_lon": 0.0, "lat": 38.88318866666667, "fusion_lat": 0.0}, {"is_disabled": 0, "rental_uris": {"android": "https://dc.lft.to/lastmile_qr_scan", "ios": "https://dc.lft.to/lastmile_qr_scan"}, "is_reserved": 0, "name": "aa575d4c571801c500ba615f68aad08b", "lon": -77.01939366666667, "type": "electric_scooter", "bike_id": "aa575d4c571801c500ba615f68aad08b", "fusion_lon": 0.0, "lat": 38.947036833333335, "fusion_lat": 0.0}, {"is_disabled": 0, "rental_uris": {"android": "https://dc.lft.to/lastmile_qr_scan", "ios": "https://dc.lft.to/lastmile_qr_scan"}, "is_reserved": 0, "name": "a22984b4b06f0ad7f93d0865f9aecdd0", "lon": -77.03442816666667, "type": "electric_scooter", "bike_id": "a22984b4b06f0ad7f93d0865f9aecdd0", "fusion_lon": 0.0, "lat": 38.915033666666666, "fusion_lat": 0.0}, {"is_disabled": 0, "rental_uris": {"android": "https://dc.lft.to/lastmile_qr_scan", "ios": "https://dc.lft.to/lastmile_qr_scan"}, "is_reserved": 0, "name": "dbc444950785f0f397e3b9e266ce53b0", "lon": -77.03741616666667, "type": "electric_scooter", "bike_id": "dbc444950785f0f397e3b9e266ce53b0", "fusion_lon": 0.0, "lat": 38.911953833333335, "fusion_lat": 0.0}, {"is_disabled": 0, "rental_uris": {"android": "https://dc.lft.to/lastmile_qr_scan", "ios": "https://dc.lft.to/lastmile_qr_scan"}, "is_reserved": 0, "name": "f383a0adfcc8f0afbda7418c92406478", "lon": -77.01640233333333, "type": "electric_scooter", "bike_id": "f383a0adfcc8f0afbda7418c92406478", "fusion_lon": 0.0, "lat": 38.883326833333335, "fusion_lat": 0.0}, {"is_disabled": 0, "rental_uris": {"android": "https://dc.lft.to/lastmile_qr_scan", "ios": "https://dc.lft.to/lastmile_qr_scan"}, "is_reserved": 0, "name": "0859b6aea05581864e3ff6f3b7c206b0", "lon": -77.037484, "type": "electric_scooter", "bike_id": "0859b6aea05581864e3ff6f3b7c206b0", "fusion_lon": 0.0, "lat": 38.90976083333334, "fusion_lat": 0.0}, {"is_disabled": 0, "rental_uris": {"android": "https://dc.lft.to/lastmile_qr_scan", "ios": "https://dc.lft.to/lastmile_qr_scan"}, "is_reserved": 0, "name": "d1b49de7c7e707344a1988970be0a0f6", "lon": -77.1526655, "type": "electric_bike", "bike_id": "d1b49de7c7e707344a1988970be0a0f6", "fusion_lon": 0.0, "lat": 39.105653833333335, "fusion_lat": 0.0}, {"is_disabled": 0, "rental_uris": {"android": "https://dc.lft.to/lastmile_qr_scan", "ios": "https://dc.lft.to/lastmile_qr_scan"}, "is_reserved": 0, "name": "09bfded83431e7badc5348c98709366d", "lon": -77.01222833333334, "type": "electric_scooter", "bike_id": "09bfded83431e7badc5348c98709366d", "fusion_lon": 0.0, "lat": 38.866800833333336, "fusion_lat": 0.0}, {"is_disabled": 0, "rental_uris": {"android": "https://dc.lft.to/lastmile_qr_scan", "ios": "https://dc.lft.to/lastmile_qr_scan"}, "is_reserved": 0, "name": "c95a1040023e2d8f11e7484524c85cd7", "lon": -77.0364975, "type": "electric_scooter", "bike_id": "c95a1040023e2d8f11e7484524c85cd7", "fusion_lon": 0.0, "lat": 38.955896833333334, "fusion_lat": 0.0}, {"is_disabled": 0, "rental_uris": {"android": "https://dc.lft.to/lastmile_qr_scan", "ios": "https://dc.lft.to/lastmile_qr_scan"}, "is_reserved": 0, "name": "56285cd754633ba92a282c252f5e154e", "lon": -76.9683485, "type": "electric_bike", "bike_id": "56285cd754633ba92a282c252f5e154e", "fusion_lon": 0.0, "lat": 38.924435833333334, "fusion_lat": 0.0}, {"is_disabled": 0, "rental_uris": {"android": "https://dc.lft.to/lastmile_qr_scan", "ios": "https://dc.lft.to/lastmile_qr_scan"}, "is_reserved": 0, "name": "ac783eca05f3a3fc9b053cd0acf8e26a", "lon": -77.03206216666666, "type": "electric_scooter", "bike_id": "ac783eca05f3a3fc9b053cd0acf8e26a", "fusion_lon": 0.0, "lat": 38.918077, "fusion_lat": 0.0}, {"is_disabled": 0, "rental_uris": {"android": "https://dc.lft.to/lastmile_qr_scan", "ios": "https://dc.lft.to/lastmile_qr_scan"}, "is_reserved": 0, "name": "0ce91e052d8329f80f3809b66038c539", "lon": -77.0240605, "type": "electric_scooter", "bike_id": "0ce91e052d8329f80f3809b66038c539", "fusion_lon": 0.0, "lat": 38.93476783333333, "fusion_lat": 0.0}, {"is_disabled": 0, "rental_uris": {"android": "https://dc.lft.to/lastmile_qr_scan", "ios": "https://dc.lft.to/lastmile_qr_scan"}, "is_reserved": 0, "name": "3ae23b0420933c756c0b88e7d0e9f0cf", "lon": -77.0299865, "type": "electric_scooter", "bike_id": "3ae23b0420933c756c0b88e7d0e9f0cf", "fusion_lon": 0.0, "lat": 38.9247745, "fusion_lat": 0.0}, {"is_disabled": 0, "rental_uris": {"android": "https://dc.lft.to/lastmile_qr_scan", "ios": "https://dc.lft.to/lastmile_qr_scan"}, "is_reserved": 0, "name": "72c3690b2951d1e0af1f2d3ae89595e8", "lon": -77.03984033333333, "type": "electric_bike", "bike_id": "72c3690b2951d1e0af1f2d3ae89595e8", "fusion_lon": 0.0, "lat": 38.802997166666664, "fusion_lat": 0.0}, {"is_disabled": 0, "rental_uris": {"android": "https://dc.lft.to/lastmile_qr_scan", "ios": "https://dc.lft.to/lastmile_qr_scan"}, "is_reserved": 0, "name": "f5079ee417598f86a31e607be2675250", "lon": -77.01755033333333, "type": "electric_scooter", "bike_id": "f5079ee417598f86a31e607be2675250", "fusion_lon": 0.0, "lat": 38.8832025, "fusion_lat": 0.0}, {"is_disabled": 0, "rental_uris": {"android": "https://dc.lft.to/lastmile_qr_scan", "ios": "https://dc.lft.to/lastmile_qr_scan"}, "is_reserved": 0, "name": "726c3cd1610c5d5b3ba8750a9ba06e9d", "lon": -77.01907933333334, "type": "electric_scooter", "bike_id": "726c3cd1610c5d5b3ba8750a9ba06e9d", "fusion_lon": 0.0, "lat": 38.9039985, "fusion_lat": 0.0}, {"is_disabled": 0, "rental_uris": {"android": "https://dc.lft.to/lastmile_qr_scan", "ios": "https://dc.lft.to/lastmile_qr_scan"}, "is_reserved": 0, "name": "a99c35ca0f7deecec58b3efc06c28196", "lon": -77.09572566666667, "type": "electric_bike", "bike_id": "a99c35ca0f7deecec58b3efc06c28196", "fusion_lon": 0.0, "lat": 38.9168125, "fusion_lat": 0.0}, {"is_disabled": 0, "rental_uris": {"android": "https://dc.lft.to/lastmile_qr_scan", "ios": "https://dc.lft.to/lastmile_qr_scan"}, "is_reserved": 0, "name": "0bb14a8993fd00db5037d84a0c198d1a", "lon": -77.02851716666666, "type": "electric_scooter", "bike_id": "0bb14a8993fd00db5037d84a0c198d1a", "fusion_lon": 0.0, "lat": 38.93183533333333, "fusion_lat": 0.0}, {"is_disabled": 0, "rental_uris": {"android": "https://dc.lft.to/lastmile_qr_scan", "ios": "https://dc.lft.to/lastmile_qr_scan"}, "is_reserved": 0, "name": "dc7e8cd6ffdb3099914066b5970d1b55", "lon": -77.02417166666666, "type": "electric_scooter", "bike_id": "dc7e8cd6ffdb3099914066b5970d1b55", "fusion_lon": 0.0, "lat": 38.908712333333334, "fusion_lat": 0.0}, {"is_disabled": 0, "rental_uris": {"android": "https://dc.lft.to/lastmile_qr_scan", "ios": "https://dc.lft.to/lastmile_qr_scan"}, "is_reserved": 0, "name": "f94978e1402a216337bacac52bf215a1", "lon": -76.98368683333334, "type": "electric_scooter", "bike_id": "f94978e1402a216337bacac52bf215a1", "fusion_lon": 0.0, "lat": 38.91538966666667, "fusion_lat": 0.0}, {"is_disabled": 0, "rental_uris": {"android": "https://dc.lft.to/lastmile_qr_scan", "ios": "https://dc.lft.to/lastmile_qr_scan"}, "is_reserved": 0, "name": "37a0fcc471b3fc1a9732cbe005c27c22", "lon": -77.0071365, "type": "electric_scooter", "bike_id": "37a0fcc471b3fc1a9732cbe005c27c22", "fusion_lon": 0.0, "lat": 38.88492433333333, "fusion_lat": 0.0}, {"is_disabled": 0, "rental_uris": {"android": "https://dc.lft.to/lastmile_qr_scan", "ios": "https://dc.lft.to/lastmile_qr_scan"}, "is_reserved": 0, "name": "5f43aae738af4418ab5a69044f5b1f32", "lon": -77.0407555, "type": "electric_scooter", "bike_id": "5f43aae738af4418ab5a69044f5b1f32", "fusion_lon": 0.0, "lat": 38.900362666666666, "fusion_lat": 0.0}, {"is_disabled": 0, "rental_uris": {"android": "https://dc.lft.to/lastmile_qr_scan", "ios": "https://dc.lft.to/lastmile_qr_scan"}, "is_reserved": 0, "name": "665613b033a3d0227cdbb3d466282341", "lon": -76.995358, "type": "electric_scooter", "bike_id": "665613b033a3d0227cdbb3d466282341", "fusion_lon": 0.0, "lat": 38.862540333333335, "fusion_lat": 0.0}, {"is_disabled": 0, "rental_uris": {"android": "https://dc.lft.to/lastmile_qr_scan", "ios": "https://dc.lft.to/lastmile_qr_scan"}, "is_reserved": 0, "name": "2436b8c1440c179985377a59de6c5602", "lon": -77.0042945, "type": "electric_bike", "bike_id": "2436b8c1440c179985377a59de6c5602", "fusion_lon": 0.0, "lat": 38.876338833333335, "fusion_lat": 0.0}, {"is_disabled": 0, "rental_uris": {"android": "https://dc.lft.to/lastmile_qr_scan", "ios": "https://dc.lft.to/lastmile_qr_scan"}, "is_reserved": 0, "name": "277c1d1719a200ad96c192f879dd5ad1", "lon": -77.0398735, "type": "electric_scooter", "bike_id": "277c1d1719a200ad96c192f879dd5ad1", "fusion_lon": 0.0, "lat": 38.90732833333333, "fusion_lat": 0.0}, {"is_disabled": 0, "rental_uris": {"android": "https://dc.lft.to/lastmile_qr_scan", "ios": "https://dc.lft.to/lastmile_qr_scan"}, "is_reserved": 0, "name": "5e9f621eafdff5560537cb965da14365", "lon": -77.0153665, "type": "electric_scooter", "bike_id": "5e9f621eafdff5560537cb965da14365", "fusion_lon": 0.0, "lat": 38.887424833333334, "fusion_lat": 0.0}, {"is_disabled": 0, "rental_uris": {"android": "https://dc.lft.to/lastmile_qr_scan", "ios": "https://dc.lft.to/lastmile_qr_scan"}, "is_reserved": 0, "name": "8139e7da3ca91e5664f9132c7d40d184", "lon": -77.001617, "type": "electric_scooter", "bike_id": "8139e7da3ca91e5664f9132c7d40d184", "fusion_lon": 0.0, "lat": 38.9079085, "fusion_lat": 0.0}, {"is_disabled": 0, "rental_uris": {"android": "https://dc.lft.to/lastmile_qr_scan", "ios": "https://dc.lft.to/lastmile_qr_scan"}, "is_reserved": 0, "name": "6255e2e684a3b49fba6543889484a15f", "lon": -77.03785116666667, "type": "electric_scooter", "bike_id": "6255e2e684a3b49fba6543889484a15f", "fusion_lon": 0.0, "lat": 38.92628, "fusion_lat": 0.0}, {"is_disabled": 0, "rental_uris": {"android": "https://dc.lft.to/lastmile_qr_scan", "ios": "https://dc.lft.to/lastmile_qr_scan"}, "is_reserved": 0, "name": "8e974213c27275ed1f331fb9f61467f4", "lon": -77.0261555, "type": "electric_scooter", "bike_id": "8e974213c27275ed1f331fb9f61467f4", "fusion_lon": 0.0, "lat": 38.91712283333333, "fusion_lat": 0.0}, {"is_disabled": 0, "rental_uris": {"android": "https://dc.lft.to/lastmile_qr_scan", "ios": "https://dc.lft.to/lastmile_qr_scan"}, "is_reserved": 0, "name": "64b877c107adf86609563a322b8487bf", "lon": -77.0341125, "type": "electric_scooter", "bike_id": "64b877c107adf86609563a322b8487bf", "fusion_lon": 0.0, "lat": 38.91930816666667, "fusion_lat": 0.0}, {"is_disabled": 0, "rental_uris": {"android": "https://dc.lft.to/lastmile_qr_scan", "ios": "https://dc.lft.to/lastmile_qr_scan"}, "is_reserved": 0, "name": "fda1d725a2c976440c0111a82dba9420", "lon": -77.36087083333334, "type": "electric_bike", "bike_id": "fda1d725a2c976440c0111a82dba9420", "fusion_lon": 0.0, "lat": 38.939637, "fusion_lat": 0.0}, {"is_disabled": 0, "rental_uris": {"android": "https://dc.lft.to/lastmile_qr_scan", "ios": "https://dc.lft.to/lastmile_qr_scan"}, "is_reserved": 0, "name": "903d4921bbb8ccf21c2af181a3fc6687", "lon": -77.01365116666666, "type": "electric_scooter", "bike_id": "903d4921bbb8ccf21c2af181a3fc6687", "fusion_lon": 0.0, "lat": 38.87904183333333, "fusion_lat": 0.0}, {"is_disabled": 0, "rental_uris": {"android": "https://dc.lft.to/lastmile_qr_scan", "ios": "https://dc.lft.to/lastmile_qr_scan"}, "is_reserved": 0, "name": "da7bdb9ca19ea2b95e27ce3b72022c55", "lon": -76.98531216666666, "type": "electric_scooter", "bike_id": "da7bdb9ca19ea2b95e27ce3b72022c55", "fusion_lon": 0.0, "lat": 38.907986666666666, "fusion_lat": 0.0}, {"is_disabled": 0, "rental_uris": {"android": "https://dc.lft.to/lastmile_qr_scan", "ios": "https://dc.lft.to/lastmile_qr_scan"}, "is_reserved": 0, "name": "cc88fcd3dc057493ef2950fdf8d6c9b3", "lon": -77.02985066666666, "type": "electric_scooter", "bike_id": "cc88fcd3dc057493ef2950fdf8d6c9b3", "fusion_lon": 0.0, "lat": 38.8973215, "fusion_lat": 0.0}, {"is_disabled": 0, "rental_uris": {"android": "https://dc.lft.to/lastmile_qr_scan", "ios": "https://dc.lft.to/lastmile_qr_scan"}, "is_reserved": 0, "name": "2637aad6e75099870ba2ba6f700dcb7c", "lon": -77.07266833333334, "type": "electric_scooter", "bike_id": "2637aad6e75099870ba2ba6f700dcb7c", "fusion_lon": 0.0, "lat": 38.921912166666665, "fusion_lat": 0.0}, {"is_disabled": 0, "rental_uris": {"android": "https://dc.lft.to/lastmile_qr_scan", "ios": "https://dc.lft.to/lastmile_qr_scan"}, "is_reserved": 0, "name": "a85aef9e46ac31c04b2526e507ffe364", "lon": -76.97853933333333, "type": "electric_bike", "bike_id": "a85aef9e46ac31c04b2526e507ffe364", "fusion_lon": 0.0, "lat": 38.93537416666667, "fusion_lat": 0.0}, {"is_disabled": 0, "rental_uris": {"android": "https://dc.lft.to/lastmile_qr_scan", "ios": "https://dc.lft.to/lastmile_qr_scan"}, "is_reserved": 0, "name": "56983b72a8c8a2d53fce9e4dab4b361b", "lon": -77.01361116666666, "type": "electric_scooter", "bike_id": "56983b72a8c8a2d53fce9e4dab4b361b", "fusion_lon": 0.0, "lat": 38.9302405, "fusion_lat": 0.0}, {"is_disabled": 0, "rental_uris": {"android": "https://dc.lft.to/lastmile_qr_scan", "ios": "https://dc.lft.to/lastmile_qr_scan"}, "is_reserved": 0, "name": "d8225bd3dbf0dee60322a88caefa07d3", "lon": -76.98699783333333, "type": "electric_scooter", "bike_id": "d8225bd3dbf0dee60322a88caefa07d3", "fusion_lon": 0.0, "lat": 38.907073833333335, "fusion_lat": 0.0}, {"is_disabled": 0, "rental_uris": {"android": "https://dc.lft.to/lastmile_qr_scan", "ios": "https://dc.lft.to/lastmile_qr_scan"}, "is_reserved": 0, "name": "55331a11f5f41551f25db8a268975706", "lon": -77.0375375, "type": "electric_scooter", "bike_id": "55331a11f5f41551f25db8a268975706", "fusion_lon": 0.0, "lat": 38.9097945, "fusion_lat": 0.0}, {"is_disabled": 0, "rental_uris": {"android": "https://dc.lft.to/lastmile_qr_scan", "ios": "https://dc.lft.to/lastmile_qr_scan"}, "is_reserved": 0, "name": "355c7a1d85c9ac2c2c4cdb148124f4dc", "lon": -76.97998133333333, "type": "electric_bike", "bike_id": "355c7a1d85c9ac2c2c4cdb148124f4dc", "fusion_lon": 0.0, "lat": 38.877493333333334, "fusion_lat": 0.0}, {"is_disabled": 0, "rental_uris": {"android": "https://dc.lft.to/lastmile_qr_scan", "ios": "https://dc.lft.to/lastmile_qr_scan"}, "is_reserved": 0, "name": "32cce1ddcc1ee1401af43969f177aedb", "lon": -77.12738933333333, "type": "electric_bike", "bike_id": "32cce1ddcc1ee1401af43969f177aedb", "fusion_lon": 0.0, "lat": 38.88821933333333, "fusion_lat": 0.0}, {"is_disabled": 0, "rental_uris": {"android": "https://dc.lft.to/lastmile_qr_scan", "ios": "https://dc.lft.to/lastmile_qr_scan"}, "is_reserved": 0, "name": "02dae80ff81a00169df66140401b3bad", "lon": -76.96557366666667, "type": "electric_scooter", "bike_id": "02dae80ff81a00169df66140401b3bad", "fusion_lon": 0.0, "lat": 38.91838933333333, "fusion_lat": 0.0}, {"is_disabled": 0, "rental_uris": {"android": "https://dc.lft.to/lastmile_qr_scan", "ios": "https://dc.lft.to/lastmile_qr_scan"}, "is_reserved": 0, "name": "b055465a764bc8e2d1c6e873cf3e5f26", "lon": -77.0689885, "type": "electric_scooter", "bike_id": "b055465a764bc8e2d1c6e873cf3e5f26", "fusion_lon": 0.0, "lat": 38.907803, "fusion_lat": 0.0}, {"is_disabled": 0, "rental_uris": {"android": "https://dc.lft.to/lastmile_qr_scan", "ios": "https://dc.lft.to/lastmile_qr_scan"}, "is_reserved": 0, "name": "522dffd6faf5886302aa2d5ce60ea7bf", "lon": -77.03175566666667, "type": "electric_scooter", "bike_id": "522dffd6faf5886302aa2d5ce60ea7bf", "fusion_lon": 0.0, "lat": 38.915783833333336, "fusion_lat": 0.0}, {"is_disabled": 0, "rental_uris": {"android": "https://dc.lft.to/lastmile_qr_scan", "ios": "https://dc.lft.to/lastmile_qr_scan"}, "is_reserved": 0, "name": "aeb4bfcb83a98069c59758e39fd36e0f", "lon": -77.0372015, "type": "electric_scooter", "bike_id": "aeb4bfcb83a98069c59758e39fd36e0f", "fusion_lon": 0.0, "lat": 38.911162, "fusion_lat": 0.0}, {"is_disabled": 0, "rental_uris": {"android": "https://dc.lft.to/lastmile_qr_scan", "ios": "https://dc.lft.to/lastmile_qr_scan"}, "is_reserved": 0, "name": "ec5a1fba4161df4ad62dd9b73bd9c250", "lon": -77.02159983333334, "type": "electric_scooter", "bike_id": "ec5a1fba4161df4ad62dd9b73bd9c250", "fusion_lon": 0.0, "lat": 38.926145, "fusion_lat": 0.0}, {"is_disabled": 0, "rental_uris": {"android": "https://dc.lft.to/lastmile_qr_scan", "ios": "https://dc.lft.to/lastmile_qr_scan"}, "is_reserved": 0, "name": "45cd80ca2860bde856c89b610c480f18", "lon": -77.021737, "type": "electric_scooter", "bike_id": "45cd80ca2860bde856c89b610c480f18", "fusion_lon": 0.0, "lat": 38.895065833333334, "fusion_lat": 0.0}, {"is_disabled": 0, "rental_uris": {"android": "https://dc.lft.to/lastmile_qr_scan", "ios": "https://dc.lft.to/lastmile_qr_scan"}, "is_reserved": 0, "name": "9c79561e49d5ccf9da636dd45eb2a19c", "lon": -77.0082925, "type": "electric_scooter", "bike_id": "9c79561e49d5ccf9da636dd45eb2a19c", "fusion_lon": 0.0, "lat": 38.87658533333333, "fusion_lat": 0.0}, {"is_disabled": 0, "rental_uris": {"android": "https://dc.lft.to/lastmile_qr_scan", "ios": "https://dc.lft.to/lastmile_qr_scan"}, "is_reserved": 0, "name": "88c55a8c5325a46a7ee59c5238d1f284", "lon": -76.98489533333333, "type": "electric_scooter", "bike_id": "88c55a8c5325a46a7ee59c5238d1f284", "fusion_lon": 0.0, "lat": 38.912035833333334, "fusion_lat": 0.0}, {"is_disabled": 0, "rental_uris": {"android": "https://dc.lft.to/lastmile_qr_scan", "ios": "https://dc.lft.to/lastmile_qr_scan"}, "is_reserved": 0, "name": "87522de0a9ff1e1fd59587dd97c3cae1", "lon": -76.96062083333334, "type": "electric_bike", "bike_id": "87522de0a9ff1e1fd59587dd97c3cae1", "fusion_lon": 0.0, "lat": 38.9706245, "fusion_lat": 0.0}, {"is_disabled": 0, "rental_uris": {"android": "https://dc.lft.to/lastmile_qr_scan", "ios": "https://dc.lft.to/lastmile_qr_scan"}, "is_reserved": 0, "name": "2f41ee198c9e0db9b518ee3dc9b65ebc", "lon": -77.03170483333334, "type": "electric_scooter", "bike_id": "2f41ee198c9e0db9b518ee3dc9b65ebc", "fusion_lon": 0.0, "lat": 38.891874333333334, "fusion_lat": 0.0}, {"is_disabled": 0, "rental_uris": {"android": "https://dc.lft.to/lastmile_qr_scan", "ios": "https://dc.lft.to/lastmile_qr_scan"}, "is_reserved": 0, "name": "6f4a4623ea51605017f708096082e18f", "lon": -77.02370533333334, "type": "electric_scooter", "bike_id": "6f4a4623ea51605017f708096082e18f", "fusion_lon": 0.0, "lat": 38.90735016666667, "fusion_lat": 0.0}, {"is_disabled": 0, "rental_uris": {"android": "https://dc.lft.to/lastmile_qr_scan", "ios": "https://dc.lft.to/lastmile_qr_scan"}, "is_reserved": 0, "name": "7401684ff3d97b3bd5d85b72b2a83f59", "lon": -77.04341166666667, "type": "electric_scooter", "bike_id": "7401684ff3d97b3bd5d85b72b2a83f59", "fusion_lon": 0.0, "lat": 38.921619166666666, "fusion_lat": 0.0}, {"is_disabled": 0, "rental_uris": {"android": "https://dc.lft.to/lastmile_qr_scan", "ios": "https://dc.lft.to/lastmile_qr_scan"}, "is_reserved": 0, "name": "358ef573dea2cbeb06a2046f0af20d3f", "lon": -77.049985, "type": "electric_scooter", "bike_id": "358ef573dea2cbeb06a2046f0af20d3f", "fusion_lon": 0.0, "lat": 38.89232333333333, "fusion_lat": 0.0}, {"is_disabled": 0, "rental_uris": {"android": "https://dc.lft.to/lastmile_qr_scan", "ios": "https://dc.lft.to/lastmile_qr_scan"}, "is_reserved": 0, "name": "e8442f09367a5f675cc6f25046f659fc", "lon": -76.9959525, "type": "electric_scooter", "bike_id": "e8442f09367a5f675cc6f25046f659fc", "fusion_lon": 0.0, "lat": 38.900150333333336, "fusion_lat": 0.0}, {"is_disabled": 0, "rental_uris": {"android": "https://dc.lft.to/lastmile_qr_scan", "ios": "https://dc.lft.to/lastmile_qr_scan"}, "is_reserved": 0, "name": "0e2b137fab60282175495c15fd8bd3c3", "lon": -77.0009575, "type": "electric_scooter", "bike_id": "0e2b137fab60282175495c15fd8bd3c3", "fusion_lon": 0.0, "lat": 38.8868105, "fusion_lat": 0.0}, {"is_disabled": 0, "rental_uris": {"android": "https://dc.lft.to/lastmile_qr_scan", "ios": "https://dc.lft.to/lastmile_qr_scan"}, "is_reserved": 0, "name": "e9ac78e43d9e0eceef4794f5051eb28f", "lon": -77.03206133333333, "type": "electric_scooter", "bike_id": "e9ac78e43d9e0eceef4794f5051eb28f", "fusion_lon": 0.0, "lat": 38.91033916666667, "fusion_lat": 0.0}, {"is_disabled": 0, "rental_uris": {"android": "https://dc.lft.to/lastmile_qr_scan", "ios": "https://dc.lft.to/lastmile_qr_scan"}, "is_reserved": 0, "name": "0539af6b2128798d545eca11d9daa73c", "lon": -77.03534983333333, "type": "electric_scooter", "bike_id": "0539af6b2128798d545eca11d9daa73c", "fusion_lon": 0.0, "lat": 38.91835483333333, "fusion_lat": 0.0}, {"is_disabled": 0, "rental_uris": {"android": "https://dc.lft.to/lastmile_qr_scan", "ios": "https://dc.lft.to/lastmile_qr_scan"}, "is_reserved": 0, "name": "a5604780ae35bc08734af44327359159", "lon": -77.034389, "type": "electric_scooter", "bike_id": "a5604780ae35bc08734af44327359159", "fusion_lon": 0.0, "lat": 38.917711833333335, "fusion_lat": 0.0}, {"is_disabled": 0, "rental_uris": {"android": "https://dc.lft.to/lastmile_qr_scan", "ios": "https://dc.lft.to/lastmile_qr_scan"}, "is_reserved": 0, "name": "c896e258179a9418bc0102c58e1294ab", "lon": -77.030837, "type": "electric_scooter", "bike_id": "c896e258179a9418bc0102c58e1294ab", "fusion_lon": 0.0, "lat": 38.90958916666666, "fusion_lat": 0.0}, {"is_disabled": 0, "rental_uris": {"android": "https://dc.lft.to/lastmile_qr_scan", "ios": "https://dc.lft.to/lastmile_qr_scan"}, "is_reserved": 0, "name": "2581a8bca1d6f4a717636836998e29cb", "lon": -77.0400725, "type": "electric_scooter", "bike_id": "2581a8bca1d6f4a717636836998e29cb", "fusion_lon": 0.0, "lat": 38.91038016666667, "fusion_lat": 0.0}, {"is_disabled": 0, "rental_uris": {"android": "https://dc.lft.to/lastmile_qr_scan", "ios": "https://dc.lft.to/lastmile_qr_scan"}, "is_reserved": 0, "name": "67c8ff3fd157d88b8c18e2621951f869", "lon": -76.98656933333334, "type": "electric_scooter", "bike_id": "67c8ff3fd157d88b8c18e2621951f869", "fusion_lon": 0.0, "lat": 38.8580675, "fusion_lat": 0.0}, {"is_disabled": 0, "rental_uris": {"android": "https://dc.lft.to/lastmile_qr_scan", "ios": "https://dc.lft.to/lastmile_qr_scan"}, "is_reserved": 0, "name": "1e8fd006a0906df245657304a12979a1", "lon": -77.0435315, "type": "electric_bike", "bike_id": "1e8fd006a0906df245657304a12979a1", "fusion_lon": 0.0, "lat": 38.90213416666667, "fusion_lat": 0.0}, {"is_disabled": 0, "rental_uris": {"android": "https://dc.lft.to/lastmile_qr_scan", "ios": "https://dc.lft.to/lastmile_qr_scan"}, "is_reserved": 0, "name": "c7b448ac91b401ce8c5b0a88f3f0a98f", "lon": -77.03598683333334, "type": "electric_scooter", "bike_id": "c7b448ac91b401ce8c5b0a88f3f0a98f", "fusion_lon": 0.0, "lat": 38.928635, "fusion_lat": 0.0}, {"is_disabled": 0, "rental_uris": {"android": "https://dc.lft.to/lastmile_qr_scan", "ios": "https://dc.lft.to/lastmile_qr_scan"}, "is_reserved": 0, "name": "446d962781171b7dff0f64ee793211a7", "lon": -77.0318185, "type": "electric_scooter", "bike_id": "446d962781171b7dff0f64ee793211a7", "fusion_lon": 0.0, "lat": 38.883404666666664, "fusion_lat": 0.0}, {"is_disabled": 0, "rental_uris": {"android": "https://dc.lft.to/lastmile_qr_scan", "ios": "https://dc.lft.to/lastmile_qr_scan"}, "is_reserved": 0, "name": "f0f76933d96abdcf1858cc66043da20f", "lon": -77.04093516666667, "type": "electric_scooter", "bike_id": "f0f76933d96abdcf1858cc66043da20f", "fusion_lon": 0.0, "lat": 38.91109266666667, "fusion_lat": 0.0}, {"is_disabled": 0, "rental_uris": {"android": "https://dc.lft.to/lastmile_qr_scan", "ios": "https://dc.lft.to/lastmile_qr_scan"}, "is_reserved": 0, "name": "3db8caa5e809820afff451c4d5987866", "lon": -77.02590016666667, "type": "electric_scooter", "bike_id": "3db8caa5e809820afff451c4d5987866", "fusion_lon": 0.0, "lat": 38.942019, "fusion_lat": 0.0}, {"is_disabled": 0, "rental_uris": {"android": "https://dc.lft.to/lastmile_qr_scan", "ios": "https://dc.lft.to/lastmile_qr_scan"}, "is_reserved": 0, "name": "4cded1eb442bb5e6e16c0922460dd5eb", "lon": -76.98422766666667, "type": "electric_bike", "bike_id": "4cded1eb442bb5e6e16c0922460dd5eb", "fusion_lon": 0.0, "lat": 38.910045333333336, "fusion_lat": 0.0}, {"is_disabled": 0, "rental_uris": {"android": "https://dc.lft.to/lastmile_qr_scan", "ios": "https://dc.lft.to/lastmile_qr_scan"}, "is_reserved": 0, "name": "51cbdaadf8621194343e921f685bd53d", "lon": -77.028125, "type": "electric_scooter", "bike_id": "51cbdaadf8621194343e921f685bd53d", "fusion_lon": 0.0, "lat": 38.9046125, "fusion_lat": 0.0}, {"is_disabled": 0, "rental_uris": {"android": "https://dc.lft.to/lastmile_qr_scan", "ios": "https://dc.lft.to/lastmile_qr_scan"}, "is_reserved": 0, "name": "ffd4f2a347b1129bdf809bb83a9479d2", "lon": -76.98656766666667, "type": "electric_scooter", "bike_id": "ffd4f2a347b1129bdf809bb83a9479d2", "fusion_lon": 0.0, "lat": 38.91313316666667, "fusion_lat": 0.0}, {"is_disabled": 0, "rental_uris": {"android": "https://dc.lft.to/lastmile_qr_scan", "ios": "https://dc.lft.to/lastmile_qr_scan"}, "is_reserved": 0, "name": "34cdd00372272ea0c65b5f4314a65799", "lon": -76.99344183333334, "type": "electric_scooter", "bike_id": "34cdd00372272ea0c65b5f4314a65799", "fusion_lon": 0.0, "lat": 38.8990235, "fusion_lat": 0.0}, {"is_disabled": 0, "rental_uris": {"android": "https://dc.lft.to/lastmile_qr_scan", "ios": "https://dc.lft.to/lastmile_qr_scan"}, "is_reserved": 0, "name": "edd3308d3cd64ab28c46d3f3f7645e14", "lon": -77.03473716666667, "type": "electric_scooter", "bike_id": "edd3308d3cd64ab28c46d3f3f7645e14", "fusion_lon": 0.0, "lat": 38.91708233333333, "fusion_lat": 0.0}, {"is_disabled": 0, "rental_uris": {"android": "https://dc.lft.to/lastmile_qr_scan", "ios": "https://dc.lft.to/lastmile_qr_scan"}, "is_reserved": 0, "name": "b0161fdd941e923834625346888a5587", "lon": -76.9494115, "type": "electric_scooter", "bike_id": "b0161fdd941e923834625346888a5587", "fusion_lon": 0.0, "lat": 38.8832365, "fusion_lat": 0.0}, {"is_disabled": 0, "rental_uris": {"android": "https://dc.lft.to/lastmile_qr_scan", "ios": "https://dc.lft.to/lastmile_qr_scan"}, "is_reserved": 0, "name": "b00e87bdfc9186b05f63216f20d38b24", "lon": -77.04322266666667, "type": "electric_scooter", "bike_id": "b00e87bdfc9186b05f63216f20d38b24", "fusion_lon": 0.0, "lat": 38.92340683333333, "fusion_lat": 0.0}, {"is_disabled": 0, "rental_uris": {"android": "https://dc.lft.to/lastmile_qr_scan", "ios": "https://dc.lft.to/lastmile_qr_scan"}, "is_reserved": 0, "name": "979a5a384f0611830fec764df543bd9b", "lon": -77.0273365, "type": "electric_scooter", "bike_id": "979a5a384f0611830fec764df543bd9b", "fusion_lon": 0.0, "lat": 38.928757833333336, "fusion_lat": 0.0}, {"is_disabled": 0, "rental_uris": {"android": "https://dc.lft.to/lastmile_qr_scan", "ios": "https://dc.lft.to/lastmile_qr_scan"}, "is_reserved": 0, "name": "e0548717fa06ab1137f9942d77afe9cf", "lon": -77.045651, "type": "electric_scooter", "bike_id": "e0548717fa06ab1137f9942d77afe9cf", "fusion_lon": 0.0, "lat": 38.913621666666664, "fusion_lat": 0.0}, {"is_disabled": 0, "rental_uris": {"android": "https://dc.lft.to/lastmile_qr_scan", "ios": "https://dc.lft.to/lastmile_qr_scan"}, "is_reserved": 0, "name": "ca2d5bb94c7ff9bf4b7128e95da711cb", "lon": -76.9928355, "type": "electric_bike", "bike_id": "ca2d5bb94c7ff9bf4b7128e95da711cb", "fusion_lon": 0.0, "lat": 38.858372833333334, "fusion_lat": 0.0}, {"is_disabled": 0, "rental_uris": {"android": "https://dc.lft.to/lastmile_qr_scan", "ios": "https://dc.lft.to/lastmile_qr_scan"}, "is_reserved": 0, "name": "372cefe473329da6374a51138b6f2646", "lon": -77.01013266666666, "type": "electric_scooter", "bike_id": "372cefe473329da6374a51138b6f2646", "fusion_lon": 0.0, "lat": 38.91809933333333, "fusion_lat": 0.0}, {"is_disabled": 0, "rental_uris": {"android": "https://dc.lft.to/lastmile_qr_scan", "ios": "https://dc.lft.to/lastmile_qr_scan"}, "is_reserved": 0, "name": "e25e60111b8b5aa448f4aaa6a6159516", "lon": -77.09444566666667, "type": "electric_scooter", "bike_id": "e25e60111b8b5aa448f4aaa6a6159516", "fusion_lon": 0.0, "lat": 38.917939833333335, "fusion_lat": 0.0}, {"is_disabled": 0, "rental_uris": {"android": "https://dc.lft.to/lastmile_qr_scan", "ios": "https://dc.lft.to/lastmile_qr_scan"}, "is_reserved": 0, "name": "19c5862f76ffc9503cbaf350e051f978", "lon": -76.98306966666667, "type": "electric_scooter", "bike_id": "19c5862f76ffc9503cbaf350e051f978", "fusion_lon": 0.0, "lat": 38.90378366666667, "fusion_lat": 0.0}, {"is_disabled": 0, "rental_uris": {"android": "https://dc.lft.to/lastmile_qr_scan", "ios": "https://dc.lft.to/lastmile_qr_scan"}, "is_reserved": 0, "name": "4efc8f87277a6b16005c52af3f39e7b2", "lon": -77.00199416666666, "type": "electric_scooter", "bike_id": "4efc8f87277a6b16005c52af3f39e7b2", "fusion_lon": 0.0, "lat": 38.90234933333333, "fusion_lat": 0.0}, {"is_disabled": 0, "rental_uris": {"android": "https://dc.lft.to/lastmile_qr_scan", "ios": "https://dc.lft.to/lastmile_qr_scan"}, "is_reserved": 0, "name": "06cc4b089ab16257b8b688934e5a3a2b", "lon": -77.02485366666667, "type": "electric_scooter", "bike_id": "06cc4b089ab16257b8b688934e5a3a2b", "fusion_lon": 0.0, "lat": 38.88418766666667, "fusion_lat": 0.0}, {"is_disabled": 0, "rental_uris": {"android": "https://dc.lft.to/lastmile_qr_scan", "ios": "https://dc.lft.to/lastmile_qr_scan"}, "is_reserved": 0, "name": "35c7bfae46012e3f1dbfb63b09c51c9e", "lon": -77.01546233333333, "type": "electric_scooter", "bike_id": "35c7bfae46012e3f1dbfb63b09c51c9e", "fusion_lon": 0.0, "lat": 38.89534283333333, "fusion_lat": 0.0}, {"is_disabled": 0, "rental_uris": {"android": "https://dc.lft.to/lastmile_qr_scan", "ios": "https://dc.lft.to/lastmile_qr_scan"}, "is_reserved": 0, "name": "a52602daa49e45360777698df81098c2", "lon": -77.02224633333333, "type": "electric_scooter", "bike_id": "a52602daa49e45360777698df81098c2", "fusion_lon": 0.0, "lat": 38.91415633333333, "fusion_lat": 0.0}, {"is_disabled": 0, "rental_uris": {"android": "https://dc.lft.to/lastmile_qr_scan", "ios": "https://dc.lft.to/lastmile_qr_scan"}, "is_reserved": 0, "name": "e6dae6da0029711c0fcc42b912a158e0", "lon": -77.00199583333334, "type": "electric_scooter", "bike_id": "e6dae6da0029711c0fcc42b912a158e0", "fusion_lon": 0.0, "lat": 38.902395, "fusion_lat": 0.0}, {"is_disabled": 0, "rental_uris": {"android": "https://dc.lft.to/lastmile_qr_scan", "ios": "https://dc.lft.to/lastmile_qr_scan"}, "is_reserved": 0, "name": "c40ed7e4b4e170a00bc6ee6bcb24ac40", "lon": -77.04555216666667, "type": "electric_scooter", "bike_id": "c40ed7e4b4e170a00bc6ee6bcb24ac40", "fusion_lon": 0.0, "lat": 38.92424, "fusion_lat": 0.0}, {"is_disabled": 0, "rental_uris": {"android": "https://dc.lft.to/lastmile_qr_scan", "ios": "https://dc.lft.to/lastmile_qr_scan"}, "is_reserved": 0, "name": "57d3ba78dd01e028d7036b06c2b139a2", "lon": -77.0319895, "type": "electric_scooter", "bike_id": "57d3ba78dd01e028d7036b06c2b139a2", "fusion_lon": 0.0, "lat": 38.930652, "fusion_lat": 0.0}, {"is_disabled": 0, "rental_uris": {"android": "https://dc.lft.to/lastmile_qr_scan", "ios": "https://dc.lft.to/lastmile_qr_scan"}, "is_reserved": 0, "name": "cc5491ec29e27544c5cf830495ce7da2", "lon": -77.02856416666667, "type": "electric_scooter", "bike_id": "cc5491ec29e27544c5cf830495ce7da2", "fusion_lon": 0.0, "lat": 38.90231083333333, "fusion_lat": 0.0}, {"is_disabled": 0, "rental_uris": {"android": "https://dc.lft.to/lastmile_qr_scan", "ios": "https://dc.lft.to/lastmile_qr_scan"}, "is_reserved": 0, "name": "61e719f84e2f5eb51dc06b46de755a49", "lon": -77.0326345, "type": "electric_scooter", "bike_id": "61e719f84e2f5eb51dc06b46de755a49", "fusion_lon": 0.0, "lat": 38.932557833333334, "fusion_lat": 0.0}, {"is_disabled": 0, "rental_uris": {"android": "https://dc.lft.to/lastmile_qr_scan", "ios": "https://dc.lft.to/lastmile_qr_scan"}, "is_reserved": 0, "name": "0a54d280988467fbc147dc7292aa5e21", "lon": -77.01971633333334, "type": "electric_scooter", "bike_id": "0a54d280988467fbc147dc7292aa5e21", "fusion_lon": 0.0, "lat": 38.895090333333336, "fusion_lat": 0.0}, {"is_disabled": 0, "rental_uris": {"android": "https://dc.lft.to/lastmile_qr_scan", "ios": "https://dc.lft.to/lastmile_qr_scan"}, "is_reserved": 0, "name": "5181a69ab7cb8b7f16f128a5b7d4c2a1", "lon": -76.94883783333333, "type": "electric_scooter", "bike_id": "5181a69ab7cb8b7f16f128a5b7d4c2a1", "fusion_lon": 0.0, "lat": 38.89511183333333, "fusion_lat": 0.0}, {"is_disabled": 0, "rental_uris": {"android": "https://dc.lft.to/lastmile_qr_scan", "ios": "https://dc.lft.to/lastmile_qr_scan"}, "is_reserved": 0, "name": "a84090a6a43e1456760c7872edcecf5e", "lon": -77.032925, "type": "electric_scooter", "bike_id": "a84090a6a43e1456760c7872edcecf5e", "fusion_lon": 0.0, "lat": 38.90841133333333, "fusion_lat": 0.0}, {"is_disabled": 0, "rental_uris": {"android": "https://dc.lft.to/lastmile_qr_scan", "ios": "https://dc.lft.to/lastmile_qr_scan"}, "is_reserved": 0, "name": "887f42bd1007d1580b9bb3f33755e329", "lon": -77.04361216666666, "type": "electric_scooter", "bike_id": "887f42bd1007d1580b9bb3f33755e329", "fusion_lon": 0.0, "lat": 38.91041383333334, "fusion_lat": 0.0}, {"is_disabled": 0, "rental_uris": {"android": "https://dc.lft.to/lastmile_qr_scan", "ios": "https://dc.lft.to/lastmile_qr_scan"}, "is_reserved": 0, "name": "6bc797ae2e607c6d15e426def8ff522e", "lon": -76.993987, "type": "electric_scooter", "bike_id": "6bc797ae2e607c6d15e426def8ff522e", "fusion_lon": 0.0, "lat": 38.921660833333334, "fusion_lat": 0.0}, {"is_disabled": 0, "rental_uris": {"android": "https://dc.lft.to/lastmile_qr_scan", "ios": "https://dc.lft.to/lastmile_qr_scan"}, "is_reserved": 0, "name": "786052abb34765489d2a3cff20f55dc2", "lon": -77.0271545, "type": "electric_scooter", "bike_id": "786052abb34765489d2a3cff20f55dc2", "fusion_lon": 0.0, "lat": 38.91098366666667, "fusion_lat": 0.0}, {"is_disabled": 0, "rental_uris": {"android": "https://dc.lft.to/lastmile_qr_scan", "ios": "https://dc.lft.to/lastmile_qr_scan"}, "is_reserved": 0, "name": "ae8c3c544be6a0dcef8de9669b110b0b", "lon": -77.043528, "type": "electric_scooter", "bike_id": "ae8c3c544be6a0dcef8de9669b110b0b", "fusion_lon": 0.0, "lat": 38.921420833333336, "fusion_lat": 0.0}, {"is_disabled": 0, "rental_uris": {"android": "https://dc.lft.to/lastmile_qr_scan", "ios": "https://dc.lft.to/lastmile_qr_scan"}, "is_reserved": 0, "name": "463cf53aa62c659477a844820b5472a3", "lon": -77.03269216666666, "type": "electric_scooter", "bike_id": "463cf53aa62c659477a844820b5472a3", "fusion_lon": 0.0, "lat": 38.9332935, "fusion_lat": 0.0}, {"is_disabled": 0, "rental_uris": {"android": "https://dc.lft.to/lastmile_qr_scan", "ios": "https://dc.lft.to/lastmile_qr_scan"}, "is_reserved": 0, "name": "a9dab45d60d0a1754051cf915db2d184", "lon": -77.00921916666667, "type": "electric_scooter", "bike_id": "a9dab45d60d0a1754051cf915db2d184", "fusion_lon": 0.0, "lat": 38.897853166666664, "fusion_lat": 0.0}, {"is_disabled": 0, "rental_uris": {"android": "https://dc.lft.to/lastmile_qr_scan", "ios": "https://dc.lft.to/lastmile_qr_scan"}, "is_reserved": 0, "name": "5af66e48bd194ecdd8c8805d4ed1c467", "lon": -77.04202583333333, "type": "electric_scooter", "bike_id": "5af66e48bd194ecdd8c8805d4ed1c467", "fusion_lon": 0.0, "lat": 38.929659, "fusion_lat": 0.0}, {"is_disabled": 0, "rental_uris": {"android": "https://dc.lft.to/lastmile_qr_scan", "ios": "https://dc.lft.to/lastmile_qr_scan"}, "is_reserved": 0, "name": "81b665d13770a98825c0493c18704e03", "lon": -77.00756516666667, "type": "electric_bike", "bike_id": "81b665d13770a98825c0493c18704e03", "fusion_lon": 0.0, "lat": 38.8771035, "fusion_lat": 0.0}, {"is_disabled": 0, "rental_uris": {"android": "https://dc.lft.to/lastmile_qr_scan", "ios": "https://dc.lft.to/lastmile_qr_scan"}, "is_reserved": 0, "name": "220a5594dfb9423f4871eccabfebe564", "lon": -77.043952, "type": "electric_scooter", "bike_id": "220a5594dfb9423f4871eccabfebe564", "fusion_lon": 0.0, "lat": 38.90715983333333, "fusion_lat": 0.0}, {"is_disabled": 0, "rental_uris": {"android": "https://dc.lft.to/lastmile_qr_scan", "ios": "https://dc.lft.to/lastmile_qr_scan"}, "is_reserved": 0, "name": "bdc6cf27dc6600a4defe31e7356dcb35", "lon": -76.9870805, "type": "electric_scooter", "bike_id": "bdc6cf27dc6600a4defe31e7356dcb35", "fusion_lon": 0.0, "lat": 38.8669715, "fusion_lat": 0.0}, {"is_disabled": 0, "rental_uris": {"android": "https://dc.lft.to/lastmile_qr_scan", "ios": "https://dc.lft.to/lastmile_qr_scan"}, "is_reserved": 0, "name": "ea15776c9e37debaf71662a947aad121", "lon": -77.041617, "type": "electric_scooter", "bike_id": "ea15776c9e37debaf71662a947aad121", "fusion_lon": 0.0, "lat": 38.910286666666664, "fusion_lat": 0.0}, {"is_disabled": 0, "rental_uris": {"android": "https://dc.lft.to/lastmile_qr_scan", "ios": "https://dc.lft.to/lastmile_qr_scan"}, "is_reserved": 0, "name": "7e671eabbcda31d5bca829912d4fa854", "lon": -77.03135516666667, "type": "electric_scooter", "bike_id": "7e671eabbcda31d5bca829912d4fa854", "fusion_lon": 0.0, "lat": 38.9201365, "fusion_lat": 0.0}, {"is_disabled": 0, "rental_uris": {"android": "https://dc.lft.to/lastmile_qr_scan", "ios": "https://dc.lft.to/lastmile_qr_scan"}, "is_reserved": 0, "name": "4c55d6c7e3caa4d548644662a1c3769e", "lon": -77.005587, "type": "electric_scooter", "bike_id": "4c55d6c7e3caa4d548644662a1c3769e", "fusion_lon": 0.0, "lat": 38.87472483333333, "fusion_lat": 0.0}, {"is_disabled": 0, "rental_uris": {"android": "https://dc.lft.to/lastmile_qr_scan", "ios": "https://dc.lft.to/lastmile_qr_scan"}, "is_reserved": 0, "name": "f46e6f058f0f1295b294fb6499fd0091", "lon": -76.92827366666667, "type": "electric_scooter", "bike_id": "f46e6f058f0f1295b294fb6499fd0091", "fusion_lon": 0.0, "lat": 38.901810833333336, "fusion_lat": 0.0}, {"is_disabled": 0, "rental_uris": {"android": "https://dc.lft.to/lastmile_qr_scan", "ios": "https://dc.lft.to/lastmile_qr_scan"}, "is_reserved": 0, "name": "ecc51d50d82d6b5c0fb95934206b556f", "lon": -77.02523366666667, "type": "electric_scooter", "bike_id": "ecc51d50d82d6b5c0fb95934206b556f", "fusion_lon": 0.0, "lat": 38.92070666666667, "fusion_lat": 0.0}, {"is_disabled": 0, "rental_uris": {"android": "https://dc.lft.to/lastmile_qr_scan", "ios": "https://dc.lft.to/lastmile_qr_scan"}, "is_reserved": 0, "name": "852314ed68dbb4dcc9ed3faa85a70124", "lon": -77.0327705, "type": "electric_scooter", "bike_id": "852314ed68dbb4dcc9ed3faa85a70124", "fusion_lon": 0.0, "lat": 38.93253883333333, "fusion_lat": 0.0}, {"is_disabled": 0, "rental_uris": {"android": "https://dc.lft.to/lastmile_qr_scan", "ios": "https://dc.lft.to/lastmile_qr_scan"}, "is_reserved": 0, "name": "602fcb57947d89c96b3b4585dbdb7304", "lon": -77.04612733333333, "type": "electric_scooter", "bike_id": "602fcb57947d89c96b3b4585dbdb7304", "fusion_lon": 0.0, "lat": 38.899685833333336, "fusion_lat": 0.0}, {"is_disabled": 0, "rental_uris": {"android": "https://dc.lft.to/lastmile_qr_scan", "ios": "https://dc.lft.to/lastmile_qr_scan"},