{"data": {"bikes": [{"lon": -77.027047, "bike_id": "70c0ce9d44792af5f35fc5e0d52fa342", "lat": 38.927826, "fusion_lon": 0.0, "fusion_lat": 0.0, "type": "electric_scooter", "name": "70c0ce9d44792af5f35fc5e0d52fa342", "is_disabled": 0, "rental_uris": {"ios": "https://dc.lft.to/lastmile_qr_scan", "android": "https://dc.lft.to/lastmile_qr_scan"}, "is_reserved": 0}, {"lon": -77.04507966666667, "bike_id": "f4bc00dc5804f0f31c9d46e3def0cec9", "lat": 38.89238016666667, "fusion_lon": 0.0, "fusion_lat": 0.0, "type": "electric_scooter", "name": "f4bc00dc5804f0f31c9d46e3def0cec9", "is_disabled": 0, "rental_uris": {"ios": "https://dc.lft.to/lastmile_qr_scan", "android": "https://dc.lft.to/lastmile_qr_scan"}, "is_reserved": 0}, {"lon": -76.984918, "bike_id": "c877f4545d50068fb21c86e50efeab0a", "lat": 38.8783165, "fusion_lon": 0.0, "fusion_lat": 0.0, "type": "electric_scooter", "name": "c877f4545d50068fb21c86e50efeab0a", "is_disabled": 0, "rental_uris": {"ios": "https://dc.lft.to/lastmile_qr_scan", "android": "https://dc.lft.to/lastmile_qr_scan"}, "is_reserved": 0}, {"lon": -77.05227866666667, "bike_id": "97502673bbc90d0a1558065668c124ba", "lat": 38.9249575, "fusion_lon": 0.0, "fusion_lat": 0.0, "type": "electric_scooter", "name": "97502673bbc90d0a1558065668c124ba", "is_disabled": 0, "rental_uris": {"ios": "https://dc.lft.to/lastmile_qr_scan", "android": "https://dc.lft.to/lastmile_qr_scan"}, "is_reserved": 0}, {"lon": -76.93364883333334, "bike_id": "c29439540b8dbd1e20e76c01428db1d0", "lat": 38.887958166666664, "fusion_lon": 0.0, "fusion_lat": 0.0, "type": "electric_scooter", "name": "c29439540b8dbd1e20e76c01428db1d0", "is_disabled": 0, "rental_uris": {"ios": "https://dc.lft.to/lastmile_qr_scan", "android": "https://dc.lft.to/lastmile_qr_scan"}, "is_reserved": 0}, {"lon": -77.04145383333334, "bike_id": "8712c37bdc23681516efcd1d664344ee", "lat": 38.906089, "fusion_lon": 0.0, "fusion_lat": 0.0, "type": "electric_scooter", "name": "8712c37bdc23681516efcd1d664344ee", "is_disabled": 0, "rental_uris": {"ios": "https://dc.lft.to/lastmile_qr_scan", "android": "https://dc.lft.to/lastmile_qr_scan"}, "is_reserved": 0}, {"lon": -77.033396, "bike_id": "bd44acd02ed7fb0d3707d51893a42e00", "lat": 38.928505666666666, "fusion_lon": 0.0, "fusion_lat": 0.0, "type": "electric_scooter", "name": "bd44acd02ed7fb0d3707d51893a42e00", "is_disabled": 0, "rental_uris": {"ios": "https://dc.lft.to/lastmile_qr_scan", "android": "https://dc.lft.to/lastmile_qr_scan"}, "is_reserved": 0}, {"lon": -77.05215816666667, "bike_id": "023d4850af6d6c86be36194b818e057f", "lat": 38.915577666666664, "fusion_lon": 0.0, "fusion_lat": 0.0, "type": "electric_scooter", "name": "023d4850af6d6c86be36194b818e057f", "is_disabled": 0, "rental_uris": {"ios": "https://dc.lft.to/lastmile_qr_scan", "android": "https://dc.lft.to/lastmile_qr_scan"}, "is_reserved": 0}, {"lon": -77.04462116666667, "bike_id": "3d3abf17410c8292b39049bbc5128288", "lat": 38.918471333333336, "fusion_lon": 0.0, "fusion_lat": 0.0, "type": "electric_scooter", "name": "3d3abf17410c8292b39049bbc5128288", "is_disabled": 0, "rental_uris": {"ios": "https://dc.lft.to/lastmile_qr_scan", "android": "https://dc.lft.to/lastmile_qr_scan"}, "is_reserved": 0}, {"lon": -77.0328335, "bike_id": "f39f1e8dae550227472b97cf249bf193", "lat": 38.9364245, "fusion_lon": 0.0, "fusion_lat": 0.0, "type": "electric_scooter", "name": "f39f1e8dae550227472b97cf249bf193", "is_disabled": 0, "rental_uris": {"ios": "https://dc.lft.to/lastmile_qr_scan", "android": "https://dc.lft.to/lastmile_qr_scan"}, "is_reserved": 0}, {"lon": -77.02366166666667, "bike_id": "8759a2286dfa7ab89f9562819f9a9586", "lat": 38.8936295, "fusion_lon": 0.0, "fusion_lat": 0.0, "type": "electric_scooter", "name": "8759a2286dfa7ab89f9562819f9a9586", "is_disabled": 0, "rental_uris": {"ios": "https://dc.lft.to/lastmile_qr_scan", "android": "https://dc.lft.to/lastmile_qr_scan"}, "is_reserved": 0}, {"lon": -77.01772216666667, "bike_id": "1a01c642c1a6f640abeedcedc5b2a200", "lat": 38.97599566666667, "fusion_lon": 0.0, "fusion_lat": 0.0, "type": "electric_scooter", "name": "1a01c642c1a6f640abeedcedc5b2a200", "is_disabled": 0, "rental_uris": {"ios": "https://dc.lft.to/lastmile_qr_scan", "android": "https://dc.lft.to/lastmile_qr_scan"}, "is_reserved": 0}, {"lon": -77.026521, "bike_id": "d09267ebaa1fe06b64e1d33e89dbef54", "lat": 38.938597, "fusion_lon": 0.0, "fusion_lat": 0.0, "type": "electric_scooter", "name": "d09267ebaa1fe06b64e1d33e89dbef54", "is_disabled": 0, "rental_uris": {"ios": "https://dc.lft.to/lastmile_qr_scan", "android": "https://dc.lft.to/lastmile_qr_scan"}, "is_reserved": 0}, {"lon": -77.04373933333333, "bike_id": "e8486c3076fa78c07d2bf06e6d6c8af3", "lat": 38.89823283333333, "fusion_lon": 0.0, "fusion_lat": 0.0, "type": "electric_scooter", "name": "e8486c3076fa78c07d2bf06e6d6c8af3", "is_disabled": 0, "rental_uris": {"ios": "https://dc.lft.to/lastmile_qr_scan", "android": "https://dc.lft.to/lastmile_qr_scan"}, "is_reserved": 0}, {"lon": -77.05714833333333, "bike_id": "149fa12336b0774c996ee1b741b79876", "lat": 38.931429666666666, "fusion_lon": 0.0, "fusion_lat": 0.0, "type": "electric_scooter", "name": "149fa12336b0774c996ee1b741b79876", "is_disabled": 0, "rental_uris": {"ios": "https://dc.lft.to/lastmile_qr_scan", "android": "https://dc.lft.to/lastmile_qr_scan"}, "is_reserved": 0}, {"lon": -77.04125566666667, "bike_id": "25db725438ea0b88e89be6e45f7ec0e3", "lat": 38.91182383333334, "fusion_lon": 0.0, "fusion_lat": 0.0, "type": "electric_scooter", "name": "25db725438ea0b88e89be6e45f7ec0e3", "is_disabled": 0, "rental_uris": {"ios": "https://dc.lft.to/lastmile_qr_scan", "android": "https://dc.lft.to/lastmile_qr_scan"}, "is_reserved": 0}, {"lon": -77.036444, "bike_id": "7e634cd27d3d50b471e547391213adaf", "lat": 38.922635666666665, "fusion_lon": 0.0, "fusion_lat": 0.0, "type": "electric_scooter", "name": "7e634cd27d3d50b471e547391213adaf", "is_disabled": 0, "rental_uris": {"ios": "https://dc.lft.to/lastmile_qr_scan", "android": "https://dc.lft.to/lastmile_qr_scan"}, "is_reserved": 0}, {"lon": -76.95760383333334, "bike_id": "4ece74183d046191c9f31443502d03ce", "lat": 38.88430966666667, "fusion_lon": 0.0, "fusion_lat": 0.0, "type": "electric_scooter", "name": "4ece74183d046191c9f31443502d03ce", "is_disabled": 0, "rental_uris": {"ios": "https://dc.lft.to/lastmile_qr_scan", "android": "https://dc.lft.to/lastmile_qr_scan"}, "is_reserved": 0}, {"lon": -77.00193116666667, "bike_id": "50d69c8bc89d65c959dc9524113394eb", "lat": 38.903788166666665, "fusion_lon": 0.0, "fusion_lat": 0.0, "type": "electric_scooter", "name": "50d69c8bc89d65c959dc9524113394eb", "is_disabled": 0, "rental_uris": {"ios": "https://dc.lft.to/lastmile_qr_scan", "android": "https://dc.lft.to/lastmile_qr_scan"}, "is_reserved": 0}, {"lon": -77.01034483333333, "bike_id": "02448a1b07a755239b9af9dc9a90f7fa", "lat": 38.9170165, "fusion_lon": 0.0, "fusion_lat": 0.0, "type": "electric_scooter", "name": "02448a1b07a755239b9af9dc9a90f7fa", "is_disabled": 0, "rental_uris": {"ios": "https://dc.lft.to/lastmile_qr_scan", "android": "https://dc.lft.to/lastmile_qr_scan"}, "is_reserved": 0}, {"lon": -77.03495116666667, "bike_id": "fa255ff831e78f4266b6880b1e544bdb", "lat": 38.916934, "fusion_lon": 0.0, "fusion_lat": 0.0, "type": "electric_scooter", "name": "fa255ff831e78f4266b6880b1e544bdb", "is_disabled": 0, "rental_uris": {"ios": "https://dc.lft.to/lastmile_qr_scan", "android": "https://dc.lft.to/lastmile_qr_scan"}, "is_reserved": 0}, {"lon": -76.949518, "bike_id": "29513b6605a8b63762aaa9c0cf7c1b33", "lat": 38.904972666666666, "fusion_lon": 0.0, "fusion_lat": 0.0, "type": "electric_scooter", "name": "29513b6605a8b63762aaa9c0cf7c1b33", "is_disabled": 0, "rental_uris": {"ios": "https://dc.lft.to/lastmile_qr_scan", "android": "https://dc.lft.to/lastmile_qr_scan"}, "is_reserved": 0}, {"lon": -77.03128666666667, "bike_id": "47fa0193dd8c0c9cce37d5cb1d3f7ff5", "lat": 38.914997666666665, "fusion_lon": 0.0, "fusion_lat": 0.0, "type": "electric_scooter", "name": "47fa0193dd8c0c9cce37d5cb1d3f7ff5", "is_disabled": 0, "rental_uris": {"ios": "https://dc.lft.to/lastmile_qr_scan", "android": "https://dc.lft.to/lastmile_qr_scan"}, "is_reserved": 0}, {"lon": -77.0296915, "bike_id": "3beb46b7de02481368b06219fed3d048", "lat": 38.916768, "fusion_lon": 0.0, "fusion_lat": 0.0, "type": "electric_scooter", "name": "3beb46b7de02481368b06219fed3d048", "is_disabled": 0, "rental_uris": {"ios": "https://dc.lft.to/lastmile_qr_scan", "android": "https://dc.lft.to/lastmile_qr_scan"}, "is_reserved": 0}, {"lon": -77.06460366666667, "bike_id": "afa883c4f5c367ce7f802eae33b99ea1", "lat": 38.91042816666667, "fusion_lon": 0.0, "fusion_lat": 0.0, "type": "electric_scooter", "name": "afa883c4f5c367ce7f802eae33b99ea1", "is_disabled": 0, "rental_uris": {"ios": "https://dc.lft.to/lastmile_qr_scan", "android": "https://dc.lft.to/lastmile_qr_scan"}, "is_reserved": 0}, {"lon": -77.0260555, "bike_id": "3d8e2fcca9c575e9fcb5d070e4b241ab", "lat": 38.90511083333333, "fusion_lon": 0.0, "fusion_lat": 0.0, "type": "electric_scooter", "name": "3d8e2fcca9c575e9fcb5d070e4b241ab", "is_disabled": 0, "rental_uris": {"ios": "https://dc.lft.to/lastmile_qr_scan", "android": "https://dc.lft.to/lastmile_qr_scan"}, "is_reserved": 0}, {"lon": -77.00741416666666, "bike_id": "f2e8b80f3970a73e503f5d95124f804d", "lat": 38.925334666666664, "fusion_lon": 0.0, "fusion_lat": 0.0, "type": "electric_scooter", "name": "f2e8b80f3970a73e503f5d95124f804d", "is_disabled": 0, "rental_uris": {"ios": "https://dc.lft.to/lastmile_qr_scan", "android": "https://dc.lft.to/lastmile_qr_scan"}, "is_reserved": 0}, {"lon": -77.024142, "bike_id": "c7f29250f80de230ecd9187517988e31", "lat": 38.909643, "fusion_lon": 0.0, "fusion_lat": 0.0, "type": "electric_scooter", "name": "c7f29250f80de230ecd9187517988e31", "is_disabled": 0, "rental_uris": {"ios": "https://dc.lft.to/lastmile_qr_scan", "android": "https://dc.lft.to/lastmile_qr_scan"}, "is_reserved": 0}, {"lon": -77.0348285, "bike_id": "6b5565acdc1b86d851c37d84d7c1ba93", "lat": 38.9247465, "fusion_lon": 0.0, "fusion_lat": 0.0, "type": "electric_scooter", "name": "6b5565acdc1b86d851c37d84d7c1ba93", "is_disabled": 0, "rental_uris": {"ios": "https://dc.lft.to/lastmile_qr_scan", "android": "https://dc.lft.to/lastmile_qr_scan"}, "is_reserved": 0}, {"lon": -76.92757616666667, "bike_id": "9bfbd27a8ac521fa904aa43f4c0a4a40", "lat": 38.8805675, "fusion_lon": 0.0, "fusion_lat": 0.0, "type": "electric_scooter", "name": "9bfbd27a8ac521fa904aa43f4c0a4a40", "is_disabled": 0, "rental_uris": {"ios": "https://dc.lft.to/lastmile_qr_scan", "android": "https://dc.lft.to/lastmile_qr_scan"}, "is_reserved": 0}, {"lon": -77.02475233333334, "bike_id": "2280dd3e8f7a1761431d139b0424b462", "lat": 38.919301, "fusion_lon": 0.0, "fusion_lat": 0.0, "type": "electric_scooter", "name": "2280dd3e8f7a1761431d139b0424b462", "is_disabled": 0, "rental_uris": {"ios": "https://dc.lft.to/lastmile_qr_scan", "android": "https://dc.lft.to/lastmile_qr_scan"}, "is_reserved": 0}, {"lon": -77.03450566666666, "bike_id": "c17120edeb22812ceeabea893a4a6677", "lat": 38.902510666666664, "fusion_lon": 0.0, "fusion_lat": 0.0, "type": "electric_scooter", "name": "c17120edeb22812ceeabea893a4a6677", "is_disabled": 0, "rental_uris": {"ios": "https://dc.lft.to/lastmile_qr_scan", "android": "https://dc.lft.to/lastmile_qr_scan"}, "is_reserved": 0}, {"lon": -77.023939, "bike_id": "243fe1f56b05390e9dea0483ca454278", "lat": 38.91991816666667, "fusion_lon": 0.0, "fusion_lat": 0.0, "type": "electric_scooter", "name": "243fe1f56b05390e9dea0483ca454278", "is_disabled": 0, "rental_uris": {"ios": "https://dc.lft.to/lastmile_qr_scan", "android": "https://dc.lft.to/lastmile_qr_scan"}, "is_reserved": 0}, {"lon": -77.02270616666667, "bike_id": "a5e008d1a5a4d7a262bc51d0d6338c5b", "lat": 38.90905633333333, "fusion_lon": 0.0, "fusion_lat": 0.0, "type": "electric_scooter", "name": "a5e008d1a5a4d7a262bc51d0d6338c5b", "is_disabled": 0, "rental_uris": {"ios": "https://dc.lft.to/lastmile_qr_scan", "android": "https://dc.lft.to/lastmile_qr_scan"}, "is_reserved": 0}, {"lon": -76.99078366666667, "bike_id": "7c2f060bac9747edf052a136976927de", "lat": 38.84291566666667, "fusion_lon": 0.0, "fusion_lat": 0.0, "type": "electric_scooter", "name": "7c2f060bac9747edf052a136976927de", "is_disabled": 0, "rental_uris": {"ios": "https://dc.lft.to/lastmile_qr_scan", "android": "https://dc.lft.to/lastmile_qr_scan"}, "is_reserved": 0}, {"lon": -77.04362433333333, "bike_id": "bb1fd904fcbe7865af6185e00eb4a858", "lat": 38.90727583333333, "fusion_lon": 0.0, "fusion_lat": 0.0, "type": "electric_scooter", "name": "bb1fd904fcbe7865af6185e00eb4a858", "is_disabled": 0, "rental_uris": {"ios": "https://dc.lft.to/lastmile_qr_scan", "android": "https://dc.lft.to/lastmile_qr_scan"}, "is_reserved": 0}, {"lon": -77.0283125, "bike_id": "88b8d3046295406bda1cf6ab46fe47c6", "lat": 38.9026285, "fusion_lon": 0.0, "fusion_lat": 0.0, "type": "electric_scooter", "name": "88b8d3046295406bda1cf6ab46fe47c6", "is_disabled": 0, "rental_uris": {"ios": "https://dc.lft.to/lastmile_qr_scan", "android": "https://dc.lft.to/lastmile_qr_scan"}, "is_reserved": 0}, {"lon": -77.024023, "bike_id": "e14c09b9a8cf407e2caf1d78865d51c3", "lat": 38.9570835, "fusion_lon": 0.0, "fusion_lat": 0.0, "type": "electric_scooter", "name": "e14c09b9a8cf407e2caf1d78865d51c3", "is_disabled": 0, "rental_uris": {"ios": "https://dc.lft.to/lastmile_qr_scan", "android": "https://dc.lft.to/lastmile_qr_scan"}, "is_reserved": 0}, {"lon": -77.10330933333333, "bike_id": "3c9839fd5ea8c2467719eedd1d8f9381", "lat": 38.87416266666666, "fusion_lon": 0.0, "fusion_lat": 0.0, "type": "electric_bike", "name": "3c9839fd5ea8c2467719eedd1d8f9381", "is_disabled": 0, "rental_uris": {"ios": "https://dc.lft.to/lastmile_qr_scan", "android": "https://dc.lft.to/lastmile_qr_scan"}, "is_reserved": 0}, {"lon": -77.007944, "bike_id": "6138abbe7fd097d4fdc6e4a3a930501e", "lat": 38.905713166666665, "fusion_lon": 0.0, "fusion_lat": 0.0, "type": "electric_scooter", "name": "6138abbe7fd097d4fdc6e4a3a930501e", "is_disabled": 0, "rental_uris": {"ios": "https://dc.lft.to/lastmile_qr_scan", "android": "https://dc.lft.to/lastmile_qr_scan"}, "is_reserved": 0}, {"lon": -77.0504065, "bike_id": "d6ebb7ec7c9a8a8d7f6819381f697c5e", "lat": 38.92369733333334, "fusion_lon": 0.0, "fusion_lat": 0.0, "type": "electric_scooter", "name": "d6ebb7ec7c9a8a8d7f6819381f697c5e", "is_disabled": 0, "rental_uris": {"ios": "https://dc.lft.to/lastmile_qr_scan", "android": "https://dc.lft.to/lastmile_qr_scan"}, "is_reserved": 0}, {"lon": -77.00745766666667, "bike_id": "67831920c2a9dc61d0a4c893af96931d", "lat": 38.89829566666667, "fusion_lon": 0.0, "fusion_lat": 0.0, "type": "electric_scooter", "name": "67831920c2a9dc61d0a4c893af96931d", "is_disabled": 0, "rental_uris": {"ios": "https://dc.lft.to/lastmile_qr_scan", "android": "https://dc.lft.to/lastmile_qr_scan"}, "is_reserved": 0}, {"lon": -76.99388933333333, "bike_id": "5afe49c0fca26097bc7e7cb182529034", "lat": 38.89728816666667, "fusion_lon": 0.0, "fusion_lat": 0.0, "type": "electric_scooter", "name": "5afe49c0fca26097bc7e7cb182529034", "is_disabled": 0, "rental_uris": {"ios": "https://dc.lft.to/lastmile_qr_scan", "android": "https://dc.lft.to/lastmile_qr_scan"}, "is_reserved": 0}, {"lon": -77.05136316666666, "bike_id": "aa2a73ab3957a568d80508f8c721d93f", "lat": 38.90528166666667, "fusion_lon": 0.0, "fusion_lat": 0.0, "type": "electric_scooter", "name": "aa2a73ab3957a568d80508f8c721d93f", "is_disabled": 0, "rental_uris": {"ios": "https://dc.lft.to/lastmile_qr_scan", "android": "https://dc.lft.to/lastmile_qr_scan"}, "is_reserved": 0}, {"lon": -77.00797583333333, "bike_id": "a9a4b9ff26409b343ef06d1b1f293aa7", "lat": 38.90645266666667, "fusion_lon": 0.0, "fusion_lat": 0.0, "type": "electric_scooter", "name": "a9a4b9ff26409b343ef06d1b1f293aa7", "is_disabled": 0, "rental_uris": {"ios": "https://dc.lft.to/lastmile_qr_scan", "android": "https://dc.lft.to/lastmile_qr_scan"}, "is_reserved": 0}, {"lon": -76.948863, "bike_id": "17825761d4822462aa27583e3eebf88c", "lat": 38.895602, "fusion_lon": 0.0, "fusion_lat": 0.0, "type": "electric_scooter", "name": "17825761d4822462aa27583e3eebf88c", "is_disabled": 0, "rental_uris": {"ios": "https://dc.lft.to/lastmile_qr_scan", "android": "https://dc.lft.to/lastmile_qr_scan"}, "is_reserved": 0}, {"lon": -77.02682, "bike_id": "db5442f6ff54da7a8c9c914c7bd89d0b", "lat": 38.897954166666665, "fusion_lon": 0.0, "fusion_lat": 0.0, "type": "electric_scooter", "name": "db5442f6ff54da7a8c9c914c7bd89d0b", "is_disabled": 0, "rental_uris": {"ios": "https://dc.lft.to/lastmile_qr_scan", "android": "https://dc.lft.to/lastmile_qr_scan"}, "is_reserved": 0}, {"lon": -77.02700883333333, "bike_id": "79a40fd7fce2ccadaebded43a1150ca1", "lat": 38.95405733333333, "fusion_lon": 0.0, "fusion_lat": 0.0, "type": "electric_scooter", "name": "79a40fd7fce2ccadaebded43a1150ca1", "is_disabled": 0, "rental_uris": {"ios": "https://dc.lft.to/lastmile_qr_scan", "android": "https://dc.lft.to/lastmile_qr_scan"}, "is_reserved": 0}, {"lon": -77.03694333333334, "bike_id": "07ee3132d85beb3f0e4206b5bfeb7c62", "lat": 38.91671266666667, "fusion_lon": 0.0, "fusion_lat": 0.0, "type": "electric_scooter", "name": "07ee3132d85beb3f0e4206b5bfeb7c62", "is_disabled": 0, "rental_uris": {"ios": "https://dc.lft.to/lastmile_qr_scan", "android": "https://dc.lft.to/lastmile_qr_scan"}, "is_reserved": 0}, {"lon": -77.01949433333333, "bike_id": "f035a644bf25adebb7fed42c411c9a0a", "lat": 38.924105, "fusion_lon": 0.0, "fusion_lat": 0.0, "type": "electric_scooter", "name": "f035a644bf25adebb7fed42c411c9a0a", "is_disabled": 0, "rental_uris": {"ios": "https://dc.lft.to/lastmile_qr_scan", "android": "https://dc.lft.to/lastmile_qr_scan"}, "is_reserved": 0}, {"lon": -77.05102933333333, "bike_id": "4f5e8ffd9fdf19722768f7d47067a1e5", "lat": 38.89647983333333, "fusion_lon": 0.0, "fusion_lat": 0.0, "type": "electric_scooter", "name": "4f5e8ffd9fdf19722768f7d47067a1e5", "is_disabled": 0, "rental_uris": {"ios": "https://dc.lft.to/lastmile_qr_scan", "android": "https://dc.lft.to/lastmile_qr_scan"}, "is_reserved": 0}, {"lon": -77.02091316666667, "bike_id": "f25ded7c806afaf4c5aaf1d86404015b", "lat": 38.926920833333334, "fusion_lon": 0.0, "fusion_lat": 0.0, "type": "electric_scooter", "name": "f25ded7c806afaf4c5aaf1d86404015b", "is_disabled": 0, "rental_uris": {"ios": "https://dc.lft.to/lastmile_qr_scan", "android": "https://dc.lft.to/lastmile_qr_scan"}, "is_reserved": 0}, {"lon": -77.03088016666666, "bike_id": "442e6488b9504ba3b995ddfeeb0f6da1", "lat": 38.91025, "fusion_lon": 0.0, "fusion_lat": 0.0, "type": "electric_scooter", "name": "442e6488b9504ba3b995ddfeeb0f6da1", "is_disabled": 0, "rental_uris": {"ios": "https://dc.lft.to/lastmile_qr_scan", "android": "https://dc.lft.to/lastmile_qr_scan"}, "is_reserved": 0}, {"lon": -77.02380683333334, "bike_id": "0ac4cfaac9e1aaf2f42b7fc198df0588", "lat": 38.93222016666667, "fusion_lon": 0.0, "fusion_lat": 0.0, "type": "electric_scooter", "name": "0ac4cfaac9e1aaf2f42b7fc198df0588", "is_disabled": 0, "rental_uris": {"ios": "https://dc.lft.to/lastmile_qr_scan", "android": "https://dc.lft.to/lastmile_qr_scan"}, "is_reserved": 0}, {"lon": -77.007284, "bike_id": "c4f433aa521059ad4ca0a7ab6cbb4a20", "lat": 38.88492883333333, "fusion_lon": 0.0, "fusion_lat": 0.0, "type": "electric_scooter", "name": "c4f433aa521059ad4ca0a7ab6cbb4a20", "is_disabled": 0, "rental_uris": {"ios": "https://dc.lft.to/lastmile_qr_scan", "android": "https://dc.lft.to/lastmile_qr_scan"}, "is_reserved": 0}, {"lon": -77.02426983333334, "bike_id": "dad7ad994e1adbbea61e29a6cfd9c9b7", "lat": 38.89446783333333, "fusion_lon": 0.0, "fusion_lat": 0.0, "type": "electric_scooter", "name": "dad7ad994e1adbbea61e29a6cfd9c9b7", "is_disabled": 0, "rental_uris": {"ios": "https://dc.lft.to/lastmile_qr_scan", "android": "https://dc.lft.to/lastmile_qr_scan"}, "is_reserved": 0}, {"lon": -76.936387, "bike_id": "45b27337fec6813dc1db275ccf2e1ad8", "lat": 38.9026065, "fusion_lon": 0.0, "fusion_lat": 0.0, "type": "electric_scooter", "name": "45b27337fec6813dc1db275ccf2e1ad8", "is_disabled": 0, "rental_uris": {"ios": "https://dc.lft.to/lastmile_qr_scan", "android": "https://dc.lft.to/lastmile_qr_scan"}, "is_reserved": 0}, {"lon": -76.98820683333334, "bike_id": "2a4a53be85403bc24ee8d6eac5d63abc", "lat": 38.90036633333333, "fusion_lon": 0.0, "fusion_lat": 0.0, "type": "electric_scooter", "name": "2a4a53be85403bc24ee8d6eac5d63abc", "is_disabled": 0, "rental_uris": {"ios": "https://dc.lft.to/lastmile_qr_scan", "android": "https://dc.lft.to/lastmile_qr_scan"}, "is_reserved": 0}, {"lon": -76.95369533333333, "bike_id": "9ef03eabed1aa73d93e76a8f5b3b2f2e", "lat": 38.892019833333336, "fusion_lon": 0.0, "fusion_lat": 0.0, "type": "electric_scooter", "name": "9ef03eabed1aa73d93e76a8f5b3b2f2e", "is_disabled": 0, "rental_uris": {"ios": "https://dc.lft.to/lastmile_qr_scan", "android": "https://dc.lft.to/lastmile_qr_scan"}, "is_reserved": 0}, {"lon": -77.03696283333333, "bike_id": "f6dbcb92d57d754ee06ba3e641a023cd", "lat": 38.92788766666666, "fusion_lon": 0.0, "fusion_lat": 0.0, "type": "electric_scooter", "name": "f6dbcb92d57d754ee06ba3e641a023cd", "is_disabled": 0, "rental_uris": {"ios": "https://dc.lft.to/lastmile_qr_scan", "android": "https://dc.lft.to/lastmile_qr_scan"}, "is_reserved": 0}, {"lon": -77.02615766666666, "bike_id": "317252bb8c44dbb8177aad813181e003", "lat": 38.914127666666666, "fusion_lon": 0.0, "fusion_lat": 0.0, "type": "electric_scooter", "name": "317252bb8c44dbb8177aad813181e003", "is_disabled": 0, "rental_uris": {"ios": "https://dc.lft.to/lastmile_qr_scan", "android": "https://dc.lft.to/lastmile_qr_scan"}, "is_reserved": 0}, {"lon": -77.049841, "bike_id": "5cb922eb66a2988acc309b5e72fce62c", "lat": 38.905250833333334, "fusion_lon": 0.0, "fusion_lat": 0.0, "type": "electric_scooter", "name": "5cb922eb66a2988acc309b5e72fce62c", "is_disabled": 0, "rental_uris": {"ios": "https://dc.lft.to/lastmile_qr_scan", "android": "https://dc.lft.to/lastmile_qr_scan"}, "is_reserved": 0}, {"lon": -76.99843333333334, "bike_id": "6f989829d708527aed1d8adbfb579e38", "lat": 38.902127, "fusion_lon": 0.0, "fusion_lat": 0.0, "type": "electric_scooter", "name": "6f989829d708527aed1d8adbfb579e38", "is_disabled": 0, "rental_uris": {"ios": "https://dc.lft.to/lastmile_qr_scan", "android": "https://dc.lft.to/lastmile_qr_scan"}, "is_reserved": 0}, {"lon": -77.00574166666667, "bike_id": "fcb760d049372b1bfd73830619f8dc11", "lat": 38.884449333333336, "fusion_lon": 0.0, "fusion_lat": 0.0, "type": "electric_scooter", "name": "fcb760d049372b1bfd73830619f8dc11", "is_disabled": 0, "rental_uris": {"ios": "https://dc.lft.to/lastmile_qr_scan", "android": "https://dc.lft.to/lastmile_qr_scan"}, "is_reserved": 0}, {"lon": -76.987217, "bike_id": "89ca59897d1f67fe31281ff97812397b", "lat": 38.866789, "fusion_lon": 0.0, "fusion_lat": 0.0, "type": "electric_scooter", "name": "89ca59897d1f67fe31281ff97812397b", "is_disabled": 0, "rental_uris": {"ios": "https://dc.lft.to/lastmile_qr_scan", "android": "https://dc.lft.to/lastmile_qr_scan"}, "is_reserved": 0}, {"lon": -76.94883066666667, "bike_id": "cf4d5375014ca2c17a7fb7436c26d020", "lat": 38.89554283333333, "fusion_lon": 0.0, "fusion_lat": 0.0, "type": "electric_scooter", "name": "cf4d5375014ca2c17a7fb7436c26d020", "is_disabled": 0, "rental_uris": {"ios": "https://dc.lft.to/lastmile_qr_scan", "android": "https://dc.lft.to/lastmile_qr_scan"}, "is_reserved": 0}, {"lon": -77.03268033333333, "bike_id": "14d8dcc68f11e0640c489453fdabd695", "lat": 38.9372055, "fusion_lon": 0.0, "fusion_lat": 0.0, "type": "electric_scooter", "name": "14d8dcc68f11e0640c489453fdabd695", "is_disabled": 0, "rental_uris": {"ios": "https://dc.lft.to/lastmile_qr_scan", "android": "https://dc.lft.to/lastmile_qr_scan"}, "is_reserved": 0}, {"lon": -76.98644816666666, "bike_id": "8c3bc76f5307993195fcd8a59425c0f2", "lat": 38.9016475, "fusion_lon": 0.0, "fusion_lat": 0.0, "type": "electric_scooter", "name": "8c3bc76f5307993195fcd8a59425c0f2", "is_disabled": 0, "rental_uris": {"ios": "https://dc.lft.to/lastmile_qr_scan", "android": "https://dc.lft.to/lastmile_qr_scan"}, "is_reserved": 0}, {"lon": -77.038644, "bike_id": "559d8942ca67649dcebad68e739b0f50", "lat": 38.94503, "fusion_lon": 0.0, "fusion_lat": 0.0, "type": "electric_scooter", "name": "559d8942ca67649dcebad68e739b0f50", "is_disabled": 0, "rental_uris": {"ios": "https://dc.lft.to/lastmile_qr_scan", "android": "https://dc.lft.to/lastmile_qr_scan"}, "is_reserved": 0}, {"lon": -77.070727, "bike_id": "b70c75607bf5d55f82b6fc906c28e0b7", "lat": 38.93169133333333, "fusion_lon": 0.0, "fusion_lat": 0.0, "type": "electric_scooter", "name": "b70c75607bf5d55f82b6fc906c28e0b7", "is_disabled": 0, "rental_uris": {"ios": "https://dc.lft.to/lastmile_qr_scan", "android": "https://dc.lft.to/lastmile_qr_scan"}, "is_reserved": 0}, {"lon": -77.04505033333334, "bike_id": "576cb24d8fbb613ca232f4581e062dd6", "lat": 38.911116166666666, "fusion_lon": 0.0, "fusion_lat": 0.0, "type": "electric_scooter", "name": "576cb24d8fbb613ca232f4581e062dd6", "is_disabled": 0, "rental_uris": {"ios": "https://dc.lft.to/lastmile_qr_scan", "android": "https://dc.lft.to/lastmile_qr_scan"}, "is_reserved": 0}, {"lon": -76.93772533333333, "bike_id": "73a1a52a388dc4a2de0444f6bb2689b0", "lat": 38.89047516666667, "fusion_lon": 0.0, "fusion_lat": 0.0, "type": "electric_scooter", "name": "73a1a52a388dc4a2de0444f6bb2689b0", "is_disabled": 0, "rental_uris": {"ios": "https://dc.lft.to/lastmile_qr_scan", "android": "https://dc.lft.to/lastmile_qr_scan"}, "is_reserved": 0}, {"lon": -77.02404116666666, "bike_id": "3c7063d652c43bf0d8d8954ca783911b", "lat": 38.914184666666664, "fusion_lon": 0.0, "fusion_lat": 0.0, "type": "electric_scooter", "name": "3c7063d652c43bf0d8d8954ca783911b", "is_disabled": 0, "rental_uris": {"ios": "https://dc.lft.to/lastmile_qr_scan", "android": "https://dc.lft.to/lastmile_qr_scan"}, "is_reserved": 0}, {"lon": -77.03876733333334, "bike_id": "c99a22705045217af5dcffd1a5868aa3", "lat": 38.917098333333335, "fusion_lon": 0.0, "fusion_lat": 0.0, "type": "electric_scooter", "name": "c99a22705045217af5dcffd1a5868aa3", "is_disabled": 0, "rental_uris": {"ios": "https://dc.lft.to/lastmile_qr_scan", "android": "https://dc.lft.to/lastmile_qr_scan"}, "is_reserved": 0}, {"lon": -77.00972633333333, "bike_id": "abaa2022520e111e93f47d90b4d55f20", "lat": 38.914129833333334, "fusion_lon": 0.0, "fusion_lat": 0.0, "type": "electric_scooter", "name": "abaa2022520e111e93f47d90b4d55f20", "is_disabled": 0, "rental_uris": {"ios": "https://dc.lft.to/lastmile_qr_scan", "android": "https://dc.lft.to/lastmile_qr_scan"}, "is_reserved": 0}, {"lon": -77.02710116666667, "bike_id": "888c3b6bdbf5574fd5fb37f1c27b210c", "lat": 38.906685333333336, "fusion_lon": 0.0, "fusion_lat": 0.0, "type": "electric_scooter", "name": "888c3b6bdbf5574fd5fb37f1c27b210c", "is_disabled": 0, "rental_uris": {"ios": "https://dc.lft.to/lastmile_qr_scan", "android": "https://dc.lft.to/lastmile_qr_scan"}, "is_reserved": 0}, {"lon": -77.021511, "bike_id": "ecfa2d6b0d29cd9ca8ad4f95fc9e4396", "lat": 38.89979316666667, "fusion_lon": 0.0, "fusion_lat": 0.0, "type": "electric_scooter", "name": "ecfa2d6b0d29cd9ca8ad4f95fc9e4396", "is_disabled": 0, "rental_uris": {"ios": "https://dc.lft.to/lastmile_qr_scan", "android": "https://dc.lft.to/lastmile_qr_scan"}, "is_reserved": 0}, {"lon": -77.03201916666667, "bike_id": "4777529ffda200998a0ed239dfa4ab21", "lat": 38.91636, "fusion_lon": 0.0, "fusion_lat": 0.0, "type": "electric_scooter", "name": "4777529ffda200998a0ed239dfa4ab21", "is_disabled": 0, "rental_uris": {"ios": "https://dc.lft.to/lastmile_qr_scan", "android": "https://dc.lft.to/lastmile_qr_scan"}, "is_reserved": 0}, {"lon": -77.00204366666667, "bike_id": "d41097e077d066f34ae53ac7f4028003", "lat": 38.892703833333336, "fusion_lon": 0.0, "fusion_lat": 0.0, "type": "electric_bike", "name": "d41097e077d066f34ae53ac7f4028003", "is_disabled": 0, "rental_uris": {"ios": "https://dc.lft.to/lastmile_qr_scan", "android": "https://dc.lft.to/lastmile_qr_scan"}, "is_reserved": 0}, {"lon": -77.05605683333333, "bike_id": "3bb32f63e79f7c9048d7f0524de0169b", "lat": 38.93163883333333, "fusion_lon": 0.0, "fusion_lat": 0.0, "type": "electric_scooter", "name": "3bb32f63e79f7c9048d7f0524de0169b", "is_disabled": 0, "rental_uris": {"ios": "https://dc.lft.to/lastmile_qr_scan", "android": "https://dc.lft.to/lastmile_qr_scan"}, "is_reserved": 0}, {"lon": -77.053187, "bike_id": "a4d3668199b0d3c171d95797e12a2ae2", "lat": 38.90513033333333, "fusion_lon": 0.0, "fusion_lat": 0.0, "type": "electric_scooter", "name": "a4d3668199b0d3c171d95797e12a2ae2", "is_disabled": 0, "rental_uris": {"ios": "https://dc.lft.to/lastmile_qr_scan", "android": "https://dc.lft.to/lastmile_qr_scan"}, "is_reserved": 0}, {"lon": -77.03872733333333, "bike_id": "9b0abed9a2a642a34bdd72c32e6fb264", "lat": 38.92157183333333, "fusion_lon": 0.0, "fusion_lat": 0.0, "type": "electric_scooter", "name": "9b0abed9a2a642a34bdd72c32e6fb264", "is_disabled": 0, "rental_uris": {"ios": "https://dc.lft.to/lastmile_qr_scan", "android": "https://dc.lft.to/lastmile_qr_scan"}, "is_reserved": 0}, {"lon": -76.966036, "bike_id": "0edd3b7b2ac7f648f475fa6dc17cf796", "lat": 38.87113316666667, "fusion_lon": 0.0, "fusion_lat": 0.0, "type": "electric_scooter", "name": "0edd3b7b2ac7f648f475fa6dc17cf796", "is_disabled": 0, "rental_uris": {"ios": "https://dc.lft.to/lastmile_qr_scan", "android": "https://dc.lft.to/lastmile_qr_scan"}, "is_reserved": 0}, {"lon": -77.0320705, "bike_id": "7b3676690b48517e2e91edbf284d7836", "lat": 38.92049866666667, "fusion_lon": 0.0, "fusion_lat": 0.0, "type": "electric_scooter", "name": "7b3676690b48517e2e91edbf284d7836", "is_disabled": 0, "rental_uris": {"ios": "https://dc.lft.to/lastmile_qr_scan", "android": "https://dc.lft.to/lastmile_qr_scan"}, "is_reserved": 0}, {"lon": -77.019464, "bike_id": "e7b26791899ebc25acd4e7056f67cfa8", "lat": 38.924087166666666, "fusion_lon": 0.0, "fusion_lat": 0.0, "type": "electric_scooter", "name": "e7b26791899ebc25acd4e7056f67cfa8", "is_disabled": 0, "rental_uris": {"ios": "https://dc.lft.to/lastmile_qr_scan", "android": "https://dc.lft.to/lastmile_qr_scan"}, "is_reserved": 0}, {"lon": -77.0445865, "bike_id": "02dd4d400848263eac144bf726bb6378", "lat": 38.91851166666667, "fusion_lon": 0.0, "fusion_lat": 0.0, "type": "electric_scooter", "name": "02dd4d400848263eac144bf726bb6378", "is_disabled": 0, "rental_uris": {"ios": "https://dc.lft.to/lastmile_qr_scan", "android": "https://dc.lft.to/lastmile_qr_scan"}, "is_reserved": 0}, {"lon": -77.03620283333333, "bike_id": "d27e3f7808547a515d08f62e4d2a4932", "lat": 38.9172095, "fusion_lon": 0.0, "fusion_lat": 0.0, "type": "electric_scooter", "name": "d27e3f7808547a515d08f62e4d2a4932", "is_disabled": 0, "rental_uris": {"ios": "https://dc.lft.to/lastmile_qr_scan", "android": "https://dc.lft.to/lastmile_qr_scan"}, "is_reserved": 0}, {"lon": -76.99504400000001, "bike_id": "82040b4ab3b5a1fe425486bbed2c439f", "lat": 38.880995666666664, "fusion_lon": 0.0, "fusion_lat": 0.0, "type": "electric_scooter", "name": "82040b4ab3b5a1fe425486bbed2c439f", "is_disabled": 0, "rental_uris": {"ios": "https://dc.lft.to/lastmile_qr_scan", "android": "https://dc.lft.to/lastmile_qr_scan"}, "is_reserved": 0}, {"lon": -77.027775, "bike_id": "7e48cf7979657226310a7aaf57dc5387", "lat": 38.954310166666666, "fusion_lon": 0.0, "fusion_lat": 0.0, "type": "electric_scooter", "name": "7e48cf7979657226310a7aaf57dc5387", "is_disabled": 0, "rental_uris": {"ios": "https://dc.lft.to/lastmile_qr_scan", "android": "https://dc.lft.to/lastmile_qr_scan"}, "is_reserved": 0}, {"lon": -77.029615, "bike_id": "6fcb2146819fc0dd9854c69ebeeaf0e2", "lat": 38.91678016666667, "fusion_lon": 0.0, "fusion_lat": 0.0, "type": "electric_scooter", "name": "6fcb2146819fc0dd9854c69ebeeaf0e2", "is_disabled": 0, "rental_uris": {"ios": "https://dc.lft.to/lastmile_qr_scan", "android": "https://dc.lft.to/lastmile_qr_scan"}, "is_reserved": 0}, {"lon": -76.98028066666667, "bike_id": "4ca1f5ace2abe0c40e19d57aa7dd4fd3", "lat": 38.900759666666666, "fusion_lon": 0.0, "fusion_lat": 0.0, "type": "electric_bike", "name": "4ca1f5ace2abe0c40e19d57aa7dd4fd3", "is_disabled": 0, "rental_uris": {"ios": "https://dc.lft.to/lastmile_qr_scan", "android": "https://dc.lft.to/lastmile_qr_scan"}, "is_reserved": 0}, {"lon": -77.02402333333333, "bike_id": "b465734563dc68ff47ea2177d349948b", "lat": 38.91422683333333, "fusion_lon": 0.0, "fusion_lat": 0.0, "type": "electric_scooter", "name": "b465734563dc68ff47ea2177d349948b", "is_disabled": 0, "rental_uris": {"ios": "https://dc.lft.to/lastmile_qr_scan", "android": "https://dc.lft.to/lastmile_qr_scan"}, "is_reserved": 0}, {"lon": -76.9061605, "bike_id": "7412de1b1a536d6f01c1b12b07cb34d5", "lat": 39.0046765, "fusion_lon": 0.0, "fusion_lat": 0.0, "type": "electric_bike", "name": "7412de1b1a536d6f01c1b12b07cb34d5", "is_disabled": 0, "rental_uris": {"ios": "https://dc.lft.to/lastmile_qr_scan", "android": "https://dc.lft.to/lastmile_qr_scan"}, "is_reserved": 0}, {"lon": -77.036393, "bike_id": "04247f3833cd50a37ccc0265a43839ba", "lat": 38.903791, "fusion_lon": 0.0, "fusion_lat": 0.0, "type": "electric_scooter", "name": "04247f3833cd50a37ccc0265a43839ba", "is_disabled": 0, "rental_uris": {"ios": "https://dc.lft.to/lastmile_qr_scan", "android": "https://dc.lft.to/lastmile_qr_scan"}, "is_reserved": 0}, {"lon": -77.015361, "bike_id": "258e7d2e6fc148ee620298e2f105e34c", "lat": 38.88741233333333, "fusion_lon": 0.0, "fusion_lat": 0.0, "type": "electric_scooter", "name": "258e7d2e6fc148ee620298e2f105e34c", "is_disabled": 0, "rental_uris": {"ios": "https://dc.lft.to/lastmile_qr_scan", "android": "https://dc.lft.to/lastmile_qr_scan"}, "is_reserved": 0}, {"lon": -77.041772, "bike_id": "c6a6fe5130ca83ec8591456c08f7b4de", "lat": 38.916487333333336, "fusion_lon": 0.0, "fusion_lat": 0.0, "type": "electric_scooter", "name": "c6a6fe5130ca83ec8591456c08f7b4de", "is_disabled": 0, "rental_uris": {"ios": "https://dc.lft.to/lastmile_qr_scan", "android": "https://dc.lft.to/lastmile_qr_scan"}, "is_reserved": 0}, {"lon": -77.36080233333334, "bike_id": "76f8ac52bb7987a822c0d9251fcc3974", "lat": 38.9395695, "fusion_lon": 0.0, "fusion_lat": 0.0, "type": "electric_bike", "name": "76f8ac52bb7987a822c0d9251fcc3974", "is_disabled": 0, "rental_uris": {"ios": "https://dc.lft.to/lastmile_qr_scan", "android": "https://dc.lft.to/lastmile_qr_scan"}, "is_reserved": 0}, {"lon": -77.0021095, "bike_id": "150914d4ba9bbce5bfdddf22bd45651d", "lat": 38.881262166666666, "fusion_lon": 0.0, "fusion_lat": 0.0, "type": "electric_scooter", "name": "150914d4ba9bbce5bfdddf22bd45651d", "is_disabled": 0, "rental_uris": {"ios": "https://dc.lft.to/lastmile_qr_scan", "android": "https://dc.lft.to/lastmile_qr_scan"}, "is_reserved": 0}, {"lon": -77.02497233333334, "bike_id": "5a8ecd49526c879e20d122621e2f1938", "lat": 38.90632866666667, "fusion_lon": 0.0, "fusion_lat": 0.0, "type": "electric_scooter", "name": "5a8ecd49526c879e20d122621e2f1938", "is_disabled": 0, "rental_uris": {"ios": "https://dc.lft.to/lastmile_qr_scan", "android": "https://dc.lft.to/lastmile_qr_scan"}, "is_reserved": 0}, {"lon": -76.98614033333334, "bike_id": "983a1e420557e543bdcd54aaaf3d9018", "lat": 38.938295, "fusion_lon": 0.0, "fusion_lat": 0.0, "type": "electric_scooter", "name": "983a1e420557e543bdcd54aaaf3d9018", "is_disabled": 0, "rental_uris": {"ios": "https://dc.lft.to/lastmile_qr_scan", "android": "https://dc.lft.to/lastmile_qr_scan"}, "is_reserved": 0}, {"lon": -77.03208566666666, "bike_id": "e007f62ffc4233ed1c75ead2645453da", "lat": 38.91343883333333, "fusion_lon": 0.0, "fusion_lat": 0.0, "type": "electric_scooter", "name": "e007f62ffc4233ed1c75ead2645453da", "is_disabled": 0, "rental_uris": {"ios": "https://dc.lft.to/lastmile_qr_scan", "android": "https://dc.lft.to/lastmile_qr_scan"}, "is_reserved": 0}, {"lon": -76.9770635, "bike_id": "25cb75696be0c4ebd29f74baf9f24477", "lat": 38.94916083333333, "fusion_lon": 0.0, "fusion_lat": 0.0, "type": "electric_bike", "name": "25cb75696be0c4ebd29f74baf9f24477", "is_disabled": 0, "rental_uris": {"ios": "https://dc.lft.to/lastmile_qr_scan", "android": "https://dc.lft.to/lastmile_qr_scan"}, "is_reserved": 0}, {"lon": -77.02393383333333, "bike_id": "8c28467d1da8bee7817bea8c5ece5055", "lat": 38.9057805, "fusion_lon": 0.0, "fusion_lat": 0.0, "type": "electric_scooter", "name": "8c28467d1da8bee7817bea8c5ece5055", "is_disabled": 0, "rental_uris": {"ios": "https://dc.lft.to/lastmile_qr_scan", "android": "https://dc.lft.to/lastmile_qr_scan"}, "is_reserved": 0}, {"lon": -77.00361416666667, "bike_id": "a9bb1a64d39a31e1200eafe0bcc73927", "lat": 38.898991, "fusion_lon": 0.0, "fusion_lat": 0.0, "type": "electric_scooter", "name": "a9bb1a64d39a31e1200eafe0bcc73927", "is_disabled": 0, "rental_uris": {"ios": "https://dc.lft.to/lastmile_qr_scan", "android": "https://dc.lft.to/lastmile_qr_scan"}, "is_reserved": 0}, {"lon": -77.02054833333334, "bike_id": "41637af9db68d3cd7757daa96cb673c5", "lat": 38.92355516666667, "fusion_lon": 0.0, "fusion_lat": 0.0, "type": "electric_scooter", "name": "41637af9db68d3cd7757daa96cb673c5", "is_disabled": 0, "rental_uris": {"ios": "https://dc.lft.to/lastmile_qr_scan", "android": "https://dc.lft.to/lastmile_qr_scan"}, "is_reserved": 0}, {"lon": -77.02618466666667, "bike_id": "eb42a217da97ca109d4c546555fd762e", "lat": 38.902415, "fusion_lon": 0.0, "fusion_lat": 0.0, "type": "electric_scooter", "name": "eb42a217da97ca109d4c546555fd762e", "is_disabled": 0, "rental_uris": {"ios": "https://dc.lft.to/lastmile_qr_scan", "android": "https://dc.lft.to/lastmile_qr_scan"}, "is_reserved": 0}, {"lon": -77.07937583333333, "bike_id": "8a005e05b289d65f0ab9b6ee618e370c", "lat": 38.930746, "fusion_lon": 0.0, "fusion_lat": 0.0, "type": "electric_scooter", "name": "8a005e05b289d65f0ab9b6ee618e370c", "is_disabled": 0, "rental_uris": {"ios": "https://dc.lft.to/lastmile_qr_scan", "android": "https://dc.lft.to/lastmile_qr_scan"}, "is_reserved": 0}, {"lon": -76.99520316666667, "bike_id": "9587cc3b456d761a751356dedf5d89a3", "lat": 38.897419666666664, "fusion_lon": 0.0, "fusion_lat": 0.0, "type": "electric_scooter", "name": "9587cc3b456d761a751356dedf5d89a3", "is_disabled": 0, "rental_uris": {"ios": "https://dc.lft.to/lastmile_qr_scan", "android": "https://dc.lft.to/lastmile_qr_scan"}, "is_reserved": 0}, {"lon": -76.98803916666667, "bike_id": "a533eb2c215996687f9dfd71d6c9c76b", "lat": 38.8672845, "fusion_lon": 0.0, "fusion_lat": 0.0, "type": "electric_scooter", "name": "a533eb2c215996687f9dfd71d6c9c76b", "is_disabled": 0, "rental_uris": {"ios": "https://dc.lft.to/lastmile_qr_scan", "android": "https://dc.lft.to/lastmile_qr_scan"}, "is_reserved": 0}, {"lon": -76.98302733333334, "bike_id": "236d8ef77399805e3ca4433da8198a3e", "lat": 38.905212666666664, "fusion_lon": 0.0, "fusion_lat": 0.0, "type": "electric_scooter", "name": "236d8ef77399805e3ca4433da8198a3e", "is_disabled": 0, "rental_uris": {"ios": "https://dc.lft.to/lastmile_qr_scan", "android": "https://dc.lft.to/lastmile_qr_scan"}, "is_reserved": 0}, {"lon": -77.024839, "bike_id": "060daabf13dd8a0f1e72ded2309fa2c4", "lat": 38.92752383333333, "fusion_lon": 0.0, "fusion_lat": 0.0, "type": "electric_scooter", "name": "060daabf13dd8a0f1e72ded2309fa2c4", "is_disabled": 0, "rental_uris": {"ios": "https://dc.lft.to/lastmile_qr_scan", "android": "https://dc.lft.to/lastmile_qr_scan"}, "is_reserved": 0}, {"lon": -77.0591015, "bike_id": "08f10a496d43e451bb554ff56916c498", "lat": 38.901391333333336, "fusion_lon": 0.0, "fusion_lat": 0.0, "type": "electric_scooter", "name": "08f10a496d43e451bb554ff56916c498", "is_disabled": 0, "rental_uris": {"ios": "https://dc.lft.to/lastmile_qr_scan", "android": "https://dc.lft.to/lastmile_qr_scan"}, "is_reserved": 0}, {"lon": -77.022871, "bike_id": "e994ca50ee71d1760a8d13e0b7635965", "lat": 38.87892266666667, "fusion_lon": 0.0, "fusion_lat": 0.0, "type": "electric_scooter", "name": "e994ca50ee71d1760a8d13e0b7635965", "is_disabled": 0, "rental_uris": {"ios": "https://dc.lft.to/lastmile_qr_scan", "android": "https://dc.lft.to/lastmile_qr_scan"}, "is_reserved": 0}, {"lon": -77.03267433333333, "bike_id": "12b866cd012c34d3cf4c9e409a47d64f", "lat": 38.932492, "fusion_lon": 0.0, "fusion_lat": 0.0, "type": "electric_scooter", "name": "12b866cd012c34d3cf4c9e409a47d64f", "is_disabled": 0, "rental_uris": {"ios": "https://dc.lft.to/lastmile_qr_scan", "android": "https://dc.lft.to/lastmile_qr_scan"}, "is_reserved": 0}, {"lon": -77.04125583333334, "bike_id": "f5eb9a1b213ed5724b6b017d32247366", "lat": 38.917069166666664, "fusion_lon": 0.0, "fusion_lat": 0.0, "type": "electric_scooter", "name": "f5eb9a1b213ed5724b6b017d32247366", "is_disabled": 0, "rental_uris": {"ios": "https://dc.lft.to/lastmile_qr_scan", "android": "https://dc.lft.to/lastmile_qr_scan"}, "is_reserved": 0}, {"lon": -77.04251616666667, "bike_id": "79ce705b28694d4b5bea61b59da12445", "lat": 38.901254, "fusion_lon": 0.0, "fusion_lat": 0.0, "type": "electric_scooter", "name": "79ce705b28694d4b5bea61b59da12445", "is_disabled": 0, "rental_uris": {"ios": "https://dc.lft.to/lastmile_qr_scan", "android": "https://dc.lft.to/lastmile_qr_scan"}, "is_reserved": 0}, {"lon": -77.02501416666667, "bike_id": "2bace3eab8b0ebf0beb1f4f49fad699a", "lat": 38.942012166666665, "fusion_lon": 0.0, "fusion_lat": 0.0, "type": "electric_scooter", "name": "2bace3eab8b0ebf0beb1f4f49fad699a", "is_disabled": 0, "rental_uris": {"ios": "https://dc.lft.to/lastmile_qr_scan", "android": "https://dc.lft.to/lastmile_qr_scan"}, "is_reserved": 0}, {"lon": -77.028427, "bike_id": "11bf933214a2b25ca1e8c417f74de44e", "lat": 38.921431166666665, "fusion_lon": 0.0, "fusion_lat": 0.0, "type": "electric_bike", "name": "11bf933214a2b25ca1e8c417f74de44e", "is_disabled": 0, "rental_uris": {"ios": "https://dc.lft.to/lastmile_qr_scan", "android": "https://dc.lft.to/lastmile_qr_scan"}, "is_reserved": 0}, {"lon": -77.05380833333334, "bike_id": "8ed99de5796dc8c2bc45628694cd5e7d", "lat": 38.898872, "fusion_lon": 0.0, "fusion_lat": 0.0, "type": "electric_scooter", "name": "8ed99de5796dc8c2bc45628694cd5e7d", "is_disabled": 0, "rental_uris": {"ios": "https://dc.lft.to/lastmile_qr_scan", "android": "https://dc.lft.to/lastmile_qr_scan"}, "is_reserved": 0}, {"lon": -76.98156983333334, "bike_id": "00cb026fe6e955ecb9f4d05b05f6862b", "lat": 38.90325966666666, "fusion_lon": 0.0, "fusion_lat": 0.0, "type": "electric_scooter", "name": "00cb026fe6e955ecb9f4d05b05f6862b", "is_disabled": 0, "rental_uris": {"ios": "https://dc.lft.to/lastmile_qr_scan", "android": "https://dc.lft.to/lastmile_qr_scan"}, "is_reserved": 0}, {"lon": -77.01894316666667, "bike_id": "2e3b25e7dd17c7af04ce7ad44d1ce208", "lat": 38.923672833333335, "fusion_lon": 0.0, "fusion_lat": 0.0, "type": "electric_scooter", "name": "2e3b25e7dd17c7af04ce7ad44d1ce208", "is_disabled": 0, "rental_uris": {"ios": "https://dc.lft.to/lastmile_qr_scan", "android": "https://dc.lft.to/lastmile_qr_scan"}, "is_reserved": 0}, {"lon": -77.0309545, "bike_id": "0d83f6d66950f5e49dba2ab57d9ee76f", "lat": 38.92728683333333, "fusion_lon": 0.0, "fusion_lat": 0.0, "type": "electric_scooter", "name": "0d83f6d66950f5e49dba2ab57d9ee76f", "is_disabled": 0, "rental_uris": {"ios": "https://dc.lft.to/lastmile_qr_scan", "android": "https://dc.lft.to/lastmile_qr_scan"}, "is_reserved": 0}, {"lon": -77.0242955, "bike_id": "8162b3f0473f7237a15826616f6a70a1", "lat": 38.937072, "fusion_lon": 0.0, "fusion_lat": 0.0, "type": "electric_scooter", "name": "8162b3f0473f7237a15826616f6a70a1", "is_disabled": 0, "rental_uris": {"ios": "https://dc.lft.to/lastmile_qr_scan", "android": "https://dc.lft.to/lastmile_qr_scan"}, "is_reserved": 0}, {"lon": -77.03599666666666, "bike_id": "1ee9395284db08c866c1fb3466ff0ecb", "lat": 38.939322833333335, "fusion_lon": 0.0, "fusion_lat": 0.0, "type": "electric_scooter", "name": "1ee9395284db08c866c1fb3466ff0ecb", "is_disabled": 0, "rental_uris": {"ios": "https://dc.lft.to/lastmile_qr_scan", "android": "https://dc.lft.to/lastmile_qr_scan"}, "is_reserved": 0}, {"lon": -76.976722, "bike_id": "adcb2f7a035a7adcfac0210c779e39bc", "lat": 38.95243466666667, "fusion_lon": 0.0, "fusion_lat": 0.0, "type": "electric_bike", "name": "adcb2f7a035a7adcfac0210c779e39bc", "is_disabled": 0, "rental_uris": {"ios": "https://dc.lft.to/lastmile_qr_scan", "android": "https://dc.lft.to/lastmile_qr_scan"}, "is_reserved": 0}, {"lon": -77.03212133333334, "bike_id": "ab5d3402a14fdcd3caa2ce28e8cc9926", "lat": 38.91542233333333, "fusion_lon": 0.0, "fusion_lat": 0.0, "type": "electric_scooter", "name": "ab5d3402a14fdcd3caa2ce28e8cc9926", "is_disabled": 0, "rental_uris": {"ios": "https://dc.lft.to/lastmile_qr_scan", "android": "https://dc.lft.to/lastmile_qr_scan"}, "is_reserved": 0}, {"lon": -77.025478, "bike_id": "be47ac0f210e45b82a5d2b53de60587e", "lat": 38.91709516666667, "fusion_lon": 0.0, "fusion_lat": 0.0, "type": "electric_scooter", "name": "be47ac0f210e45b82a5d2b53de60587e", "is_disabled": 0, "rental_uris": {"ios": "https://dc.lft.to/lastmile_qr_scan", "android": "https://dc.lft.to/lastmile_qr_scan"}, "is_reserved": 0}, {"lon": -77.04152383333333, "bike_id": "9353e2440328721dae8bf3c18264d7bf", "lat": 38.916949833333334, "fusion_lon": 0.0, "fusion_lat": 0.0, "type": "electric_scooter", "name": "9353e2440328721dae8bf3c18264d7bf", "is_disabled": 0, "rental_uris": {"ios": "https://dc.lft.to/lastmile_qr_scan", "android": "https://dc.lft.to/lastmile_qr_scan"}, "is_reserved": 0}, {"lon": -76.98573716666667, "bike_id": "cec9fc4310fd0f3e2080e1272455a98a", "lat": 38.906398333333335, "fusion_lon": 0.0, "fusion_lat": 0.0, "type": "electric_scooter", "name": "cec9fc4310fd0f3e2080e1272455a98a", "is_disabled": 0, "rental_uris": {"ios": "https://dc.lft.to/lastmile_qr_scan", "android": "https://dc.lft.to/lastmile_qr_scan"}, "is_reserved": 0}, {"lon": -77.0410455, "bike_id": "d6ed189b03ba45b8ace005d4bf623381", "lat": 38.91775766666667, "fusion_lon": 0.0, "fusion_lat": 0.0, "type": "electric_scooter", "name": "d6ed189b03ba45b8ace005d4bf623381", "is_disabled": 0, "rental_uris": {"ios": "https://dc.lft.to/lastmile_qr_scan", "android": "https://dc.lft.to/lastmile_qr_scan"}, "is_reserved": 0}, {"lon": -77.01559316666666, "bike_id": "152ba4c802b38bc7abfd3de6aa7991c7", "lat": 38.89217816666667, "fusion_lon": 0.0, "fusion_lat": 0.0, "type": "electric_scooter", "name": "152ba4c802b38bc7abfd3de6aa7991c7", "is_disabled": 0, "rental_uris": {"ios": "https://dc.lft.to/lastmile_qr_scan", "android": "https://dc.lft.to/lastmile_qr_scan"}, "is_reserved": 0}, {"lon": -77.029074, "bike_id": "22849b118402198a52c04c54733c00d8", "lat": 38.9402795, "fusion_lon": 0.0, "fusion_lat": 0.0, "type": "electric_scooter", "name": "22849b118402198a52c04c54733c00d8", "is_disabled": 0, "rental_uris": {"ios": "https://dc.lft.to/lastmile_qr_scan", "android": "https://dc.lft.to/lastmile_qr_scan"}, "is_reserved": 0}, {"lon": -77.0436945, "bike_id": "8bd760346c4f0c191d62a9bfd8c8ebbf", "lat": 38.907232, "fusion_lon": 0.0, "fusion_lat": 0.0, "type": "electric_scooter", "name": "8bd760346c4f0c191d62a9bfd8c8ebbf", "is_disabled": 0, "rental_uris": {"ios": "https://dc.lft.to/lastmile_qr_scan", "android": "https://dc.lft.to/lastmile_qr_scan"}, "is_reserved": 0}, {"lon": -77.01346316666667, "bike_id": "6b7d203d7e67e37a9c9995950a741506", "lat": 38.89250666666667, "fusion_lon": 0.0, "fusion_lat": 0.0, "type": "electric_scooter", "name": "6b7d203d7e67e37a9c9995950a741506", "is_disabled": 0, "rental_uris": {"ios": "https://dc.lft.to/lastmile_qr_scan", "android": "https://dc.lft.to/lastmile_qr_scan"}, "is_reserved": 0}, {"lon": -76.978587, "bike_id": "ab6701fb142d8e550f1604c8e5aa37a9", "lat": 38.87072966666667, "fusion_lon": 0.0, "fusion_lat": 0.0, "type": "electric_scooter", "name": "ab6701fb142d8e550f1604c8e5aa37a9", "is_disabled": 0, "rental_uris": {"ios": "https://dc.lft.to/lastmile_qr_scan", "android": "https://dc.lft.to/lastmile_qr_scan"}, "is_reserved": 0}, {"lon": -77.0678385, "bike_id": "348667b4841765c6d23662bfae486517", "lat": 38.90385583333333, "fusion_lon": 0.0, "fusion_lat": 0.0, "type": "electric_scooter", "name": "348667b4841765c6d23662bfae486517", "is_disabled": 0, "rental_uris": {"ios": "https://dc.lft.to/lastmile_qr_scan", "android": "https://dc.lft.to/lastmile_qr_scan"}, "is_reserved": 0}, {"lon": -77.03468783333334, "bike_id": "b3e41c8972ca1cdc77aa4e0e371507a4", "lat": 38.91865883333333, "fusion_lon": 0.0, "fusion_lat": 0.0, "type": "electric_scooter", "name": "b3e41c8972ca1cdc77aa4e0e371507a4", "is_disabled": 0, "rental_uris": {"ios": "https://dc.lft.to/lastmile_qr_scan", "android": "https://dc.lft.to/lastmile_qr_scan"}, "is_reserved": 0}, {"lon": -77.03507766666667, "bike_id": "fa8747b8a6306d811b16303787fb2d05", "lat": 38.918814833333336, "fusion_lon": 0.0, "fusion_lat": 0.0, "type": "electric_scooter", "name": "fa8747b8a6306d811b16303787fb2d05", "is_disabled": 0, "rental_uris": {"ios": "https://dc.lft.to/lastmile_qr_scan", "android": "https://dc.lft.to/lastmile_qr_scan"}, "is_reserved": 0}, {"lon": -77.02949966666667, "bike_id": "1b8f6856ced12f5f8f68c895d9e949d1", "lat": 38.92173783333333, "fusion_lon": 0.0, "fusion_lat": 0.0, "type": "electric_scooter", "name": "1b8f6856ced12f5f8f68c895d9e949d1", "is_disabled": 0, "rental_uris": {"ios": "https://dc.lft.to/lastmile_qr_scan", "android": "https://dc.lft.to/lastmile_qr_scan"}, "is_reserved": 0}, {"lon": -77.05062266666667, "bike_id": "33972a5ac4b306b688deb931f40002f5", "lat": 38.9241005, "fusion_lon": 0.0, "fusion_lat": 0.0, "type": "electric_scooter", "name": "33972a5ac4b306b688deb931f40002f5", "is_disabled": 0, "rental_uris": {"ios": "https://dc.lft.to/lastmile_qr_scan", "android": "https://dc.lft.to/lastmile_qr_scan"}, "is_reserved": 0}, {"lon": -77.0325785, "bike_id": "8c1195fda3f9f330008d465ee15e50c1", "lat": 38.904544666666666, "fusion_lon": 0.0, "fusion_lat": 0.0, "type": "electric_scooter", "name": "8c1195fda3f9f330008d465ee15e50c1", "is_disabled": 0, "rental_uris": {"ios": "https://dc.lft.to/lastmile_qr_scan", "android": "https://dc.lft.to/lastmile_qr_scan"}, "is_reserved": 0}, {"lon": -77.06406416666667, "bike_id": "d32157e1c36afdbed3711f5b1ab1236e", "lat": 38.840542666666664, "fusion_lon": 0.0, "fusion_lat": 0.0, "type": "electric_bike", "name": "d32157e1c36afdbed3711f5b1ab1236e", "is_disabled": 0, "rental_uris": {"ios": "https://dc.lft.to/lastmile_qr_scan", "android": "https://dc.lft.to/lastmile_qr_scan"}, "is_reserved": 0}, {"lon": -76.97308266666667, "bike_id": "a3985fd57be52f2a4b0e67db9b27de12", "lat": 38.919776166666665, "fusion_lon": 0.0, "fusion_lat": 0.0, "type": "electric_scooter", "name": "a3985fd57be52f2a4b0e67db9b27de12", "is_disabled": 0, "rental_uris": {"ios": "https://dc.lft.to/lastmile_qr_scan", "android": "https://dc.lft.to/lastmile_qr_scan"}, "is_reserved": 0}, {"lon": -76.98546183333333, "bike_id": "9405af97cf45a1a319bb02386bad5654", "lat": 38.892508666666664, "fusion_lon": 0.0, "fusion_lat": 0.0, "type": "electric_bike", "name": "9405af97cf45a1a319bb02386bad5654", "is_disabled": 0, "rental_uris": {"ios": "https://dc.lft.to/lastmile_qr_scan", "android": "https://dc.lft.to/lastmile_qr_scan"}, "is_reserved": 0}, {"lon": -77.05309533333333, "bike_id": "e1a2e62e847e320368656a5508153e53", "lat": 38.898499666666666, "fusion_lon": 0.0, "fusion_lat": 0.0, "type": "electric_scooter", "name": "e1a2e62e847e320368656a5508153e53", "is_disabled": 0, "rental_uris": {"ios": "https://dc.lft.to/lastmile_qr_scan", "android": "https://dc.lft.to/lastmile_qr_scan"}, "is_reserved": 0}, {"lon": -77.03373866666666, "bike_id": "112beb3c680bb7e925cac8d675836ab4", "lat": 38.90830916666667, "fusion_lon": 0.0, "fusion_lat": 0.0, "type": "electric_scooter", "name": "112beb3c680bb7e925cac8d675836ab4", "is_disabled": 0, "rental_uris": {"ios": "https://dc.lft.to/lastmile_qr_scan", "android": "https://dc.lft.to/lastmile_qr_scan"}, "is_reserved": 0}, {"lon": -77.02617933333333, "bike_id": "e08c2bd117ceb016a7f9d980fbeba190", "lat": 38.9282095, "fusion_lon": 0.0, "fusion_lat": 0.0, "type": "electric_scooter", "name": "e08c2bd117ceb016a7f9d980fbeba190", "is_disabled": 0, "rental_uris": {"ios": "https://dc.lft.to/lastmile_qr_scan", "android": "https://dc.lft.to/lastmile_qr_scan"}, "is_reserved": 0}, {"lon": -77.02149533333333, "bike_id": "795bb55a369f741ce069e8cc5a484122", "lat": 38.9249905, "fusion_lon": 0.0, "fusion_lat": 0.0, "type": "electric_scooter", "name": "795bb55a369f741ce069e8cc5a484122", "is_disabled": 0, "rental_uris": {"ios": "https://dc.lft.to/lastmile_qr_scan", "android": "https://dc.lft.to/lastmile_qr_scan"}, "is_reserved": 0}, {"lon": -77.042389, "bike_id": "7b289d780642c714ad53dcbf3332d68f", "lat": 38.9216185, "fusion_lon": 0.0, "fusion_lat": 0.0, "type": "electric_scooter", "name": "7b289d780642c714ad53dcbf3332d68f", "is_disabled": 0, "rental_uris": {"ios": "https://dc.lft.to/lastmile_qr_scan", "android": "https://dc.lft.to/lastmile_qr_scan"}, "is_reserved": 0}, {"lon": -77.03862283333333, "bike_id": "a70e40040aa60bf2897a5d86f4005d59", "lat": 38.9231335, "fusion_lon": 0.0, "fusion_lat": 0.0, "type": "electric_scooter", "name": "a70e40040aa60bf2897a5d86f4005d59", "is_disabled": 0, "rental_uris": {"ios": "https://dc.lft.to/lastmile_qr_scan", "android": "https://dc.lft.to/lastmile_qr_scan"}, "is_reserved": 0}, {"lon": -77.04492216666667, "bike_id": "8c1b784a23b224861f5dcb6a20a8565d", "lat": 38.9109465, "fusion_lon": 0.0, "fusion_lat": 0.0, "type": "electric_scooter", "name": "8c1b784a23b224861f5dcb6a20a8565d", "is_disabled": 0, "rental_uris": {"ios": "https://dc.lft.to/lastmile_qr_scan", "android": "https://dc.lft.to/lastmile_qr_scan"}, "is_reserved": 0}, {"lon": -76.9950865, "bike_id": "8d2bf9c23b144875c1aa185aac450141", "lat": 38.87915066666667, "fusion_lon": 0.0, "fusion_lat": 0.0, "type": "electric_scooter", "name": "8d2bf9c23b144875c1aa185aac450141", "is_disabled": 0, "rental_uris": {"ios": "https://dc.lft.to/lastmile_qr_scan", "android": "https://dc.lft.to/lastmile_qr_scan"}, "is_reserved": 0}, {"lon": -76.997922, "bike_id": "0d4df09ea6163c551b359808514f99e3", "lat": 38.95093516666667, "fusion_lon": 0.0, "fusion_lat": 0.0, "type": "electric_bike", "name": "0d4df09ea6163c551b359808514f99e3", "is_disabled": 0, "rental_uris": {"ios": "https://dc.lft.to/lastmile_qr_scan", "android": "https://dc.lft.to/lastmile_qr_scan"}, "is_reserved": 0}, {"lon": -77.0229815, "bike_id": "46fc5b5765b6b04ffe7f5694997ba5e2", "lat": 38.91671, "fusion_lon": 0.0, "fusion_lat": 0.0, "type": "electric_scooter", "name": "46fc5b5765b6b04ffe7f5694997ba5e2", "is_disabled": 0, "rental_uris": {"ios": "https://dc.lft.to/lastmile_qr_scan", "android": "https://dc.lft.to/lastmile_qr_scan"}, "is_reserved": 0}, {"lon": -77.01511383333333, "bike_id": "ea7ce2eaf7f74333d91455e8d3fce66d", "lat": 38.910010166666666, "fusion_lon": 0.0, "fusion_lat": 0.0, "type": "electric_scooter", "name": "ea7ce2eaf7f74333d91455e8d3fce66d", "is_disabled": 0, "rental_uris": {"ios": "https://dc.lft.to/lastmile_qr_scan", "android": "https://dc.lft.to/lastmile_qr_scan"}, "is_reserved": 0}, {"lon": -77.01532233333333, "bike_id": "63a2027cd6cb58a04cfd346362ab89a9", "lat": 38.892297666666664, "fusion_lon": 0.0, "fusion_lat": 0.0, "type": "electric_scooter", "name": "63a2027cd6cb58a04cfd346362ab89a9", "is_disabled": 0, "rental_uris": {"ios": "https://dc.lft.to/lastmile_qr_scan", "android": "https://dc.lft.to/lastmile_qr_scan"}, "is_reserved": 0}, {"lon": -77.02244866666666, "bike_id": "dbf8446e5e115d3f61744fc5be7a5390", "lat": 38.9228035, "fusion_lon": 0.0, "fusion_lat": 0.0, "type": "electric_scooter", "name": "dbf8446e5e115d3f61744fc5be7a5390", "is_disabled": 0, "rental_uris": {"ios": "https://dc.lft.to/lastmile_qr_scan", "android": "https://dc.lft.to/lastmile_qr_scan"}, "is_reserved": 0}, {"lon": -77.0438915, "bike_id": "01f55f138c5bd2c8869057981f05a16a", "lat": 38.9210615, "fusion_lon": 0.0, "fusion_lat": 0.0, "type": "electric_scooter", "name": "01f55f138c5bd2c8869057981f05a16a", "is_disabled": 0, "rental_uris": {"ios": "https://dc.lft.to/lastmile_qr_scan", "android": "https://dc.lft.to/lastmile_qr_scan"}, "is_reserved": 0}, {"lon": -77.065918, "bike_id": "51da26636a9ff1156d45055d9625b600", "lat": 38.90356966666667, "fusion_lon": 0.0, "fusion_lat": 0.0, "type": "electric_scooter", "name": "51da26636a9ff1156d45055d9625b600", "is_disabled": 0, "rental_uris": {"ios": "https://dc.lft.to/lastmile_qr_scan", "android": "https://dc.lft.to/lastmile_qr_scan"}, "is_reserved": 0}, {"lon": -77.0175305, "bike_id": "2fdf5d91fb364dc1de32d6f915a6e430", "lat": 38.885951666666664, "fusion_lon": 0.0, "fusion_lat": 0.0, "type": "electric_scooter", "name": "2fdf5d91fb364dc1de32d6f915a6e430", "is_disabled": 0, "rental_uris": {"ios": "https://dc.lft.to/lastmile_qr_scan", "android": "https://dc.lft.to/lastmile_qr_scan"}, "is_reserved": 0}, {"lon": -77.00600433333334, "bike_id": "069fcea4601f8a0ba662d32d987918c1", "lat": 38.88520833333333, "fusion_lon": 0.0, "fusion_lat": 0.0, "type": "electric_scooter", "name": "069fcea4601f8a0ba662d32d987918c1", "is_disabled": 0, "rental_uris": {"ios": "https://dc.lft.to/lastmile_qr_scan", "android": "https://dc.lft.to/lastmile_qr_scan"}, "is_reserved": 0}, {"lon": -77.03238366666666, "bike_id": "dc0348b215a296cb8222724a5533728d", "lat": 38.917131833333336, "fusion_lon": 0.0, "fusion_lat": 0.0, "type": "electric_scooter", "name": "dc0348b215a296cb8222724a5533728d", "is_disabled": 0, "rental_uris": {"ios": "https://dc.lft.to/lastmile_qr_scan", "android": "https://dc.lft.to/lastmile_qr_scan"}, "is_reserved": 0}, {"lon": -77.02676133333334, "bike_id": "9a7e71d59839e676cc3f31e642b02b50", "lat": 38.89787533333333, "fusion_lon": 0.0, "fusion_lat": 0.0, "type": "electric_scooter", "name": "9a7e71d59839e676cc3f31e642b02b50", "is_disabled": 0, "rental_uris": {"ios": "https://dc.lft.to/lastmile_qr_scan", "android": "https://dc.lft.to/lastmile_qr_scan"}, "is_reserved": 0}, {"lon": -76.93131966666667, "bike_id": "5530c268cca277c79e0ae52cbcc6e658", "lat": 38.87608616666667, "fusion_lon": 0.0, "fusion_lat": 0.0, "type": "electric_scooter", "name": "5530c268cca277c79e0ae52cbcc6e658", "is_disabled": 0, "rental_uris": {"ios": "https://dc.lft.to/lastmile_qr_scan", "android": "https://dc.lft.to/lastmile_qr_scan"}, "is_reserved": 0}, {"lon": -77.00584583333334, "bike_id": "5fb94f7720dff5fdc4a6beafb633b49e", "lat": 38.871842666666666, "fusion_lon": 0.0, "fusion_lat": 0.0, "type": "electric_scooter", "name": "5fb94f7720dff5fdc4a6beafb633b49e", "is_disabled": 0, "rental_uris": {"ios": "https://dc.lft.to/lastmile_qr_scan", "android": "https://dc.lft.to/lastmile_qr_scan"}, "is_reserved": 0}, {"lon": -76.963874, "bike_id": "2429e201347624dcfc59b3cf8339304b", "lat": 38.951677, "fusion_lon": 0.0, "fusion_lat": 0.0, "type": "electric_bike", "name": "2429e201347624dcfc59b3cf8339304b", "is_disabled": 0, "rental_uris": {"ios": "https://dc.lft.to/lastmile_qr_scan", "android": "https://dc.lft.to/lastmile_qr_scan"}, "is_reserved": 0}, {"lon": -77.0327835, "bike_id": "531a4bfca64f8deb36d8feee8d17b2f8", "lat": 38.928400333333336, "fusion_lon": 0.0, "fusion_lat": 0.0, "type": "electric_scooter", "name": "531a4bfca64f8deb36d8feee8d17b2f8", "is_disabled": 0, "rental_uris": {"ios": "https://dc.lft.to/lastmile_qr_scan", "android": "https://dc.lft.to/lastmile_qr_scan"}, "is_reserved": 0}, {"lon": -77.0417935, "bike_id": "eefdc228ffe9dc636ad8a1c393076532", "lat": 38.906442, "fusion_lon": 0.0, "fusion_lat": 0.0, "type": "electric_scooter", "name": "eefdc228ffe9dc636ad8a1c393076532", "is_disabled": 0, "rental_uris": {"ios": "https://dc.lft.to/lastmile_qr_scan", "android": "https://dc.lft.to/lastmile_qr_scan"}, "is_reserved": 0}, {"lon": -77.04884216666666, "bike_id": "ebe1f76630120a321e6202c2babee983", "lat": 38.90110633333333, "fusion_lon": 0.0, "fusion_lat": 0.0, "type": "electric_scooter", "name": "ebe1f76630120a321e6202c2babee983", "is_disabled": 0, "rental_uris": {"ios": "https://dc.lft.to/lastmile_qr_scan", "android": "https://dc.lft.to/lastmile_qr_scan"}, "is_reserved": 0}, {"lon": -77.02171366666667, "bike_id": "ef47f461adddddcf5c03141d94bf5dbf", "lat": 38.926148, "fusion_lon": 0.0, "fusion_lat": 0.0, "type": "electric_scooter", "name": "ef47f461adddddcf5c03141d94bf5dbf", "is_disabled": 0, "rental_uris": {"ios": "https://dc.lft.to/lastmile_qr_scan", "android": "https://dc.lft.to/lastmile_qr_scan"}, "is_reserved": 0}, {"lon": -77.031783, "bike_id": "9993482749990557f6bcaa073ecdc778", "lat": 38.904294666666665, "fusion_lon": 0.0, "fusion_lat": 0.0, "type": "electric_scooter", "name": "9993482749990557f6bcaa073ecdc778", "is_disabled": 0, "rental_uris": {"ios": "https://dc.lft.to/lastmile_qr_scan", "android": "https://dc.lft.to/lastmile_qr_scan"}, "is_reserved": 0}, {"lon": -76.9953625, "bike_id": "45aceac8881fbd976bacfb13a1846868", "lat": 38.92678433333333, "fusion_lon": 0.0, "fusion_lat": 0.0, "type": "electric_scooter", "name": "45aceac8881fbd976bacfb13a1846868", "is_disabled": 0, "rental_uris": {"ios": "https://dc.lft.to/lastmile_qr_scan", "android": "https://dc.lft.to/lastmile_qr_scan"}, "is_reserved": 0}, {"lon": -77.01636783333333, "bike_id": "8887a35b240cc425cd1d33529dcdf64c", "lat": 38.928982500000004, "fusion_lon": 0.0, "fusion_lat": 0.0, "type": "electric_scooter", "name": "8887a35b240cc425cd1d33529dcdf64c", "is_disabled": 0, "rental_uris": {"ios": "https://dc.lft.to/lastmile_qr_scan", "android": "https://dc.lft.to/lastmile_qr_scan"}, "is_reserved": 0}, {"lon": -77.01978116666666, "bike_id": "372004a203d85b8f05256465f25cef3e", "lat": 38.91274883333333, "fusion_lon": 0.0, "fusion_lat": 0.0, "type": "electric_scooter", "name": "372004a203d85b8f05256465f25cef3e", "is_disabled": 0, "rental_uris": {"ios": "https://dc.lft.to/lastmile_qr_scan", "android": "https://dc.lft.to/lastmile_qr_scan"}, "is_reserved": 0}, {"lon": -77.0211525, "bike_id": "d462252b246814b2c20f090fa9ee5aeb", "lat": 38.924651, "fusion_lon": 0.0, "fusion_lat": 0.0, "type": "electric_scooter", "name": "d462252b246814b2c20f090fa9ee5aeb", "is_disabled": 0, "rental_uris": {"ios": "https://dc.lft.to/lastmile_qr_scan", "android": "https://dc.lft.to/lastmile_qr_scan"}, "is_reserved": 0}, {"lon": -76.9954665, "bike_id": "100caf9da90a4e88c0ccd79297d4116b", "lat": 38.8625985, "fusion_lon": 0.0, "fusion_lat": 0.0, "type": "electric_scooter", "name": "100caf9da90a4e88c0ccd79297d4116b", "is_disabled": 0, "rental_uris": {"ios": "https://dc.lft.to/lastmile_qr_scan", "android": "https://dc.lft.to/lastmile_qr_scan"}, "is_reserved": 0}, {"lon": -77.02665166666667, "bike_id": "c2834caa7a8b80fcfd0e83d741a3f9dd", "lat": 38.897881, "fusion_lon": 0.0, "fusion_lat": 0.0, "type": "electric_scooter", "name": "c2834caa7a8b80fcfd0e83d741a3f9dd", "is_disabled": 0, "rental_uris": {"ios": "https://dc.lft.to/lastmile_qr_scan", "android": "https://dc.lft.to/lastmile_qr_scan"}, "is_reserved": 0}, {"lon": -77.03260616666667, "bike_id": "84747a61ef9fa01c6821b23e93df2071", "lat": 38.935625, "fusion_lon": 0.0, "fusion_lat": 0.0, "type": "electric_scooter", "name": "84747a61ef9fa01c6821b23e93df2071", "is_disabled": 0, "rental_uris": {"ios": "https://dc.lft.to/lastmile_qr_scan", "android": "https://dc.lft.to/lastmile_qr_scan"}, "is_reserved": 0}, {"lon": -77.07435166666667, "bike_id": "7f0bbced96822a5d4bbb864d273b49cd", "lat": 38.9994495, "fusion_lon": 0.0, "fusion_lat": 0.0, "type": "electric_bike", "name": "7f0bbced96822a5d4bbb864d273b49cd", "is_disabled": 0, "rental_uris": {"ios": "https://dc.lft.to/lastmile_qr_scan", "android": "https://dc.lft.to/lastmile_qr_scan"}, "is_reserved": 0}, {"lon": -77.02418333333334, "bike_id": "5eada08f4937c901605063463f90bd08", "lat": 38.919162666666665, "fusion_lon": 0.0, "fusion_lat": 0.0, "type": "electric_scooter", "name": "5eada08f4937c901605063463f90bd08", "is_disabled": 0, "rental_uris": {"ios": "https://dc.lft.to/lastmile_qr_scan", "android": "https://dc.lft.to/lastmile_qr_scan"}, "is_reserved": 0}, {"lon": -76.99164683333333, "bike_id": "8cb45f93726247ee088aab1a38bfb1da", "lat": 38.887669, "fusion_lon": 0.0, "fusion_lat": 0.0, "type": "electric_bike", "name": "8cb45f93726247ee088aab1a38bfb1da", "is_disabled": 0, "rental_uris": {"ios": "https://dc.lft.to/lastmile_qr_scan", "android": "https://dc.lft.to/lastmile_qr_scan"}, "is_reserved": 0}, {"lon": -77.02367033333333, "bike_id": "da2dd7b80fcb04cd61fd37a2a84b2ab7", "lat": 38.930823, "fusion_lon": 0.0, "fusion_lat": 0.0, "type": "electric_scooter", "name": "da2dd7b80fcb04cd61fd37a2a84b2ab7", "is_disabled": 0, "rental_uris": {"ios": "https://dc.lft.to/lastmile_qr_scan", "android": "https://dc.lft.to/lastmile_qr_scan"}, "is_reserved": 0}, {"lon": -77.00058466666667, "bike_id": "7113dc58e87ad935e1a6bb2e166798eb", "lat": 38.89925983333333, "fusion_lon": 0.0, "fusion_lat": 0.0, "type": "electric_scooter", "name": "7113dc58e87ad935e1a6bb2e166798eb", "is_disabled": 0, "rental_uris": {"ios": "https://dc.lft.to/lastmile_qr_scan", "android": "https://dc.lft.to/lastmile_qr_scan"}, "is_reserved": 0}, {"lon": -77.03226833333333, "bike_id": "93d6d9d42867dca3b732aee590e5f163", "lat": 38.9140405, "fusion_lon": 0.0, "fusion_lat": 0.0, "type": "electric_scooter", "name": "93d6d9d42867dca3b732aee590e5f163", "is_disabled": 0, "rental_uris": {"ios": "https://dc.lft.to/lastmile_qr_scan", "android": "https://dc.lft.to/lastmile_qr_scan"}, "is_reserved": 0}, {"lon": -76.98717683333334, "bike_id": "af9eeb435b55077efa864053a426a3c6", "lat": 38.866281, "fusion_lon": 0.0, "fusion_lat": 0.0, "type": "electric_scooter", "name": "af9eeb435b55077efa864053a426a3c6", "is_disabled": 0, "rental_uris": {"ios": "https://dc.lft.to/lastmile_qr_scan", "android": "https://dc.lft.to/lastmile_qr_scan"}, "is_reserved": 0}, {"lon": -77.0242855, "bike_id": "b9b17ae5bb04fa5002f0b965920c7a88", "lat": 38.9140265, "fusion_lon": 0.0, "fusion_lat": 0.0, "type": "electric_scooter", "name": "b9b17ae5bb04fa5002f0b965920c7a88", "is_disabled": 0, "rental_uris": {"ios": "https://dc.lft.to/lastmile_qr_scan", "android": "https://dc.lft.to/lastmile_qr_scan"}, "is_reserved": 0}, {"lon": -77.03998933333334, "bike_id": "a4bcc3001dd7896716ab802b26d9735e", "lat": 38.9052645, "fusion_lon": 0.0, "fusion_lat": 0.0, "type": "electric_scooter", "name": "a4bcc3001dd7896716ab802b26d9735e", "is_disabled": 0, "rental_uris": {"ios": "https://dc.lft.to/lastmile_qr_scan", "android": "https://dc.lft.to/lastmile_qr_scan"}, "is_reserved": 0}, {"lon": -77.00740533333334, "bike_id": "4fbad02ad778b39c69e87a9eeb5b6a8b", "lat": 38.9161915, "fusion_lon": 0.0, "fusion_lat": 0.0, "type": "electric_scooter", "name": "4fbad02ad778b39c69e87a9eeb5b6a8b", "is_disabled": 0, "rental_uris": {"ios": "https://dc.lft.to/lastmile_qr_scan", "android": "https://dc.lft.to/lastmile_qr_scan"}, "is_reserved": 0}, {"lon": -76.997872, "bike_id": "7413508a7356e8ac052a0d2b03f582e4", "lat": 38.890888333333336, "fusion_lon": 0.0, "fusion_lat": 0.0, "type": "electric_scooter", "name": "7413508a7356e8ac052a0d2b03f582e4", "is_disabled": 0, "rental_uris": {"ios": "https://dc.lft.to/lastmile_qr_scan", "android": "https://dc.lft.to/lastmile_qr_scan"}, "is_reserved": 0}, {"lon": -77.06292116666667, "bike_id": "b1c3fa71bcf8c755908b5cc98c5061b4", "lat": 38.906858166666666, "fusion_lon": 0.0, "fusion_lat": 0.0, "type": "electric_scooter", "name": "b1c3fa71bcf8c755908b5cc98c5061b4", "is_disabled": 0, "rental_uris": {"ios": "https://dc.lft.to/lastmile_qr_scan", "android": "https://dc.lft.to/lastmile_qr_scan"}, "is_reserved": 0}, {"lon": -77.01594783333333, "bike_id": "eb44e7ed25e8cef60f3ba9987a2e69f3", "lat": 38.9493565, "fusion_lon": 0.0, "fusion_lat": 0.0, "type": "electric_scooter", "name": "eb44e7ed25e8cef60f3ba9987a2e69f3", "is_disabled": 0, "rental_uris": {"ios": "https://dc.lft.to/lastmile_qr_scan", "android": "https://dc.lft.to/lastmile_qr_scan"}, "is_reserved": 0}, {"lon": -77.042807, "bike_id": "8106b378ec6f8a92ae01cac37d957e13", "lat": 38.90964316666667, "fusion_lon": 0.0, "fusion_lat": 0.0, "type": "electric_scooter", "name": "8106b378ec6f8a92ae01cac37d957e13", "is_disabled": 0, "rental_uris": {"ios": "https://dc.lft.to/lastmile_qr_scan", "android": "https://dc.lft.to/lastmile_qr_scan"}, "is_reserved": 0}, {"lon": -76.9855515, "bike_id": "e72c39d2198cb75255a339e04fc20c6c", "lat": 38.910303, "fusion_lon": 0.0, "fusion_lat": 0.0, "type": "electric_scooter", "name": "e72c39d2198cb75255a339e04fc20c6c", "is_disabled": 0, "rental_uris": {"ios": "https://dc.lft.to/lastmile_qr_scan", "android": "https://dc.lft.to/lastmile_qr_scan"}, "is_reserved": 0}, {"lon": -77.03376266666666, "bike_id": "02bfdaed21599549a2a296a29e68774e", "lat": 38.90964733333333, "fusion_lon": 0.0, "fusion_lat": 0.0, "type": "electric_scooter", "name": "02bfdaed21599549a2a296a29e68774e", "is_disabled": 0, "rental_uris": {"ios": "https://dc.lft.to/lastmile_qr_scan", "android": "https://dc.lft.to/lastmile_qr_scan"}, "is_reserved": 0}, {"lon": -77.04181716666666, "bike_id": "4dcd45567409fbea3255d051a981f57d", "lat": 38.91552633333333, "fusion_lon": 0.0, "fusion_lat": 0.0, "type": "electric_scooter", "name": "4dcd45567409fbea3255d051a981f57d", "is_disabled": 0, "rental_uris": {"ios": "https://dc.lft.to/lastmile_qr_scan", "android": "https://dc.lft.to/lastmile_qr_scan"}, "is_reserved": 0}, {"lon": -77.04756533333334, "bike_id": "b47981253d8c34872bd22fb096c55a0a", "lat": 38.92320433333333, "fusion_lon": 0.0, "fusion_lat": 0.0, "type": "electric_scooter", "name": "b47981253d8c34872bd22fb096c55a0a", "is_disabled": 0, "rental_uris": {"ios": "https://dc.lft.to/lastmile_qr_scan", "android": "https://dc.lft.to/lastmile_qr_scan"}, "is_reserved": 0}, {"lon": -76.98247916666666, "bike_id": "d3f6c5540f6219727db5f8d65c961b91", "lat": 38.864563833333335, "fusion_lon": 0.0, "fusion_lat": 0.0, "type": "electric_scooter", "name": "d3f6c5540f6219727db5f8d65c961b91", "is_disabled": 0, "rental_uris": {"ios": "https://dc.lft.to/lastmile_qr_scan", "android": "https://dc.lft.to/lastmile_qr_scan"}, "is_reserved": 0}, {"lon": -77.00567433333333, "bike_id": "d8ec35730306428770a0ec1658a0332f", "lat": 38.900363166666665, "fusion_lon": 0.0, "fusion_lat": 0.0, "type": "electric_scooter", "name": "d8ec35730306428770a0ec1658a0332f", "is_disabled": 0, "rental_uris": {"ios": "https://dc.lft.to/lastmile_qr_scan", "android": "https://dc.lft.to/lastmile_qr_scan"}, "is_reserved": 0}, {"lon": -77.03644533333333, "bike_id": "564b6750ebf5968b35417c14345c7835", "lat": 38.9225965, "fusion_lon": 0.0, "fusion_lat": 0.0, "type": "electric_scooter", "name": "564b6750ebf5968b35417c14345c7835", "is_disabled": 0, "rental_uris": {"ios": "https://dc.lft.to/lastmile_qr_scan", "android": "https://dc.lft.to/lastmile_qr_scan"}, "is_reserved": 0}, {"lon": -77.04700483333333, "bike_id": "d9c92400e801b0c2cbdebd8d7efdc312", "lat": 38.9189485, "fusion_lon": 0.0, "fusion_lat": 0.0, "type": "electric_scooter", "name": "d9c92400e801b0c2cbdebd8d7efdc312", "is_disabled": 0, "rental_uris": {"ios": "https://dc.lft.to/lastmile_qr_scan", "android": "https://dc.lft.to/lastmile_qr_scan"}, "is_reserved": 0}, {"lon": -77.02693566666666, "bike_id": "c187f512f0b5d4a941340e20a8a35ab7", "lat": 38.909382666666666, "fusion_lon": 0.0, "fusion_lat": 0.0, "type": "electric_scooter", "name": "c187f512f0b5d4a941340e20a8a35ab7", "is_disabled": 0, "rental_uris": {"ios": "https://dc.lft.to/lastmile_qr_scan", "android": "https://dc.lft.to/lastmile_qr_scan"}, "is_reserved": 0}, {"lon": -76.9810985, "bike_id": "ca6bfba9e0ee0f1a44fe3763376a8243", "lat": 38.877276, "fusion_lon": 0.0, "fusion_lat": 0.0, "type": "electric_bike", "name": "ca6bfba9e0ee0f1a44fe3763376a8243", "is_disabled": 0, "rental_uris": {"ios": "https://dc.lft.to/lastmile_qr_scan", "android": "https://dc.lft.to/lastmile_qr_scan"}, "is_reserved": 0}, {"lon": -77.00190666666667, "bike_id": "62d65a0211f6dd9f4352821a509a8160", "lat": 38.894789833333334, "fusion_lon": 0.0, "fusion_lat": 0.0, "type": "electric_scooter", "name": "62d65a0211f6dd9f4352821a509a8160", "is_disabled": 0, "rental_uris": {"ios": "https://dc.lft.to/lastmile_qr_scan", "android": "https://dc.lft.to/lastmile_qr_scan"}, "is_reserved": 0}, {"lon": -77.02716383333333, "bike_id": "cf3ea784cec1c01b5e3ac7087e9a2fab", "lat": 38.92465166666667, "fusion_lon": 0.0, "fusion_lat": 0.0, "type": "electric_scooter", "name": "cf3ea784cec1c01b5e3ac7087e9a2fab", "is_disabled": 0, "rental_uris": {"ios": "https://dc.lft.to/lastmile_qr_scan", "android": "https://dc.lft.to/lastmile_qr_scan"}, "is_reserved": 0}, {"lon": -77.025893, "bike_id": "3a9db7ac872bb5ee2ef0db19818f0789", "lat": 38.914106833333335, "fusion_lon": 0.0, "fusion_lat": 0.0, "type": "electric_scooter", "name": "3a9db7ac872bb5ee2ef0db19818f0789", "is_disabled": 0, "rental_uris": {"ios": "https://dc.lft.to/lastmile_qr_scan", "android": "https://dc.lft.to/lastmile_qr_scan"}, "is_reserved": 0}, {"lon": -77.02527166666667, "bike_id": "d36e24c3ac139ca06bc579822b17da4a", "lat": 38.9198605, "fusion_lon": 0.0, "fusion_lat": 0.0, "type": "electric_scooter", "name": "d36e24c3ac139ca06bc579822b17da4a", "is_disabled": 0, "rental_uris": {"ios": "https://dc.lft.to/lastmile_qr_scan", "android": "https://dc.lft.to/lastmile_qr_scan"}, "is_reserved": 0}, {"lon": -77.02973433333334, "bike_id": "1a6441ac683c89f70b40aac83afe1462", "lat": 38.940518, "fusion_lon": 0.0, "fusion_lat": 0.0, "type": "electric_scooter", "name": "1a6441ac683c89f70b40aac83afe1462", "is_disabled": 0, "rental_uris": {"ios": "https://dc.lft.to/lastmile_qr_scan", "android": "https://dc.lft.to/lastmile_qr_scan"}, "is_reserved": 0}, {"lon": -77.02837683333334, "bike_id": "566e0f04d58e9aa8f5c1dc54f32be512", "lat": 38.91707683333333, "fusion_lon": 0.0, "fusion_lat": 0.0, "type": "electric_scooter", "name": "566e0f04d58e9aa8f5c1dc54f32be512", "is_disabled": 0, "rental_uris": {"ios": "https://dc.lft.to/lastmile_qr_scan", "android": "https://dc.lft.to/lastmile_qr_scan"}, "is_reserved": 0}, {"lon": -77.05240233333333, "bike_id": "ea77a8911373c8a9d9c37b784bde9090", "lat": 38.925072166666666, "fusion_lon": 0.0, "fusion_lat": 0.0, "type": "electric_scooter", "name": "ea77a8911373c8a9d9c37b784bde9090", "is_disabled": 0, "rental_uris": {"ios": "https://dc.lft.to/lastmile_qr_scan", "android": "https://dc.lft.to/lastmile_qr_scan"}, "is_reserved": 0}, {"lon": -77.045007, "bike_id": "f2d43488889d39715cf0ed24d90e7031", "lat": 38.915640333333336, "fusion_lon": 0.0, "fusion_lat": 0.0, "type": "electric_scooter", "name": "f2d43488889d39715cf0ed24d90e7031", "is_disabled": 0, "rental_uris": {"ios": "https://dc.lft.to/lastmile_qr_scan", "android": "https://dc.lft.to/lastmile_qr_scan"}, "is_reserved": 0}, {"lon": -77.0318145, "bike_id": "95cc806add7030a0252e5164d93591ee", "lat": 38.908646833333336, "fusion_lon": 0.0, "fusion_lat": 0.0, "type": "electric_scooter", "name": "95cc806add7030a0252e5164d93591ee", "is_disabled": 0, "rental_uris": {"ios": "https://dc.lft.to/lastmile_qr_scan", "android": "https://dc.lft.to/lastmile_qr_scan"}, "is_reserved": 0}, {"lon": -76.9802835, "bike_id": "bd1703b38f4926b629310510ea1a8439", "lat": 38.85312583333334, "fusion_lon": 0.0, "fusion_lat": 0.0, "type": "electric_scooter", "name": "bd1703b38f4926b629310510ea1a8439", "is_disabled": 0, "rental_uris": {"ios": "https://dc.lft.to/lastmile_qr_scan", "android": "https://dc.lft.to/lastmile_qr_scan"}, "is_reserved": 0}, {"lon": -77.02130716666667, "bike_id": "06fe3501971b346991a92d1582a9c814", "lat": 38.924224833333334, "fusion_lon": 0.0, "fusion_lat": 0.0, "type": "electric_scooter", "name": "06fe3501971b346991a92d1582a9c814", "is_disabled": 0, "rental_uris": {"ios": "https://dc.lft.to/lastmile_qr_scan", "android": "https://dc.lft.to/lastmile_qr_scan"}, "is_reserved": 0}, {"lon": -76.985113, "bike_id": "614f443587434d1d1e6c60c4e3272d52", "lat": 38.90336033333333, "fusion_lon": 0.0, "fusion_lat": 0.0, "type": "electric_scooter", "name": "614f443587434d1d1e6c60c4e3272d52", "is_disabled": 0, "rental_uris": {"ios": "https://dc.lft.to/lastmile_qr_scan", "android": "https://dc.lft.to/lastmile_qr_scan"}, "is_reserved": 0}, {"lon": -77.02320233333333, "bike_id": "45123ba9f22221364e34fbadab512e71", "lat": 38.9552295, "fusion_lon": 0.0, "fusion_lat": 0.0, "type": "electric_scooter", "name": "45123ba9f22221364e34fbadab512e71", "is_disabled": 0, "rental_uris": {"ios": "https://dc.lft.to/lastmile_qr_scan", "android": "https://dc.lft.to/lastmile_qr_scan"}, "is_reserved": 0}, {"lon": -77.03555233333333, "bike_id": "6902a53ec56c69b269a2df531f1a2398", "lat": 38.9271005, "fusion_lon": 0.0, "fusion_lat": 0.0, "type": "electric_scooter", "name": "6902a53ec56c69b269a2df531f1a2398", "is_disabled": 0, "rental_uris": {"ios": "https://dc.lft.to/lastmile_qr_scan", "android": "https://dc.lft.to/lastmile_qr_scan"}, "is_reserved": 0}, {"lon": -77.02377166666666, "bike_id": "2843a5426ec4fb4e1399b42532a19e07", "lat": 38.90630866666667, "fusion_lon": 0.0, "fusion_lat": 0.0, "type": "electric_scooter", "name": "2843a5426ec4fb4e1399b42532a19e07", "is_disabled": 0, "rental_uris": {"ios": "https://dc.lft.to/lastmile_qr_scan", "android": "https://dc.lft.to/lastmile_qr_scan"}, "is_reserved": 0}, {"lon": -77.02005616666666, "bike_id": "4dd991a8ed73908953eb404b87ab8641", "lat": 38.895243, "fusion_lon": 0.0, "fusion_lat": 0.0, "type": "electric_scooter", "name": "4dd991a8ed73908953eb404b87ab8641", "is_disabled": 0, "rental_uris": {"ios": "https://dc.lft.to/lastmile_qr_scan", "android": "https://dc.lft.to/lastmile_qr_scan"}, "is_reserved": 0}, {"lon": -76.94576616666667, "bike_id": "89fc5a33cd0eda1ddc313b2e4a415723", "lat": 38.93744216666666, "fusion_lon": 0.0, "fusion_lat": 0.0, "type": "electric_bike", "name": "89fc5a33cd0eda1ddc313b2e4a415723", "is_disabled": 0, "rental_uris": {"ios": "https://dc.lft.to/lastmile_qr_scan", "android": "https://dc.lft.to/lastmile_qr_scan"}, "is_reserved": 0}, {"lon": -77.032058, "bike_id": "e7988ff314bf34fd866dc77cd073850b", "lat": 38.9152425, "fusion_lon": 0.0, "fusion_lat": 0.0, "type": "electric_scooter", "name": "e7988ff314bf34fd866dc77cd073850b", "is_disabled": 0, "rental_uris": {"ios": "https://dc.lft.to/lastmile_qr_scan", "android": "https://dc.lft.to/lastmile_qr_scan"}, "is_reserved": 0}, {"lon": -77.03468383333333, "bike_id": "76f6814b3453a66d68ce1833fb4a0588", "lat": 38.914926666666666, "fusion_lon": 0.0, "fusion_lat": 0.0, "type": "electric_scooter", "name": "76f6814b3453a66d68ce1833fb4a0588", "is_disabled": 0, "rental_uris": {"ios": "https://dc.lft.to/lastmile_qr_scan", "android": "https://dc.lft.to/lastmile_qr_scan"}, "is_reserved": 0}, {"lon": -77.04868016666667, "bike_id": "f8ccddf8643c6b0147e303504c3dabe0", "lat": 38.892163333333336, "fusion_lon": 0.0, "fusion_lat": 0.0, "type": "electric_scooter", "name": "f8ccddf8643c6b0147e303504c3dabe0", "is_disabled": 0, "rental_uris": {"ios": "https://dc.lft.to/lastmile_qr_scan", "android": "https://dc.lft.to/lastmile_qr_scan"}, "is_reserved": 0}, {"lon": -77.00798333333333, "bike_id": "379da9b03ac0722dbb47c88a2e3dd8c7", "lat": 38.87512316666667, "fusion_lon": 0.0, "fusion_lat": 0.0, "type": "electric_bike", "name": "379da9b03ac0722dbb47c88a2e3dd8c7", "is_disabled": 0, "rental_uris": {"ios": "https://dc.lft.to/lastmile_qr_scan", "android": "https://dc.lft.to/lastmile_qr_scan"}, "is_reserved": 0}, {"lon": -77.026629, "bike_id": "92441c3565f546d2ce43e9de0bb21a5d", "lat": 38.896046166666665, "fusion_lon": 0.0, "fusion_lat": 0.0, "type": "electric_scooter", "name": "92441c3565f546d2ce43e9de0bb21a5d", "is_disabled": 0, "rental_uris": {"ios": "https://dc.lft.to/lastmile_qr_scan", "android": "https://dc.lft.to/lastmile_qr_scan"}, "is_reserved": 0}, {"lon": -77.233213, "bike_id": "140d58a1655257f978304c7288d0949a", "lat": 38.87281866666667, "fusion_lon": 0.0, "fusion_lat": 0.0, "type": "electric_bike", "name": "140d58a1655257f978304c7288d0949a", "is_disabled": 0, "rental_uris": {"ios": "https://dc.lft.to/lastmile_qr_scan", "android": "https://dc.lft.to/lastmile_qr_scan"}, "is_reserved": 0}, {"lon": -76.97305383333334, "bike_id": "2edb40045ff1199d4dd4a02bfc64c54d", "lat": 38.916454333333334, "fusion_lon": 0.0, "fusion_lat": 0.0, "type": "electric_bike", "name": "2edb40045ff1199d4dd4a02bfc64c54d", "is_disabled": 0, "rental_uris": {"ios": "https://dc.lft.to/lastmile_qr_scan", "android": "https://dc.lft.to/lastmile_qr_scan"}, "is_reserved": 0}, {"lon": -77.02708916666667, "bike_id": "fc174a7215b071f9f63f5cd66ca81451", "lat": 38.927763, "fusion_lon": 0.0, "fusion_lat": 0.0, "type": "electric_scooter", "name": "fc174a7215b071f9f63f5cd66ca81451", "is_disabled": 0, "rental_uris": {"ios": "https://dc.lft.to/lastmile_qr_scan", "android": "https://dc.lft.to/lastmile_qr_scan"}, "is_reserved": 0}, {"lon": -77.028059, "bike_id": "6c1af4810ccd7b3b48b4e130a66cb056", "lat": 38.91687833333334, "fusion_lon": 0.0, "fusion_lat": 0.0, "type": "electric_scooter", "name": "6c1af4810ccd7b3b48b4e130a66cb056", "is_disabled": 0, "rental_uris": {"ios": "https://dc.lft.to/lastmile_qr_scan", "android": "https://dc.lft.to/lastmile_qr_scan"}, "is_reserved": 0}, {"lon": -77.044787, "bike_id": "e51693c79032a4960f8ae006b06b8134", "lat": 38.924241, "fusion_lon": 0.0, "fusion_lat": 0.0, "type": "electric_scooter", "name": "e51693c79032a4960f8ae006b06b8134", "is_disabled": 0, "rental_uris": {"ios": "https://dc.lft.to/lastmile_qr_scan", "android": "https://dc.lft.to/lastmile_qr_scan"}, "is_reserved": 0}, {"lon": -77.23330833333333, "bike_id": "e8dc94838a940d688a7931f14fd51231", "lat": 38.872761833333335, "fusion_lon": 0.0, "fusion_lat": 0.0, "type": "electric_bike", "name": "e8dc94838a940d688a7931f14fd51231", "is_disabled": 0, "rental_uris": {"ios": "https://dc.lft.to/lastmile_qr_scan", "android": "https://dc.lft.to/lastmile_qr_scan"}, "is_reserved": 0}, {"lon": -76.93755416666667, "bike_id": "ed227444007d043211be93f6a0cbdb07", "lat": 38.890480833333335, "fusion_lon": 0.0, "fusion_lat": 0.0, "type": "electric_scooter", "name": "ed227444007d043211be93f6a0cbdb07", "is_disabled": 0, "rental_uris": {"ios": "https://dc.lft.to/lastmile_qr_scan", "android": "https://dc.lft.to/lastmile_qr_scan"}, "is_reserved": 0}, {"lon": -77.041679, "bike_id": "97d2ecf870ce9dd8dd31f8a73da894cb", "lat": 38.91766716666667, "fusion_lon": 0.0, "fusion_lat": 0.0, "type": "electric_scooter", "name": "97d2ecf870ce9dd8dd31f8a73da894cb", "is_disabled": 0, "rental_uris": {"ios": "https://dc.lft.to/lastmile_qr_scan", "android": "https://dc.lft.to/lastmile_qr_scan"}, "is_reserved": 0}, {"lon": -77.028966, "bike_id": "6acf8a6698b2f650c868fd09ae8afad4", "lat": 38.90419766666667, "fusion_lon": 0.0, "fusion_lat": 0.0, "type": "electric_scooter", "name": "6acf8a6698b2f650c868fd09ae8afad4", "is_disabled": 0, "rental_uris": {"ios": "https://dc.lft.to/lastmile_qr_scan", "android": "https://dc.lft.to/lastmile_qr_scan"}, "is_reserved": 0}, {"lon": -77.02616616666667, "bike_id": "53a8ec0cfdc8be9c00b53c4a0a5743ec", "lat": 38.914138333333334, "fusion_lon": 0.0, "fusion_lat": 0.0, "type": "electric_scooter", "name": "53a8ec0cfdc8be9c00b53c4a0a5743ec", "is_disabled": 0, "rental_uris": {"ios": "https://dc.lft.to/lastmile_qr_scan", "android": "https://dc.lft.to/lastmile_qr_scan"}, "is_reserved": 0}, {"lon": -77.00888166666667, "bike_id": "707384fb749c58a3ef944483d10e0d76", "lat": 38.92275433333333, "fusion_lon": 0.0, "fusion_lat": 0.0, "type": "electric_scooter", "name": "707384fb749c58a3ef944483d10e0d76", "is_disabled": 0, "rental_uris": {"ios": "https://dc.lft.to/lastmile_qr_scan", "android": "https://dc.lft.to/lastmile_qr_scan"}, "is_reserved": 0}, {"lon": -77.04340366666666, "bike_id": "b4720c67705c39c8556a337019f301c6", "lat": 38.90766883333333, "fusion_lon": 0.0, "fusion_lat": 0.0, "type": "electric_scooter", "name": "b4720c67705c39c8556a337019f301c6", "is_disabled": 0, "rental_uris": {"ios": "https://dc.lft.to/lastmile_qr_scan", "android": "https://dc.lft.to/lastmile_qr_scan"}, "is_reserved": 0}, {"lon": -77.03177916666667, "bike_id": "588b7fe305a8e5e6ca2c8faa540b9095", "lat": 38.903753, "fusion_lon": 0.0, "fusion_lat": 0.0, "type": "electric_scooter", "name": "588b7fe305a8e5e6ca2c8faa540b9095", "is_disabled": 0, "rental_uris": {"ios": "https://dc.lft.to/lastmile_qr_scan", "android": "https://dc.lft.to/lastmile_qr_scan"}, "is_reserved": 0}, {"lon": -77.062564, "bike_id": "30a64024c23fcea0ccaa44b20b32cfef", "lat": 38.9436445, "fusion_lon": 0.0, "fusion_lat": 0.0, "type": "electric_bike", "name": "30a64024c23fcea0ccaa44b20b32cfef", "is_disabled": 0, "rental_uris": {"ios": "https://dc.lft.to/lastmile_qr_scan", "android": "https://dc.lft.to/lastmile_qr_scan"}, "is_reserved": 0}, {"lon": -76.998899, "bike_id": "ec8d9d086aed741fe14e10d10009a5a6", "lat": 38.90943016666667, "fusion_lon": 0.0, "fusion_lat": 0.0, "type": "electric_scooter", "name": "ec8d9d086aed741fe14e10d10009a5a6", "is_disabled": 0, "rental_uris": {"ios": "https://dc.lft.to/lastmile_qr_scan", "android": "https://dc.lft.to/lastmile_qr_scan"}, "is_reserved": 0}, {"lon": -76.97614066666667, "bike_id": "caaf247cd428a92265e31caccd5c43d6", "lat": 38.903824166666666, "fusion_lon": 0.0, "fusion_lat": 0.0, "type": "electric_scooter", "name": "caaf247cd428a92265e31caccd5c43d6", "is_disabled": 0, "rental_uris": {"ios": "https://dc.lft.to/lastmile_qr_scan", "android": "https://dc.lft.to/lastmile_qr_scan"}, "is_reserved": 0}, {"lon": -77.02002866666666, "bike_id": "dee342e1db38c30fd6903afdf09f1161", "lat": 38.90097766666667, "fusion_lon": 0.0, "fusion_lat": 0.0, "type": "electric_scooter", "name": "dee342e1db38c30fd6903afdf09f1161", "is_disabled": 0, "rental_uris": {"ios": "https://dc.lft.to/lastmile_qr_scan", "android": "https://dc.lft.to/lastmile_qr_scan"}, "is_reserved": 0}, {"lon": -77.04817366666667, "bike_id": "863573aaa02f52cd7ee6ec3470e5a749", "lat": 38.91105183333333, "fusion_lon": 0.0, "fusion_lat": 0.0, "type": "electric_scooter", "name": "863573aaa02f52cd7ee6ec3470e5a749", "is_disabled": 0, "rental_uris": {"ios": "https://dc.lft.to/lastmile_qr_scan", "android": "https://dc.lft.to/lastmile_qr_scan"}, "is_reserved": 0}, {"lon": -77.044995, "bike_id": "37ae6e3b50c084a237c15d6be2c713c2", "lat": 38.90840733333334, "fusion_lon": 0.0, "fusion_lat": 0.0, "type": "electric_scooter", "name": "37ae6e3b50c084a237c15d6be2c713c2", "is_disabled": 0, "rental_uris": {"ios": "https://dc.lft.to/lastmile_qr_scan", "android": "https://dc.lft.to/lastmile_qr_scan"}, "is_reserved": 0}, {"lon": -77.03047, "bike_id": "2cc90c03aa8ec555661e17bfdfe74710", "lat": 38.922439, "fusion_lon": 0.0, "fusion_lat": 0.0, "type": "electric_scooter", "name": "2cc90c03aa8ec555661e17bfdfe74710", "is_disabled": 0, "rental_uris": {"ios": "https://dc.lft.to/lastmile_qr_scan", "android": "https://dc.lft.to/lastmile_qr_scan"}, "is_reserved": 0}, {"lon": -77.01995533333333, "bike_id": "e268123ecc52a4341267fa9ea7be6b69", "lat": 38.915768666666665, "fusion_lon": 0.0, "fusion_lat": 0.0, "type": "electric_scooter", "name": "e268123ecc52a4341267fa9ea7be6b69", "is_disabled": 0, "rental_uris": {"ios": "https://dc.lft.to/lastmile_qr_scan", "android": "https://dc.lft.to/lastmile_qr_scan"}, "is_reserved": 0}, {"lon": -77.0446315, "bike_id": "cc5e7a7c2bc09e18252c999e43f1789b", "lat": 38.918498666666665, "fusion_lon": 0.0, "fusion_lat": 0.0, "type": "electric_scooter", "name": "cc5e7a7c2bc09e18252c999e43f1789b", "is_disabled": 0, "rental_uris": {"ios": "https://dc.lft.to/lastmile_qr_scan", "android": "https://dc.lft.to/lastmile_qr_scan"}, "is_reserved": 0}, {"lon": -76.93613583333334, "bike_id": "2e991f54aadc2e4fbdc7b8ebc1f9e2c4", "lat": 38.896811666666665, "fusion_lon": 0.0, "fusion_lat": 0.0, "type": "electric_scooter", "name": "2e991f54aadc2e4fbdc7b8ebc1f9e2c4", "is_disabled": 0, "rental_uris": {"ios": "https://dc.lft.to/lastmile_qr_scan", "android": "https://dc.lft.to/lastmile_qr_scan"}, "is_reserved": 0}, {"lon": -77.02561183333333, "bike_id": "f2ea6dfa38af211949fc611b00bf872d", "lat": 38.907204, "fusion_lon": 0.0, "fusion_lat": 0.0, "type": "electric_scooter", "name": "f2ea6dfa38af211949fc611b00bf872d", "is_disabled": 0, "rental_uris": {"ios": "https://dc.lft.to/lastmile_qr_scan", "android": "https://dc.lft.to/lastmile_qr_scan"}, "is_reserved": 0}, {"lon": -77.007575, "bike_id": "12ea522cc7141f2483809e322963ec1c", "lat": 38.898455166666665, "fusion_lon": 0.0, "fusion_lat": 0.0, "type": "electric_scooter", "name": "12ea522cc7141f2483809e322963ec1c", "is_disabled": 0, "rental_uris": {"ios": "https://dc.lft.to/lastmile_qr_scan", "android": "https://dc.lft.to/lastmile_qr_scan"}, "is_reserved": 0}, {"lon": -77.0280515, "bike_id": "a1e52db4daa48dd0d38904f6877d4223", "lat": 38.9313955, "fusion_lon": 0.0, "fusion_lat": 0.0, "type": "electric_scooter", "name": "a1e52db4daa48dd0d38904f6877d4223", "is_disabled": 0, "rental_uris": {"ios": "https://dc.lft.to/lastmile_qr_scan", "android": "https://dc.lft.to/lastmile_qr_scan"}, "is_reserved": 0}, {"lon": -76.9875445, "bike_id": "c469e8b978625059d92cbc0f4450846c", "lat": 38.85765383333333, "fusion_lon": 0.0, "fusion_lat": 0.0, "type": "electric_bike", "name": "c469e8b978625059d92cbc0f4450846c", "is_disabled": 0, "rental_uris": {"ios": "https://dc.lft.to/lastmile_qr_scan", "android": "https://dc.lft.to/lastmile_qr_scan"}, "is_reserved": 0}, {"lon": -77.0068225, "bike_id": "4a10d5516f0d3dd4ce25dad25d640774", "lat": 38.90014883333333, "fusion_lon": 0.0, "fusion_lat": 0.0, "type": "electric_scooter", "name": "4a10d5516f0d3dd4ce25dad25d640774", "is_disabled": 0, "rental_uris": {"ios": "https://dc.lft.to/lastmile_qr_scan", "android": "https://dc.lft.to/lastmile_qr_scan"}, "is_reserved": 0}, {"lon": -77.04191333333333, "bike_id": "267176aeb0fd50eb69f2b24ba059af3f", "lat": 38.90640233333333, "fusion_lon": 0.0, "fusion_lat": 0.0, "type": "electric_scooter", "name": "267176aeb0fd50eb69f2b24ba059af3f", "is_disabled": 0, "rental_uris": {"ios": "https://dc.lft.to/lastmile_qr_scan", "android": "https://dc.lft.to/lastmile_qr_scan"}, "is_reserved": 0}, {"lon": -76.99018583333333, "bike_id": "a2ebc898e419d2759e0ed891939cdc32", "lat": 38.866408166666666, "fusion_lon": 0.0, "fusion_lat": 0.0, "type": "electric_scooter", "name": "a2ebc898e419d2759e0ed891939cdc32", "is_disabled": 0, "rental_uris": {"ios": "https://dc.lft.to/lastmile_qr_scan", "android": "https://dc.lft.to/lastmile_qr_scan"}, "is_reserved": 0}, {"lon": -77.02175683333333, "bike_id": "7a7bd42d7f4c1e6c4340a95455725c23", "lat": 38.91896916666666, "fusion_lon": 0.0, "fusion_lat": 0.0, "type": "electric_scooter", "name": "7a7bd42d7f4c1e6c4340a95455725c23", "is_disabled": 0, "rental_uris": {"ios": "https://dc.lft.to/lastmile_qr_scan", "android": "https://dc.lft.to/lastmile_qr_scan"}, "is_reserved": 0}, {"lon": -77.032834, "bike_id": "a5d79ea38f2bf91429d71ba956f0e52b", "lat": 38.9319955, "fusion_lon": 0.0, "fusion_lat": 0.0, "type": "electric_scooter", "name": "a5d79ea38f2bf91429d71ba956f0e52b", "is_disabled": 0, "rental_uris": {"ios": "https://dc.lft.to/lastmile_qr_scan", "android": "https://dc.lft.to/lastmile_qr_scan"}, "is_reserved": 0}, {"lon": -77.07521083333333, "bike_id": "28aa9306bf5e70cf2d16e7d9329c1415", "lat": 38.90665383333334, "fusion_lon": 0.0, "fusion_lat": 0.0, "type": "electric_scooter", "name": "28aa9306bf5e70cf2d16e7d9329c1415", "is_disabled": 0, "rental_uris": {"ios": "https://dc.lft.to/lastmile_qr_scan", "android": "https://dc.lft.to/lastmile_qr_scan"}, "is_reserved": 0}, {"lon": -77.0233635, "bike_id": "688fe2fafcf3fa07e9b25a96cde7763c", "lat": 38.92469333333333, "fusion_lon": 0.0, "fusion_lat": 0.0, "type": "electric_scooter", "name": "688fe2fafcf3fa07e9b25a96cde7763c", "is_disabled": 0, "rental_uris": {"ios": "https://dc.lft.to/lastmile_qr_scan", "android": "https://dc.lft.to/lastmile_qr_scan"}, "is_reserved": 0}, {"lon": -77.08070266666667, "bike_id": "387bc8b7f3f277b97745c6e184dc6300", "lat": 39.052783166666664, "fusion_lon": 0.0, "fusion_lat": 0.0, "type": "electric_bike", "name": "387bc8b7f3f277b97745c6e184dc6300", "is_disabled": 0, "rental_uris": {"ios": "https://dc.lft.to/lastmile_qr_scan", "android": "https://dc.lft.to/lastmile_qr_scan"}, "is_reserved": 0}, {"lon": -76.9748, "bike_id": "c2d131874fe84f654f67f40a9b889fbb", "lat": 38.903559333333334, "fusion_lon": 0.0, "fusion_lat": 0.0, "type": "electric_scooter", "name": "c2d131874fe84f654f67f40a9b889fbb", "is_disabled": 0, "rental_uris": {"ios": "https://dc.lft.to/lastmile_qr_scan", "android": "https://dc.lft.to/lastmile_qr_scan"}, "is_reserved": 0}, {"lon": -77.08777933333333, "bike_id": "d3ff75bf53145a63ac916595aeddb720", "lat": 38.838956, "fusion_lon": 0.0, "fusion_lat": 0.0, "type": "electric_bike", "name": "d3ff75bf53145a63ac916595aeddb720", "is_disabled": 0, "rental_uris": {"ios": "https://dc.lft.to/lastmile_qr_scan", "android": "https://dc.lft.to/lastmile_qr_scan"}, "is_reserved": 0}, {"lon": -77.035888, "bike_id": "d7c180a7cbbfa35276e43db5fbc17add", "lat": 38.91686266666667, "fusion_lon": 0.0, "fusion_lat": 0.0, "type": "electric_scooter", "name": "d7c180a7cbbfa35276e43db5fbc17add", "is_disabled": 0, "rental_uris": {"ios": "https://dc.lft.to/lastmile_qr_scan", "android": "https://dc.lft.to/lastmile_qr_scan"}, "is_reserved": 0}, {"lon": -76.99946116666666, "bike_id": "f64556c6cd2589ac6d420547b2696a01", "lat": 38.908623, "fusion_lon": 0.0, "fusion_lat": 0.0, "type": "electric_scooter", "name": "f64556c6cd2589ac6d420547b2696a01", "is_disabled": 0, "rental_uris": {"ios": "https://dc.lft.to/lastmile_qr_scan", "android": "https://dc.lft.to/lastmile_qr_scan"}, "is_reserved": 0}, {"lon": -77.03185933333333, "bike_id": "d5ea7fb3840ff76a10f17194dfd0217c", "lat": 38.908707, "fusion_lon": 0.0, "fusion_lat": 0.0, "type": "electric_scooter", "name": "d5ea7fb3840ff76a10f17194dfd0217c", "is_disabled": 0, "rental_uris": {"ios": "https://dc.lft.to/lastmile_qr_scan", "android": "https://dc.lft.to/lastmile_qr_scan"}, "is_reserved": 0}, {"lon": -76.983763, "bike_id": "91fda62fb9c560341a0bc8314c6144a4", "lat": 38.861126, "fusion_lon": 0.0, "fusion_lat": 0.0, "type": "electric_scooter", "name": "91fda62fb9c560341a0bc8314c6144a4", "is_disabled": 0, "rental_uris": {"ios": "https://dc.lft.to/lastmile_qr_scan", "android": "https://dc.lft.to/lastmile_qr_scan"}, "is_reserved": 0}, {"lon": -77.0328075, "bike_id": "61898d3d4bfeae2e9e5911120db3ce57", "lat": 38.92848016666667, "fusion_lon": 0.0, "fusion_lat": 0.0, "type": "electric_scooter", "name": "61898d3d4bfeae2e9e5911120db3ce57", "is_disabled": 0, "rental_uris": {"ios": "https://dc.lft.to/lastmile_qr_scan", "android": "https://dc.lft.to/lastmile_qr_scan"}, "is_reserved": 0}, {"lon": -76.97870066666667, "bike_id": "065c0d184cb4e22a28fffada7b7f3061", "lat": 38.883005833333335, "fusion_lon": 0.0, "fusion_lat": 0.0, "type": "electric_scooter", "name": "065c0d184cb4e22a28fffada7b7f3061", "is_disabled": 0, "rental_uris": {"ios": "https://dc.lft.to/lastmile_qr_scan", "android": "https://dc.lft.to/lastmile_qr_scan"}, "is_reserved": 0}, {"lon": -76.97619516666667, "bike_id": "81588f79100bf3c925c63ca6f73a9940", "lat": 38.8995705, "fusion_lon": 0.0, "fusion_lat": 0.0, "type": "electric_scooter", "name": "81588f79100bf3c925c63ca6f73a9940", "is_disabled": 0, "rental_uris": {"ios": "https://dc.lft.to/lastmile_qr_scan", "android": "https://dc.lft.to/lastmile_qr_scan"}, "is_reserved": 0}, {"lon": -77.03264816666666, "bike_id": "bcd7ba7067b9d3db2b4b4055e8a60ac5", "lat": 38.935236833333335, "fusion_lon": 0.0, "fusion_lat": 0.0, "type": "electric_scooter", "name": "bcd7ba7067b9d3db2b4b4055e8a60ac5", "is_disabled": 0, "rental_uris": {"ios": "https://dc.lft.to/lastmile_qr_scan", "android": "https://dc.lft.to/lastmile_qr_scan"}, "is_reserved": 0}, {"lon": -76.97711933333333, "bike_id": "48060752507e4376d803dcb55555f085", "lat": 38.88776466666667, "fusion_lon": 0.0, "fusion_lat": 0.0, "type": "electric_scooter", "name": "48060752507e4376d803dcb55555f085", "is_disabled": 0, "rental_uris": {"ios": "https://dc.lft.to/lastmile_qr_scan", "android": "https://dc.lft.to/lastmile_qr_scan"}, "is_reserved": 0}, {"lon": -76.99518816666667, "bike_id": "441813d7c4eb6d9a46dcdc0b55541400", "lat": 38.895424, "fusion_lon": 0.0, "fusion_lat": 0.0, "type": "electric_scooter", "name": "441813d7c4eb6d9a46dcdc0b55541400", "is_disabled": 0, "rental_uris": {"ios": "https://dc.lft.to/lastmile_qr_scan", "android": "https://dc.lft.to/lastmile_qr_scan"}, "is_reserved": 0}, {"lon": -77.00799433333333, "bike_id": "476a0aadbc65d5752d82803741b18bee", "lat": 38.89644466666667, "fusion_lon": 0.0, "fusion_lat": 0.0, "type": "electric_scooter", "name": "476a0aadbc65d5752d82803741b18bee", "is_disabled": 0, "rental_uris": {"ios": "https://dc.lft.to/lastmile_qr_scan", "android": "https://dc.lft.to/lastmile_qr_scan"}, "is_reserved": 0}, {"lon": -77.01888916666667, "bike_id": "e9afc2835e9f0d80e1ed69a827940349", "lat": 38.89735533333333, "fusion_lon": 0.0, "fusion_lat": 0.0, "type": "electric_scooter", "name": "e9afc2835e9f0d80e1ed69a827940349", "is_disabled": 0, "rental_uris": {"ios": "https://dc.lft.to/lastmile_qr_scan", "android": "https://dc.lft.to/lastmile_qr_scan"}, "is_reserved": 0}, {"lon": -76.96775866666667, "bike_id": "50cbf36ef4719b52922d1c23a733801b", "lat": 38.8592455, "fusion_lon": 0.0, "fusion_lat": 0.0, "type": "electric_scooter", "name": "50cbf36ef4719b52922d1c23a733801b", "is_disabled": 0, "rental_uris": {"ios": "https://dc.lft.to/lastmile_qr_scan", "android": "https://dc.lft.to/lastmile_qr_scan"}, "is_reserved": 0}, {"lon": -77.02725166666667, "bike_id": "de0f9368eeaf4c430fc36c28406ef7a0", "lat": 38.89709283333333, "fusion_lon": 0.0, "fusion_lat": 0.0, "type": "electric_scooter", "name": "de0f9368eeaf4c430fc36c28406ef7a0", "is_disabled": 0, "rental_uris": {"ios": "https://dc.lft.to/lastmile_qr_scan", "android": "https://dc.lft.to/lastmile_qr_scan"}, "is_reserved": 0}, {"lon": -77.02653516666666, "bike_id": "a655c1c932fba2087f51e9ae38ee480d", "lat": 38.978132, "fusion_lon": 0.0, "fusion_lat": 0.0, "type": "electric_scooter", "name": "a655c1c932fba2087f51e9ae38ee480d", "is_disabled": 0, "rental_uris": {"ios": "https://dc.lft.to/lastmile_qr_scan", "android": "https://dc.lft.to/lastmile_qr_scan"}, "is_reserved": 0}, {"lon": -77.0488225, "bike_id": "c8c233b3fa4c2d4786dade194d6dbbce", "lat": 38.9012435, "fusion_lon": 0.0, "fusion_lat": 0.0, "type": "electric_scooter", "name": "c8c233b3fa4c2d4786dade194d6dbbce", "is_disabled": 0, "rental_uris": {"ios": "https://dc.lft.to/lastmile_qr_scan", "android": "https://dc.lft.to/lastmile_qr_scan"}, "is_reserved": 0}, {"lon": -76.99037866666667, "bike_id": "85ea29db9ee0a6905fb0c033c0f1ac77", "lat": 38.9003375, "fusion_lon": 0.0, "fusion_lat": 0.0, "type": "electric_scooter", "name": "85ea29db9ee0a6905fb0c033c0f1ac77", "is_disabled": 0, "rental_uris": {"ios": "https://dc.lft.to/lastmile_qr_scan", "android": "https://dc.lft.to/lastmile_qr_scan"}, "is_reserved": 0}, {"lon": -77.01969883333334, "bike_id": "9564dc2477df636fd478df383f3159fe", "lat": 38.950161, "fusion_lon": 0.0, "fusion_lat": 0.0, "type": "electric_scooter", "name": "9564dc2477df636fd478df383f3159fe", "is_disabled": 0, "rental_uris": {"ios": "https://dc.lft.to/lastmile_qr_scan", "android": "https://dc.lft.to/lastmile_qr_scan"}, "is_reserved": 0}, {"lon": -77.03026383333334, "bike_id": "8d50773d32746965ac5aad64949d439c", "lat": 38.897074333333336, "fusion_lon": 0.0, "fusion_lat": 0.0, "type": "electric_scooter", "name": "8d50773d32746965ac5aad64949d439c", "is_disabled": 0, "rental_uris": {"ios": "https://dc.lft.to/lastmile_qr_scan", "android": "https://dc.lft.to/lastmile_qr_scan"}, "is_reserved": 0}, {"lon": -77.050141, "bike_id": "c1fd16fc70b8a59452cf48ca2b9caa88", "lat": 38.90545383333333, "fusion_lon": 0.0, "fusion_lat": 0.0, "type": "electric_scooter", "name": "c1fd16fc70b8a59452cf48ca2b9caa88", "is_disabled": 0, "rental_uris": {"ios": "https://dc.lft.to/lastmile_qr_scan", "android": "https://dc.lft.to/lastmile_qr_scan"}, "is_reserved": 0}, {"lon": -76.95406383333334, "bike_id": "38ce29401396fa453dd6deaa088c5321", "lat": 38.884687666666665, "fusion_lon": 0.0, "fusion_lat": 0.0, "type": "electric_scooter", "name": "38ce29401396fa453dd6deaa088c5321", "is_disabled": 0, "rental_uris": {"ios": "https://dc.lft.to/lastmile_qr_scan", "android": "https://dc.lft.to/lastmile_qr_scan"}, "is_reserved": 0},