{"data": {"bikes": [{"type": "electric_scooter", "rental_uris": {"ios": "https://dc.lft.to/lastmile_qr_scan", "android": "https://dc.lft.to/lastmile_qr_scan"}, "lon": -77.03484216666666, "fusion_lon": 0.0, "is_disabled": 0, "lat": 38.929125, "bike_id": "f3f795defcc9ef1b44b35d836f26160e", "name": "f3f795defcc9ef1b44b35d836f26160e", "is_reserved": 0, "fusion_lat": 0.0}, {"type": "electric_bike", "rental_uris": {"ios": "https://dc.lft.to/lastmile_qr_scan", "android": "https://dc.lft.to/lastmile_qr_scan"}, "lon": -76.97238516666667, "fusion_lon": 0.0, "is_disabled": 0, "lat": 38.949028, "bike_id": "aafcbc078141a82b387796dde99dc907", "name": "aafcbc078141a82b387796dde99dc907", "is_reserved": 0, "fusion_lat": 0.0}, {"type": "electric_scooter", "rental_uris": {"ios": "https://dc.lft.to/lastmile_qr_scan", "android": "https://dc.lft.to/lastmile_qr_scan"}, "lon": -77.03178366666667, "fusion_lon": 0.0, "is_disabled": 0, "lat": 38.9142565, "bike_id": "f9b39df38ba2a6e8458c38c5372c127f", "name": "f9b39df38ba2a6e8458c38c5372c127f", "is_reserved": 0, "fusion_lat": 0.0}, {"type": "electric_scooter", "rental_uris": {"ios": "https://dc.lft.to/lastmile_qr_scan", "android": "https://dc.lft.to/lastmile_qr_scan"}, "lon": -77.0092675, "fusion_lon": 0.0, "is_disabled": 0, "lat": 38.8833345, "bike_id": "06680eaac83c190f0364c9f83dfd280b", "name": "06680eaac83c190f0364c9f83dfd280b", "is_reserved": 0, "fusion_lat": 0.0}, {"type": "electric_scooter", "rental_uris": {"ios": "https://dc.lft.to/lastmile_qr_scan", "android": "https://dc.lft.to/lastmile_qr_scan"}, "lon": -77.02693833333333, "fusion_lon": 0.0, "is_disabled": 0, "lat": 38.90683333333333, "bike_id": "58e0f1932ab0d7fd2aaeb8342e0d0218", "name": "58e0f1932ab0d7fd2aaeb8342e0d0218", "is_reserved": 0, "fusion_lat": 0.0}, {"type": "electric_bike", "rental_uris": {"ios": "https://dc.lft.to/lastmile_qr_scan", "android": "https://dc.lft.to/lastmile_qr_scan"}, "lon": -77.04020783333333, "fusion_lon": 0.0, "is_disabled": 0, "lat": 38.79324033333333, "bike_id": "7690b9cd6d80fa8b55a53c0ea2c45f97", "name": "7690b9cd6d80fa8b55a53c0ea2c45f97", "is_reserved": 0, "fusion_lat": 0.0}, {"type": "electric_scooter", "rental_uris": {"ios": "https://dc.lft.to/lastmile_qr_scan", "android": "https://dc.lft.to/lastmile_qr_scan"}, "lon": -77.026225, "fusion_lon": 0.0, "is_disabled": 0, "lat": 38.89220433333333, "bike_id": "fe8372990646c18423f261641295f966", "name": "fe8372990646c18423f261641295f966", "is_reserved": 0, "fusion_lat": 0.0}, {"type": "electric_scooter", "rental_uris": {"ios": "https://dc.lft.to/lastmile_qr_scan", "android": "https://dc.lft.to/lastmile_qr_scan"}, "lon": -77.03251, "fusion_lon": 0.0, "is_disabled": 0, "lat": 38.89894983333333, "bike_id": "a1dd43c1a4691aaf5ce7a4470c600781", "name": "a1dd43c1a4691aaf5ce7a4470c600781", "is_reserved": 0, "fusion_lat": 0.0}, {"type": "electric_bike", "rental_uris": {"ios": "https://dc.lft.to/lastmile_qr_scan", "android": "https://dc.lft.to/lastmile_qr_scan"}, "lon": -77.11804916666667, "fusion_lon": 0.0, "is_disabled": 0, "lat": 38.873707333333336, "bike_id": "8e80a31240348ca6c9205df4a5299109", "name": "8e80a31240348ca6c9205df4a5299109", "is_reserved": 0, "fusion_lat": 0.0}, {"type": "electric_scooter", "rental_uris": {"ios": "https://dc.lft.to/lastmile_qr_scan", "android": "https://dc.lft.to/lastmile_qr_scan"}, "lon": -76.99512866666667, "fusion_lon": 0.0, "is_disabled": 0, "lat": 38.897304, "bike_id": "911421a4859adf5dbcee3784da4c916d", "name": "911421a4859adf5dbcee3784da4c916d", "is_reserved": 0, "fusion_lat": 0.0}, {"type": "electric_scooter", "rental_uris": {"ios": "https://dc.lft.to/lastmile_qr_scan", "android": "https://dc.lft.to/lastmile_qr_scan"}, "lon": -77.03187466666667, "fusion_lon": 0.0, "is_disabled": 0, "lat": 38.91323916666666, "bike_id": "df924c8a0022ea91beb9fadb10e1667b", "name": "df924c8a0022ea91beb9fadb10e1667b", "is_reserved": 0, "fusion_lat": 0.0}, {"type": "electric_scooter", "rental_uris": {"ios": "https://dc.lft.to/lastmile_qr_scan", "android": "https://dc.lft.to/lastmile_qr_scan"}, "lon": -77.02837133333334, "fusion_lon": 0.0, "is_disabled": 0, "lat": 38.931943, "bike_id": "c7423d778265db213aab6a104b67dcdb", "name": "c7423d778265db213aab6a104b67dcdb", "is_reserved": 0, "fusion_lat": 0.0}, {"type": "electric_scooter", "rental_uris": {"ios": "https://dc.lft.to/lastmile_qr_scan", "android": "https://dc.lft.to/lastmile_qr_scan"}, "lon": -77.0395755, "fusion_lon": 0.0, "is_disabled": 0, "lat": 38.89244383333333, "bike_id": "48be126cf3dddc6da1cc160bde159ffd", "name": "48be126cf3dddc6da1cc160bde159ffd", "is_reserved": 0, "fusion_lat": 0.0}, {"type": "electric_scooter", "rental_uris": {"ios": "https://dc.lft.to/lastmile_qr_scan", "android": "https://dc.lft.to/lastmile_qr_scan"}, "lon": -76.98078833333334, "fusion_lon": 0.0, "is_disabled": 0, "lat": 38.919523166666664, "bike_id": "cfdb763b50884638edf13ba79d5eceee", "name": "cfdb763b50884638edf13ba79d5eceee", "is_reserved": 0, "fusion_lat": 0.0}, {"type": "electric_scooter", "rental_uris": {"ios": "https://dc.lft.to/lastmile_qr_scan", "android": "https://dc.lft.to/lastmile_qr_scan"}, "lon": -77.0342065, "fusion_lon": 0.0, "is_disabled": 0, "lat": 38.93089033333333, "bike_id": "5085e49b127922b1636feb478e3d6396", "name": "5085e49b127922b1636feb478e3d6396", "is_reserved": 0, "fusion_lat": 0.0}, {"type": "electric_scooter", "rental_uris": {"ios": "https://dc.lft.to/lastmile_qr_scan", "android": "https://dc.lft.to/lastmile_qr_scan"}, "lon": -77.06045016666667, "fusion_lon": 0.0, "is_disabled": 0, "lat": 38.9024315, "bike_id": "e347d370f9a17a8b706fe1b42ed48fba", "name": "e347d370f9a17a8b706fe1b42ed48fba", "is_reserved": 0, "fusion_lat": 0.0}, {"type": "electric_scooter", "rental_uris": {"ios": "https://dc.lft.to/lastmile_qr_scan", "android": "https://dc.lft.to/lastmile_qr_scan"}, "lon": -77.01135066666667, "fusion_lon": 0.0, "is_disabled": 0, "lat": 38.8852885, "bike_id": "79b33ea1b0669ab4a20e42c126fb51fc", "name": "79b33ea1b0669ab4a20e42c126fb51fc", "is_reserved": 0, "fusion_lat": 0.0}, {"type": "electric_scooter", "rental_uris": {"ios": "https://dc.lft.to/lastmile_qr_scan", "android": "https://dc.lft.to/lastmile_qr_scan"}, "lon": -77.02181966666667, "fusion_lon": 0.0, "is_disabled": 0, "lat": 38.915704166666664, "bike_id": "9eca544e4eb161a9422c783f522a71e7", "name": "9eca544e4eb161a9422c783f522a71e7", "is_reserved": 0, "fusion_lat": 0.0}, {"type": "electric_bike", "rental_uris": {"ios": "https://dc.lft.to/lastmile_qr_scan", "android": "https://dc.lft.to/lastmile_qr_scan"}, "lon": -77.01018016666667, "fusion_lon": 0.0, "is_disabled": 0, "lat": 38.95597633333333, "bike_id": "6a8c013fea24dd7ac42a7943b788183d", "name": "6a8c013fea24dd7ac42a7943b788183d", "is_reserved": 0, "fusion_lat": 0.0}, {"type": "electric_bike", "rental_uris": {"ios": "https://dc.lft.to/lastmile_qr_scan", "android": "https://dc.lft.to/lastmile_qr_scan"}, "lon": -77.08609366666667, "fusion_lon": 0.0, "is_disabled": 0, "lat": 38.8593755, "bike_id": "7a2ea3d3e6dd55819c55b97dfd6a8e6f", "name": "7a2ea3d3e6dd55819c55b97dfd6a8e6f", "is_reserved": 0, "fusion_lat": 0.0}, {"type": "electric_scooter", "rental_uris": {"ios": "https://dc.lft.to/lastmile_qr_scan", "android": "https://dc.lft.to/lastmile_qr_scan"}, "lon": -77.0273175, "fusion_lon": 0.0, "is_disabled": 0, "lat": 38.932516666666665, "bike_id": "d4240f2aa26b2dfbcd4b27da008b9e18", "name": "d4240f2aa26b2dfbcd4b27da008b9e18", "is_reserved": 0, "fusion_lat": 0.0}, {"type": "electric_scooter", "rental_uris": {"ios": "https://dc.lft.to/lastmile_qr_scan", "android": "https://dc.lft.to/lastmile_qr_scan"}, "lon": -77.03875866666667, "fusion_lon": 0.0, "is_disabled": 0, "lat": 38.902529666666666, "bike_id": "a339e80ed838d0602844ec26f71fa4bb", "name": "a339e80ed838d0602844ec26f71fa4bb", "is_reserved": 0, "fusion_lat": 0.0}, {"type": "electric_scooter", "rental_uris": {"ios": "https://dc.lft.to/lastmile_qr_scan", "android": "https://dc.lft.to/lastmile_qr_scan"}, "lon": -77.04231533333333, "fusion_lon": 0.0, "is_disabled": 0, "lat": 38.92174466666667, "bike_id": "54fec271dbd4479e6ac3a4e9320b6925", "name": "54fec271dbd4479e6ac3a4e9320b6925", "is_reserved": 0, "fusion_lat": 0.0}, {"type": "electric_scooter", "rental_uris": {"ios": "https://dc.lft.to/lastmile_qr_scan", "android": "https://dc.lft.to/lastmile_qr_scan"}, "lon": -76.9770565, "fusion_lon": 0.0, "is_disabled": 0, "lat": 38.902614, "bike_id": "5ef4a835a9c7f87447dbc71ca98af1f1", "name": "5ef4a835a9c7f87447dbc71ca98af1f1", "is_reserved": 0, "fusion_lat": 0.0}, {"type": "electric_scooter", "rental_uris": {"ios": "https://dc.lft.to/lastmile_qr_scan", "android": "https://dc.lft.to/lastmile_qr_scan"}, "lon": -77.04369133333333, "fusion_lon": 0.0, "is_disabled": 0, "lat": 38.9332305, "bike_id": "d69026787c426f1d2625d8818d6357df", "name": "d69026787c426f1d2625d8818d6357df", "is_reserved": 0, "fusion_lat": 0.0}, {"type": "electric_scooter", "rental_uris": {"ios": "https://dc.lft.to/lastmile_qr_scan", "android": "https://dc.lft.to/lastmile_qr_scan"}, "lon": -77.03212816666667, "fusion_lon": 0.0, "is_disabled": 0, "lat": 38.908893666666664, "bike_id": "b0d82a0c6bb4cfa380eecec465620119", "name": "b0d82a0c6bb4cfa380eecec465620119", "is_reserved": 0, "fusion_lat": 0.0}, {"type": "electric_scooter", "rental_uris": {"ios": "https://dc.lft.to/lastmile_qr_scan", "android": "https://dc.lft.to/lastmile_qr_scan"}, "lon": -76.93344416666666, "fusion_lon": 0.0, "is_disabled": 0, "lat": 38.888145333333334, "bike_id": "a0d8098864b80560ac29ae336c5387ba", "name": "a0d8098864b80560ac29ae336c5387ba", "is_reserved": 0, "fusion_lat": 0.0}, {"type": "electric_bike", "rental_uris": {"ios": "https://dc.lft.to/lastmile_qr_scan", "android": "https://dc.lft.to/lastmile_qr_scan"}, "lon": -77.03322416666667, "fusion_lon": 0.0, "is_disabled": 0, "lat": 38.920568333333335, "bike_id": "a4895b454579e9ec0c1b89a0aac61d60", "name": "a4895b454579e9ec0c1b89a0aac61d60", "is_reserved": 0, "fusion_lat": 0.0}, {"type": "electric_scooter", "rental_uris": {"ios": "https://dc.lft.to/lastmile_qr_scan", "android": "https://dc.lft.to/lastmile_qr_scan"}, "lon": -77.04369783333334, "fusion_lon": 0.0, "is_disabled": 0, "lat": 38.921472, "bike_id": "12edec15f1a362fb8dbb257eb687b8cb", "name": "12edec15f1a362fb8dbb257eb687b8cb", "is_reserved": 0, "fusion_lat": 0.0}, {"type": "electric_scooter", "rental_uris": {"ios": "https://dc.lft.to/lastmile_qr_scan", "android": "https://dc.lft.to/lastmile_qr_scan"}, "lon": -76.9852635, "fusion_lon": 0.0, "is_disabled": 0, "lat": 38.86685933333333, "bike_id": "75fc86bfa97ee8c0de034f92588017a9", "name": "75fc86bfa97ee8c0de034f92588017a9", "is_reserved": 0, "fusion_lat": 0.0}, {"type": "electric_scooter", "rental_uris": {"ios": "https://dc.lft.to/lastmile_qr_scan", "android": "https://dc.lft.to/lastmile_qr_scan"}, "lon": -77.03166583333334, "fusion_lon": 0.0, "is_disabled": 0, "lat": 38.89222783333334, "bike_id": "b930c6a569135f7bdb41daa8c7a9dec1", "name": "b930c6a569135f7bdb41daa8c7a9dec1", "is_reserved": 0, "fusion_lat": 0.0}, {"type": "electric_scooter", "rental_uris": {"ios": "https://dc.lft.to/lastmile_qr_scan", "android": "https://dc.lft.to/lastmile_qr_scan"}, "lon": -77.02495783333333, "fusion_lon": 0.0, "is_disabled": 0, "lat": 38.91804716666667, "bike_id": "58211dc73bbfe0c6c89b07d33c7acfc8", "name": "58211dc73bbfe0c6c89b07d33c7acfc8", "is_reserved": 0, "fusion_lat": 0.0}, {"type": "electric_bike", "rental_uris": {"ios": "https://dc.lft.to/lastmile_qr_scan", "android": "https://dc.lft.to/lastmile_qr_scan"}, "lon": -77.00565266666666, "fusion_lon": 0.0, "is_disabled": 0, "lat": 38.83978583333333, "bike_id": "f18be072974c8eb9554cd1cf011d33d4", "name": "f18be072974c8eb9554cd1cf011d33d4", "is_reserved": 0, "fusion_lat": 0.0}, {"type": "electric_scooter", "rental_uris": {"ios": "https://dc.lft.to/lastmile_qr_scan", "android": "https://dc.lft.to/lastmile_qr_scan"}, "lon": -77.03401983333333, "fusion_lon": 0.0, "is_disabled": 0, "lat": 38.9205225, "bike_id": "65608c9e06b1c238d9c904ab6593a8df", "name": "65608c9e06b1c238d9c904ab6593a8df", "is_reserved": 0, "fusion_lat": 0.0}, {"type": "electric_bike", "rental_uris": {"ios": "https://dc.lft.to/lastmile_qr_scan", "android": "https://dc.lft.to/lastmile_qr_scan"}, "lon": -76.99513133333333, "fusion_lon": 0.0, "is_disabled": 0, "lat": 38.8579015, "bike_id": "8f899328b077dffaef31a95138672f2e", "name": "8f899328b077dffaef31a95138672f2e", "is_reserved": 0, "fusion_lat": 0.0}, {"type": "electric_scooter", "rental_uris": {"ios": "https://dc.lft.to/lastmile_qr_scan", "android": "https://dc.lft.to/lastmile_qr_scan"}, "lon": -76.99004966666666, "fusion_lon": 0.0, "is_disabled": 0, "lat": 38.90011583333333, "bike_id": "064b73256cc24c5462a1c04fb36f8652", "name": "064b73256cc24c5462a1c04fb36f8652", "is_reserved": 0, "fusion_lat": 0.0}, {"type": "electric_scooter", "rental_uris": {"ios": "https://dc.lft.to/lastmile_qr_scan", "android": "https://dc.lft.to/lastmile_qr_scan"}, "lon": -77.021967, "fusion_lon": 0.0, "is_disabled": 0, "lat": 38.9108675, "bike_id": "a08270e0c6453d30ad8819f700d08825", "name": "a08270e0c6453d30ad8819f700d08825", "is_reserved": 0, "fusion_lat": 0.0}, {"type": "electric_scooter", "rental_uris": {"ios": "https://dc.lft.to/lastmile_qr_scan", "android": "https://dc.lft.to/lastmile_qr_scan"}, "lon": -77.03863883333334, "fusion_lon": 0.0, "is_disabled": 0, "lat": 38.91255683333333, "bike_id": "c2099cc4c8418321910689942902ff99", "name": "c2099cc4c8418321910689942902ff99", "is_reserved": 0, "fusion_lat": 0.0}, {"type": "electric_scooter", "rental_uris": {"ios": "https://dc.lft.to/lastmile_qr_scan", "android": "https://dc.lft.to/lastmile_qr_scan"}, "lon": -77.02299816666667, "fusion_lon": 0.0, "is_disabled": 0, "lat": 38.916811833333334, "bike_id": "5eeb818811aacbf0d7fd37585ba29588", "name": "5eeb818811aacbf0d7fd37585ba29588", "is_reserved": 0, "fusion_lat": 0.0}, {"type": "electric_scooter", "rental_uris": {"ios": "https://dc.lft.to/lastmile_qr_scan", "android": "https://dc.lft.to/lastmile_qr_scan"}, "lon": -77.04012133333333, "fusion_lon": 0.0, "is_disabled": 0, "lat": 38.92217383333333, "bike_id": "3a02d6c1733969afd43c5225c0547ca5", "name": "3a02d6c1733969afd43c5225c0547ca5", "is_reserved": 0, "fusion_lat": 0.0}, {"type": "electric_scooter", "rental_uris": {"ios": "https://dc.lft.to/lastmile_qr_scan", "android": "https://dc.lft.to/lastmile_qr_scan"}, "lon": -77.031648, "fusion_lon": 0.0, "is_disabled": 0, "lat": 38.89218783333333, "bike_id": "803c56734432b65d3c4c391c72b80903", "name": "803c56734432b65d3c4c391c72b80903", "is_reserved": 0, "fusion_lat": 0.0}, {"type": "electric_scooter", "rental_uris": {"ios": "https://dc.lft.to/lastmile_qr_scan", "android": "https://dc.lft.to/lastmile_qr_scan"}, "lon": -77.045256, "fusion_lon": 0.0, "is_disabled": 0, "lat": 38.93314066666667, "bike_id": "8f56c265820531843c1bdff1c9329728", "name": "8f56c265820531843c1bdff1c9329728", "is_reserved": 0, "fusion_lat": 0.0}, {"type": "electric_scooter", "rental_uris": {"ios": "https://dc.lft.to/lastmile_qr_scan", "android": "https://dc.lft.to/lastmile_qr_scan"}, "lon": -77.0259055, "fusion_lon": 0.0, "is_disabled": 0, "lat": 38.94201966666667, "bike_id": "8b06aab55f3deb43b1cf49f065c388fb", "name": "8b06aab55f3deb43b1cf49f065c388fb", "is_reserved": 0, "fusion_lat": 0.0}, {"type": "electric_scooter", "rental_uris": {"ios": "https://dc.lft.to/lastmile_qr_scan", "android": "https://dc.lft.to/lastmile_qr_scan"}, "lon": -77.00606166666667, "fusion_lon": 0.0, "is_disabled": 0, "lat": 38.90582533333333, "bike_id": "1e9d0a0b71bd473fd884ac7a3e7f71e5", "name": "1e9d0a0b71bd473fd884ac7a3e7f71e5", "is_reserved": 0, "fusion_lat": 0.0}, {"type": "electric_scooter", "rental_uris": {"ios": "https://dc.lft.to/lastmile_qr_scan", "android": "https://dc.lft.to/lastmile_qr_scan"}, "lon": -77.00201116666666, "fusion_lon": 0.0, "is_disabled": 0, "lat": 38.90034833333333, "bike_id": "5e251f62192ad9ba8b19a961e902f016", "name": "5e251f62192ad9ba8b19a961e902f016", "is_reserved": 0, "fusion_lat": 0.0}, {"type": "electric_scooter", "rental_uris": {"ios": "https://dc.lft.to/lastmile_qr_scan", "android": "https://dc.lft.to/lastmile_qr_scan"}, "lon": -77.04164383333334, "fusion_lon": 0.0, "is_disabled": 0, "lat": 38.915210333333334, "bike_id": "379fe4d531433b7564c21f271d9edc37", "name": "379fe4d531433b7564c21f271d9edc37", "is_reserved": 0, "fusion_lat": 0.0}, {"type": "electric_bike", "rental_uris": {"ios": "https://dc.lft.to/lastmile_qr_scan", "android": "https://dc.lft.to/lastmile_qr_scan"}, "lon": -76.981045, "fusion_lon": 0.0, "is_disabled": 0, "lat": 38.8772985, "bike_id": "ce1bc6a0b4c08d51051c0f170aa4bf83", "name": "ce1bc6a0b4c08d51051c0f170aa4bf83", "is_reserved": 0, "fusion_lat": 0.0}, {"type": "electric_scooter", "rental_uris": {"ios": "https://dc.lft.to/lastmile_qr_scan", "android": "https://dc.lft.to/lastmile_qr_scan"}, "lon": -76.98543066666667, "fusion_lon": 0.0, "is_disabled": 0, "lat": 38.86675866666667, "bike_id": "da4e622de69a69bbaaead4d476eea1a2", "name": "da4e622de69a69bbaaead4d476eea1a2", "is_reserved": 0, "fusion_lat": 0.0}, {"type": "electric_scooter", "rental_uris": {"ios": "https://dc.lft.to/lastmile_qr_scan", "android": "https://dc.lft.to/lastmile_qr_scan"}, "lon": -77.02006266666666, "fusion_lon": 0.0, "is_disabled": 0, "lat": 38.89866766666667, "bike_id": "d5ec99b1832772fa961aebab504f58e2", "name": "d5ec99b1832772fa961aebab504f58e2", "is_reserved": 0, "fusion_lat": 0.0}, {"type": "electric_scooter", "rental_uris": {"ios": "https://dc.lft.to/lastmile_qr_scan", "android": "https://dc.lft.to/lastmile_qr_scan"}, "lon": -77.05273716666666, "fusion_lon": 0.0, "is_disabled": 0, "lat": 38.925498833333336, "bike_id": "316fcfa4cf5ff9ced6b7d1ed81316b68", "name": "316fcfa4cf5ff9ced6b7d1ed81316b68", "is_reserved": 0, "fusion_lat": 0.0}, {"type": "electric_scooter", "rental_uris": {"ios": "https://dc.lft.to/lastmile_qr_scan", "android": "https://dc.lft.to/lastmile_qr_scan"}, "lon": -77.02692966666666, "fusion_lon": 0.0, "is_disabled": 0, "lat": 38.9112195, "bike_id": "de2f8b4028f20ba26b6a39e0b53a5db7", "name": "de2f8b4028f20ba26b6a39e0b53a5db7", "is_reserved": 0, "fusion_lat": 0.0}, {"type": "electric_scooter", "rental_uris": {"ios": "https://dc.lft.to/lastmile_qr_scan", "android": "https://dc.lft.to/lastmile_qr_scan"}, "lon": -77.04234516666666, "fusion_lon": 0.0, "is_disabled": 0, "lat": 38.921961333333336, "bike_id": "5df63d805b796320350ac9cb2262ff05", "name": "5df63d805b796320350ac9cb2262ff05", "is_reserved": 0, "fusion_lat": 0.0}, {"type": "electric_scooter", "rental_uris": {"ios": "https://dc.lft.to/lastmile_qr_scan", "android": "https://dc.lft.to/lastmile_qr_scan"}, "lon": -77.041493, "fusion_lon": 0.0, "is_disabled": 0, "lat": 38.89223366666667, "bike_id": "5fa510bf05feb88057042066cff2c3cd", "name": "5fa510bf05feb88057042066cff2c3cd", "is_reserved": 0, "fusion_lat": 0.0}, {"type": "electric_scooter", "rental_uris": {"ios": "https://dc.lft.to/lastmile_qr_scan", "android": "https://dc.lft.to/lastmile_qr_scan"}, "lon": -77.05235983333333, "fusion_lon": 0.0, "is_disabled": 0, "lat": 38.923420666666665, "bike_id": "0d842e9e4cc7f58043efb8be54c6978c", "name": "0d842e9e4cc7f58043efb8be54c6978c", "is_reserved": 0, "fusion_lat": 0.0}, {"type": "electric_scooter", "rental_uris": {"ios": "https://dc.lft.to/lastmile_qr_scan", "android": "https://dc.lft.to/lastmile_qr_scan"}, "lon": -77.0329245, "fusion_lon": 0.0, "is_disabled": 0, "lat": 38.956374, "bike_id": "b04ceadb40e2e5d0517b5f92952931b8", "name": "b04ceadb40e2e5d0517b5f92952931b8", "is_reserved": 0, "fusion_lat": 0.0}, {"type": "electric_scooter", "rental_uris": {"ios": "https://dc.lft.to/lastmile_qr_scan", "android": "https://dc.lft.to/lastmile_qr_scan"}, "lon": -76.98882883333333, "fusion_lon": 0.0, "is_disabled": 0, "lat": 38.866543, "bike_id": "8155fe9ed976ffa946d7e2d6ddad4c6c", "name": "8155fe9ed976ffa946d7e2d6ddad4c6c", "is_reserved": 0, "fusion_lat": 0.0}, {"type": "electric_bike", "rental_uris": {"ios": "https://dc.lft.to/lastmile_qr_scan", "android": "https://dc.lft.to/lastmile_qr_scan"}, "lon": -77.13311416666667, "fusion_lon": 0.0, "is_disabled": 0, "lat": 38.887208, "bike_id": "b05d29243cbf83c523789ee2c77e3ba2", "name": "b05d29243cbf83c523789ee2c77e3ba2", "is_reserved": 0, "fusion_lat": 0.0}, {"type": "electric_scooter", "rental_uris": {"ios": "https://dc.lft.to/lastmile_qr_scan", "android": "https://dc.lft.to/lastmile_qr_scan"}, "lon": -77.03430016666667, "fusion_lon": 0.0, "is_disabled": 0, "lat": 38.933542333333335, "bike_id": "267761d666745ff53e8ffd07249357be", "name": "267761d666745ff53e8ffd07249357be", "is_reserved": 0, "fusion_lat": 0.0}, {"type": "electric_scooter", "rental_uris": {"ios": "https://dc.lft.to/lastmile_qr_scan", "android": "https://dc.lft.to/lastmile_qr_scan"}, "lon": -76.96018766666667, "fusion_lon": 0.0, "is_disabled": 0, "lat": 38.880232666666664, "bike_id": "b8685b3cdf9daab2b7d238af45e25348", "name": "b8685b3cdf9daab2b7d238af45e25348", "is_reserved": 0, "fusion_lat": 0.0}, {"type": "electric_scooter", "rental_uris": {"ios": "https://dc.lft.to/lastmile_qr_scan", "android": "https://dc.lft.to/lastmile_qr_scan"}, "lon": -77.04419716666666, "fusion_lon": 0.0, "is_disabled": 0, "lat": 38.9106095, "bike_id": "015ec961d9e26baef1fd3a6b14c26ad5", "name": "015ec961d9e26baef1fd3a6b14c26ad5", "is_reserved": 0, "fusion_lat": 0.0}, {"type": "electric_scooter", "rental_uris": {"ios": "https://dc.lft.to/lastmile_qr_scan", "android": "https://dc.lft.to/lastmile_qr_scan"}, "lon": -77.029639, "fusion_lon": 0.0, "is_disabled": 0, "lat": 38.925883166666665, "bike_id": "8398e7c4af3769727bce4c597785ecfa", "name": "8398e7c4af3769727bce4c597785ecfa", "is_reserved": 0, "fusion_lat": 0.0}, {"type": "electric_bike", "rental_uris": {"ios": "https://dc.lft.to/lastmile_qr_scan", "android": "https://dc.lft.to/lastmile_qr_scan"}, "lon": -76.96255683333334, "fusion_lon": 0.0, "is_disabled": 0, "lat": 38.88244316666667, "bike_id": "2046e4c943f86524bc335f52bc25e15e", "name": "2046e4c943f86524bc335f52bc25e15e", "is_reserved": 0, "fusion_lat": 0.0}, {"type": "electric_scooter", "rental_uris": {"ios": "https://dc.lft.to/lastmile_qr_scan", "android": "https://dc.lft.to/lastmile_qr_scan"}, "lon": -76.98344583333333, "fusion_lon": 0.0, "is_disabled": 0, "lat": 38.90745016666666, "bike_id": "7a872b4eed82da6d2ea323a5e50846f6", "name": "7a872b4eed82da6d2ea323a5e50846f6", "is_reserved": 0, "fusion_lat": 0.0}, {"type": "electric_scooter", "rental_uris": {"ios": "https://dc.lft.to/lastmile_qr_scan", "android": "https://dc.lft.to/lastmile_qr_scan"}, "lon": -77.03426766666666, "fusion_lon": 0.0, "is_disabled": 0, "lat": 38.9072505, "bike_id": "96be5b5533e9483ce08a3c45414d67fe", "name": "96be5b5533e9483ce08a3c45414d67fe", "is_reserved": 0, "fusion_lat": 0.0}, {"type": "electric_scooter", "rental_uris": {"ios": "https://dc.lft.to/lastmile_qr_scan", "android": "https://dc.lft.to/lastmile_qr_scan"}, "lon": -77.03857233333333, "fusion_lon": 0.0, "is_disabled": 0, "lat": 38.867526, "bike_id": "47ccab784447e13988a9930953b1524b", "name": "47ccab784447e13988a9930953b1524b", "is_reserved": 0, "fusion_lat": 0.0}, {"type": "electric_scooter", "rental_uris": {"ios": "https://dc.lft.to/lastmile_qr_scan", "android": "https://dc.lft.to/lastmile_qr_scan"}, "lon": -77.02226366666666, "fusion_lon": 0.0, "is_disabled": 0, "lat": 38.912526166666666, "bike_id": "6aa2d7b4fcffd9788176cbf165c88f63", "name": "6aa2d7b4fcffd9788176cbf165c88f63", "is_reserved": 0, "fusion_lat": 0.0}, {"type": "electric_bike", "rental_uris": {"ios": "https://dc.lft.to/lastmile_qr_scan", "android": "https://dc.lft.to/lastmile_qr_scan"}, "lon": -76.9479965, "fusion_lon": 0.0, "is_disabled": 0, "lat": 38.893989833333336, "bike_id": "4f7eac779fcf16f4603ff55c47529604", "name": "4f7eac779fcf16f4603ff55c47529604", "is_reserved": 0, "fusion_lat": 0.0}, {"type": "electric_bike", "rental_uris": {"ios": "https://dc.lft.to/lastmile_qr_scan", "android": "https://dc.lft.to/lastmile_qr_scan"}, "lon": -76.97828816666667, "fusion_lon": 0.0, "is_disabled": 0, "lat": 38.87076733333333, "bike_id": "f3b8f48f5708af83b97d2cbb533f560e", "name": "f3b8f48f5708af83b97d2cbb533f560e", "is_reserved": 0, "fusion_lat": 0.0}, {"type": "electric_scooter", "rental_uris": {"ios": "https://dc.lft.to/lastmile_qr_scan", "android": "https://dc.lft.to/lastmile_qr_scan"}, "lon": -77.04511816666667, "fusion_lon": 0.0, "is_disabled": 0, "lat": 38.8921685, "bike_id": "5d55c919361e3af4573f65d017c6e44d", "name": "5d55c919361e3af4573f65d017c6e44d", "is_reserved": 0, "fusion_lat": 0.0}, {"type": "electric_bike", "rental_uris": {"ios": "https://dc.lft.to/lastmile_qr_scan", "android": "https://dc.lft.to/lastmile_qr_scan"}, "lon": -76.99017, "fusion_lon": 0.0, "is_disabled": 0, "lat": 38.954787833333334, "bike_id": "767d25c8416590a6ead5e5b3a7268418", "name": "767d25c8416590a6ead5e5b3a7268418", "is_reserved": 0, "fusion_lat": 0.0}, {"type": "electric_scooter", "rental_uris": {"ios": "https://dc.lft.to/lastmile_qr_scan", "android": "https://dc.lft.to/lastmile_qr_scan"}, "lon": -76.95410666666666, "fusion_lon": 0.0, "is_disabled": 0, "lat": 38.89065683333333, "bike_id": "eb733896e64867791528c79bb4b78f02", "name": "eb733896e64867791528c79bb4b78f02", "is_reserved": 0, "fusion_lat": 0.0}, {"type": "electric_scooter", "rental_uris": {"ios": "https://dc.lft.to/lastmile_qr_scan", "android": "https://dc.lft.to/lastmile_qr_scan"}, "lon": -77.00573316666667, "fusion_lon": 0.0, "is_disabled": 0, "lat": 38.881816666666666, "bike_id": "51308c88fce100c42eed433d8624590b", "name": "51308c88fce100c42eed433d8624590b", "is_reserved": 0, "fusion_lat": 0.0}, {"type": "electric_bike", "rental_uris": {"ios": "https://dc.lft.to/lastmile_qr_scan", "android": "https://dc.lft.to/lastmile_qr_scan"}, "lon": -77.11895316666667, "fusion_lon": 0.0, "is_disabled": 0, "lat": 39.075021666666665, "bike_id": "805430005f2e01eff00066c4dab3c3ed", "name": "805430005f2e01eff00066c4dab3c3ed", "is_reserved": 0, "fusion_lat": 0.0}, {"type": "electric_scooter", "rental_uris": {"ios": "https://dc.lft.to/lastmile_qr_scan", "android": "https://dc.lft.to/lastmile_qr_scan"}, "lon": -77.03723966666666, "fusion_lon": 0.0, "is_disabled": 0, "lat": 38.9307825, "bike_id": "398300788b1e974147ea12a3f1d4c388", "name": "398300788b1e974147ea12a3f1d4c388", "is_reserved": 0, "fusion_lat": 0.0}, {"type": "electric_bike", "rental_uris": {"ios": "https://dc.lft.to/lastmile_qr_scan", "android": "https://dc.lft.to/lastmile_qr_scan"}, "lon": -77.075121, "fusion_lon": 0.0, "is_disabled": 0, "lat": 38.8480105, "bike_id": "e9ac6eb9948d10ab210d9273e3eeca49", "name": "e9ac6eb9948d10ab210d9273e3eeca49", "is_reserved": 0, "fusion_lat": 0.0}, {"type": "electric_bike", "rental_uris": {"ios": "https://dc.lft.to/lastmile_qr_scan", "android": "https://dc.lft.to/lastmile_qr_scan"}, "lon": -77.03946916666666, "fusion_lon": 0.0, "is_disabled": 0, "lat": 38.865034, "bike_id": "d35c3774ce8c5560126ba5d1b9068204", "name": "d35c3774ce8c5560126ba5d1b9068204", "is_reserved": 0, "fusion_lat": 0.0}, {"type": "electric_scooter", "rental_uris": {"ios": "https://dc.lft.to/lastmile_qr_scan", "android": "https://dc.lft.to/lastmile_qr_scan"}, "lon": -77.03391183333333, "fusion_lon": 0.0, "is_disabled": 0, "lat": 38.9245415, "bike_id": "69623d32d11a4d0432e9d5f221cbf6cc", "name": "69623d32d11a4d0432e9d5f221cbf6cc", "is_reserved": 0, "fusion_lat": 0.0}, {"type": "electric_scooter", "rental_uris": {"ios": "https://dc.lft.to/lastmile_qr_scan", "android": "https://dc.lft.to/lastmile_qr_scan"}, "lon": -77.01779233333333, "fusion_lon": 0.0, "is_disabled": 0, "lat": 38.887188333333334, "bike_id": "74b7ee8bac3131acb2c8b3910f880490", "name": "74b7ee8bac3131acb2c8b3910f880490", "is_reserved": 0, "fusion_lat": 0.0}, {"type": "electric_bike", "rental_uris": {"ios": "https://dc.lft.to/lastmile_qr_scan", "android": "https://dc.lft.to/lastmile_qr_scan"}, "lon": -77.0509945, "fusion_lon": 0.0, "is_disabled": 0, "lat": 38.813322, "bike_id": "d80ecaaf0115c691d97b3cafd0e866ff", "name": "d80ecaaf0115c691d97b3cafd0e866ff", "is_reserved": 0, "fusion_lat": 0.0}, {"type": "electric_scooter", "rental_uris": {"ios": "https://dc.lft.to/lastmile_qr_scan", "android": "https://dc.lft.to/lastmile_qr_scan"}, "lon": -77.03635616666666, "fusion_lon": 0.0, "is_disabled": 0, "lat": 38.930584333333336, "bike_id": "2634d51cd246bfdfc5284c4dee3ee872", "name": "2634d51cd246bfdfc5284c4dee3ee872", "is_reserved": 0, "fusion_lat": 0.0}, {"type": "electric_scooter", "rental_uris": {"ios": "https://dc.lft.to/lastmile_qr_scan", "android": "https://dc.lft.to/lastmile_qr_scan"}, "lon": -76.95127066666667, "fusion_lon": 0.0, "is_disabled": 0, "lat": 38.89030666666667, "bike_id": "248b4233bbf8f8fcab84db4664012fb2", "name": "248b4233bbf8f8fcab84db4664012fb2", "is_reserved": 0, "fusion_lat": 0.0}, {"type": "electric_scooter", "rental_uris": {"ios": "https://dc.lft.to/lastmile_qr_scan", "android": "https://dc.lft.to/lastmile_qr_scan"}, "lon": -77.03448433333334, "fusion_lon": 0.0, "is_disabled": 0, "lat": 38.918197666666664, "bike_id": "23dbd1ce7f7873be53a0bdf6753f31ea", "name": "23dbd1ce7f7873be53a0bdf6753f31ea", "is_reserved": 0, "fusion_lat": 0.0}, {"type": "electric_scooter", "rental_uris": {"ios": "https://dc.lft.to/lastmile_qr_scan", "android": "https://dc.lft.to/lastmile_qr_scan"}, "lon": -77.0296975, "fusion_lon": 0.0, "is_disabled": 0, "lat": 38.9232545, "bike_id": "3bb4dfcba72ae201b15ccdbf25c4de34", "name": "3bb4dfcba72ae201b15ccdbf25c4de34", "is_reserved": 0, "fusion_lat": 0.0}, {"type": "electric_scooter", "rental_uris": {"ios": "https://dc.lft.to/lastmile_qr_scan", "android": "https://dc.lft.to/lastmile_qr_scan"}, "lon": -77.04362366666666, "fusion_lon": 0.0, "is_disabled": 0, "lat": 38.902483, "bike_id": "de2b5be215c15166572644a27589f805", "name": "de2b5be215c15166572644a27589f805", "is_reserved": 0, "fusion_lat": 0.0}, {"type": "electric_scooter", "rental_uris": {"ios": "https://dc.lft.to/lastmile_qr_scan", "android": "https://dc.lft.to/lastmile_qr_scan"}, "lon": -77.03913666666666, "fusion_lon": 0.0, "is_disabled": 0, "lat": 38.92471783333333, "bike_id": "d5257490d0af3f1f10b58ae08d47c862", "name": "d5257490d0af3f1f10b58ae08d47c862", "is_reserved": 0, "fusion_lat": 0.0}, {"type": "electric_bike", "rental_uris": {"ios": "https://dc.lft.to/lastmile_qr_scan", "android": "https://dc.lft.to/lastmile_qr_scan"}, "lon": -77.00257566666667, "fusion_lon": 0.0, "is_disabled": 0, "lat": 38.911317, "bike_id": "cdcae318fe2f613117a7d0ccd40fedef", "name": "cdcae318fe2f613117a7d0ccd40fedef", "is_reserved": 0, "fusion_lat": 0.0}, {"type": "electric_scooter", "rental_uris": {"ios": "https://dc.lft.to/lastmile_qr_scan", "android": "https://dc.lft.to/lastmile_qr_scan"}, "lon": -77.04683166666666, "fusion_lon": 0.0, "is_disabled": 0, "lat": 38.9171135, "bike_id": "6fa0693c3b89db1f59fe7d8437e39008", "name": "6fa0693c3b89db1f59fe7d8437e39008", "is_reserved": 0, "fusion_lat": 0.0}, {"type": "electric_scooter", "rental_uris": {"ios": "https://dc.lft.to/lastmile_qr_scan", "android": "https://dc.lft.to/lastmile_qr_scan"}, "lon": -77.03498616666667, "fusion_lon": 0.0, "is_disabled": 0, "lat": 38.9247725, "bike_id": "b477813a196ee3df3fafa79aa5f2656e", "name": "b477813a196ee3df3fafa79aa5f2656e", "is_reserved": 0, "fusion_lat": 0.0}, {"type": "electric_scooter", "rental_uris": {"ios": "https://dc.lft.to/lastmile_qr_scan", "android": "https://dc.lft.to/lastmile_qr_scan"}, "lon": -77.031918, "fusion_lon": 0.0, "is_disabled": 0, "lat": 38.9145135, "bike_id": "378b6e67092f2aed003ae6fa1519dc08", "name": "378b6e67092f2aed003ae6fa1519dc08", "is_reserved": 0, "fusion_lat": 0.0}, {"type": "electric_scooter", "rental_uris": {"ios": "https://dc.lft.to/lastmile_qr_scan", "android": "https://dc.lft.to/lastmile_qr_scan"}, "lon": -76.93369516666667, "fusion_lon": 0.0, "is_disabled": 0, "lat": 38.895501833333334, "bike_id": "9aa0f2ab3b1bdd2e975648b5573db23f", "name": "9aa0f2ab3b1bdd2e975648b5573db23f", "is_reserved": 0, "fusion_lat": 0.0}, {"type": "electric_scooter", "rental_uris": {"ios": "https://dc.lft.to/lastmile_qr_scan", "android": "https://dc.lft.to/lastmile_qr_scan"}, "lon": -77.04294933333334, "fusion_lon": 0.0, "is_disabled": 0, "lat": 38.910455, "bike_id": "89befcaf5698c2d2e559c69ec3dd65a3", "name": "89befcaf5698c2d2e559c69ec3dd65a3", "is_reserved": 0, "fusion_lat": 0.0}, {"type": "electric_scooter", "rental_uris": {"ios": "https://dc.lft.to/lastmile_qr_scan", "android": "https://dc.lft.to/lastmile_qr_scan"}, "lon": -77.02194, "fusion_lon": 0.0, "is_disabled": 0, "lat": 38.911383, "bike_id": "df6c548504e1f8c553710c0765730e3b", "name": "df6c548504e1f8c553710c0765730e3b", "is_reserved": 0, "fusion_lat": 0.0}, {"type": "electric_scooter", "rental_uris": {"ios": "https://dc.lft.to/lastmile_qr_scan", "android": "https://dc.lft.to/lastmile_qr_scan"}, "lon": -77.01778866666666, "fusion_lon": 0.0, "is_disabled": 0, "lat": 38.88720083333333, "bike_id": "41081d8b278f5666c4f5d0e0c47a6930", "name": "41081d8b278f5666c4f5d0e0c47a6930", "is_reserved": 0, "fusion_lat": 0.0}, {"type": "electric_scooter", "rental_uris": {"ios": "https://dc.lft.to/lastmile_qr_scan", "android": "https://dc.lft.to/lastmile_qr_scan"}, "lon": -76.98001183333334, "fusion_lon": 0.0, "is_disabled": 0, "lat": 38.853185, "bike_id": "707f6734e43200c68e209e9ff75c5319", "name": "707f6734e43200c68e209e9ff75c5319", "is_reserved": 0, "fusion_lat": 0.0}, {"type": "electric_scooter", "rental_uris": {"ios": "https://dc.lft.to/lastmile_qr_scan", "android": "https://dc.lft.to/lastmile_qr_scan"}, "lon": -77.03374216666667, "fusion_lon": 0.0, "is_disabled": 0, "lat": 38.892292, "bike_id": "0cd7aef2218704a39f1acd7710aae4ac", "name": "0cd7aef2218704a39f1acd7710aae4ac", "is_reserved": 0, "fusion_lat": 0.0}, {"type": "electric_bike", "rental_uris": {"ios": "https://dc.lft.to/lastmile_qr_scan", "android": "https://dc.lft.to/lastmile_qr_scan"}, "lon": -76.97189333333333, "fusion_lon": 0.0, "is_disabled": 0, "lat": 38.9178625, "bike_id": "7df3e8a8843b03ab8be1dace16c86a6f", "name": "7df3e8a8843b03ab8be1dace16c86a6f", "is_reserved": 0, "fusion_lat": 0.0}, {"type": "electric_bike", "rental_uris": {"ios": "https://dc.lft.to/lastmile_qr_scan", "android": "https://dc.lft.to/lastmile_qr_scan"}, "lon": -77.1314505, "fusion_lon": 0.0, "is_disabled": 0, "lat": 38.861712833333335, "bike_id": "87dc1b4640ff9dcb7a15f21df02ca0f1", "name": "87dc1b4640ff9dcb7a15f21df02ca0f1", "is_reserved": 0, "fusion_lat": 0.0}, {"type": "electric_scooter", "rental_uris": {"ios": "https://dc.lft.to/lastmile_qr_scan", "android": "https://dc.lft.to/lastmile_qr_scan"}, "lon": -77.04163366666667, "fusion_lon": 0.0, "is_disabled": 0, "lat": 38.916163, "bike_id": "8044bf3af7b06219fd14505f046225a9", "name": "8044bf3af7b06219fd14505f046225a9", "is_reserved": 0, "fusion_lat": 0.0}, {"type": "electric_scooter", "rental_uris": {"ios": "https://dc.lft.to/lastmile_qr_scan", "android": "https://dc.lft.to/lastmile_qr_scan"}, "lon": -77.01768066666666, "fusion_lon": 0.0, "is_disabled": 0, "lat": 38.905618, "bike_id": "b054c840e04573f948487559de4fa85a", "name": "b054c840e04573f948487559de4fa85a", "is_reserved": 0, "fusion_lat": 0.0}, {"type": "electric_scooter", "rental_uris": {"ios": "https://dc.lft.to/lastmile_qr_scan", "android": "https://dc.lft.to/lastmile_qr_scan"}, "lon": -77.02491233333333, "fusion_lon": 0.0, "is_disabled": 0, "lat": 38.9418455, "bike_id": "37cbe2990b85f5932c9d82fd26e027a1", "name": "37cbe2990b85f5932c9d82fd26e027a1", "is_reserved": 0, "fusion_lat": 0.0}, {"type": "electric_scooter", "rental_uris": {"ios": "https://dc.lft.to/lastmile_qr_scan", "android": "https://dc.lft.to/lastmile_qr_scan"}, "lon": -77.0470145, "fusion_lon": 0.0, "is_disabled": 0, "lat": 38.91703066666667, "bike_id": "0ba63593fb1dc51a89510cff3e0121af", "name": "0ba63593fb1dc51a89510cff3e0121af", "is_reserved": 0, "fusion_lat": 0.0}, {"type": "electric_scooter", "rental_uris": {"ios": "https://dc.lft.to/lastmile_qr_scan", "android": "https://dc.lft.to/lastmile_qr_scan"}, "lon": -76.98700583333333, "fusion_lon": 0.0, "is_disabled": 0, "lat": 38.865424833333336, "bike_id": "6a8ffe8fed1a85292d73507caabda49d", "name": "6a8ffe8fed1a85292d73507caabda49d", "is_reserved": 0, "fusion_lat": 0.0}, {"type": "electric_scooter", "rental_uris": {"ios": "https://dc.lft.to/lastmile_qr_scan", "android": "https://dc.lft.to/lastmile_qr_scan"}, "lon": -77.01134583333334, "fusion_lon": 0.0, "is_disabled": 0, "lat": 38.8852555, "bike_id": "b99b0e5b17f64b1570c443a67282490c", "name": "b99b0e5b17f64b1570c443a67282490c", "is_reserved": 0, "fusion_lat": 0.0}, {"type": "electric_scooter", "rental_uris": {"ios": "https://dc.lft.to/lastmile_qr_scan", "android": "https://dc.lft.to/lastmile_qr_scan"}, "lon": -77.029669, "fusion_lon": 0.0, "is_disabled": 0, "lat": 38.93472033333333, "bike_id": "94ac64e94953308a8e9e769ab54f79ab", "name": "94ac64e94953308a8e9e769ab54f79ab", "is_reserved": 0, "fusion_lat": 0.0}, {"type": "electric_scooter", "rental_uris": {"ios": "https://dc.lft.to/lastmile_qr_scan", "android": "https://dc.lft.to/lastmile_qr_scan"}, "lon": -77.02692916666666, "fusion_lon": 0.0, "is_disabled": 0, "lat": 38.90681516666667, "bike_id": "652aa8a5bd4ebf1167da51a38f76edc9", "name": "652aa8a5bd4ebf1167da51a38f76edc9", "is_reserved": 0, "fusion_lat": 0.0}, {"type": "electric_scooter", "rental_uris": {"ios": "https://dc.lft.to/lastmile_qr_scan", "android": "https://dc.lft.to/lastmile_qr_scan"}, "lon": -77.0220405, "fusion_lon": 0.0, "is_disabled": 0, "lat": 38.91058966666667, "bike_id": "faefb211cbc46b85061692f4cbd01379", "name": "faefb211cbc46b85061692f4cbd01379", "is_reserved": 0, "fusion_lat": 0.0}, {"type": "electric_bike", "rental_uris": {"ios": "https://dc.lft.to/lastmile_qr_scan", "android": "https://dc.lft.to/lastmile_qr_scan"}, "lon": -77.027793, "fusion_lon": 0.0, "is_disabled": 0, "lat": 38.929303166666664, "bike_id": "92bac62e2687ec28a94222cde0da1147", "name": "92bac62e2687ec28a94222cde0da1147", "is_reserved": 0, "fusion_lat": 0.0}, {"type": "electric_scooter", "rental_uris": {"ios": "https://dc.lft.to/lastmile_qr_scan", "android": "https://dc.lft.to/lastmile_qr_scan"}, "lon": -77.02624266666666, "fusion_lon": 0.0, "is_disabled": 0, "lat": 38.88746233333333, "bike_id": "e55f85f14bcdb08c2a1b50698ed215d9", "name": "e55f85f14bcdb08c2a1b50698ed215d9", "is_reserved": 0, "fusion_lat": 0.0}, {"type": "electric_scooter", "rental_uris": {"ios": "https://dc.lft.to/lastmile_qr_scan", "android": "https://dc.lft.to/lastmile_qr_scan"}, "lon": -77.026602, "fusion_lon": 0.0, "is_disabled": 0, "lat": 38.916977833333334, "bike_id": "c634bcee5e8c3a0c5aeb4a3d60b11e32", "name": "c634bcee5e8c3a0c5aeb4a3d60b11e32", "is_reserved": 0, "fusion_lat": 0.0}, {"type": "electric_scooter", "rental_uris": {"ios": "https://dc.lft.to/lastmile_qr_scan", "android": "https://dc.lft.to/lastmile_qr_scan"}, "lon": -77.01115216666666, "fusion_lon": 0.0, "is_disabled": 0, "lat": 38.920315333333335, "bike_id": "f8e284e48c9f97b45687ccb0cbb59b89", "name": "f8e284e48c9f97b45687ccb0cbb59b89", "is_reserved": 0, "fusion_lat": 0.0}, {"type": "electric_scooter", "rental_uris": {"ios": "https://dc.lft.to/lastmile_qr_scan", "android": "https://dc.lft.to/lastmile_qr_scan"}, "lon": -76.94212566666667, "fusion_lon": 0.0, "is_disabled": 0, "lat": 38.88423133333333, "bike_id": "32026d966079197e1d568711513d5b86", "name": "32026d966079197e1d568711513d5b86", "is_reserved": 0, "fusion_lat": 0.0}, {"type": "electric_bike", "rental_uris": {"ios": "https://dc.lft.to/lastmile_qr_scan", "android": "https://dc.lft.to/lastmile_qr_scan"}, "lon": -77.22336216666666, "fusion_lon": 0.0, "is_disabled": 0, "lat": 38.91810983333333, "bike_id": "6f720eb1fdf6a651a324419b3ddf5463", "name": "6f720eb1fdf6a651a324419b3ddf5463", "is_reserved": 0, "fusion_lat": 0.0}, {"type": "electric_scooter", "rental_uris": {"ios": "https://dc.lft.to/lastmile_qr_scan", "android": "https://dc.lft.to/lastmile_qr_scan"}, "lon": -77.032115, "fusion_lon": 0.0, "is_disabled": 0, "lat": 38.90897416666667, "bike_id": "f1673e3e34b077eca7c3009120e99a68", "name": "f1673e3e34b077eca7c3009120e99a68", "is_reserved": 0, "fusion_lat": 0.0}, {"type": "electric_scooter", "rental_uris": {"ios": "https://dc.lft.to/lastmile_qr_scan", "android": "https://dc.lft.to/lastmile_qr_scan"}, "lon": -77.0197065, "fusion_lon": 0.0, "is_disabled": 0, "lat": 38.91901266666667, "bike_id": "567234ed702188d8a455060941a90580", "name": "567234ed702188d8a455060941a90580", "is_reserved": 0, "fusion_lat": 0.0}, {"type": "electric_scooter", "rental_uris": {"ios": "https://dc.lft.to/lastmile_qr_scan", "android": "https://dc.lft.to/lastmile_qr_scan"}, "lon": -77.0601605, "fusion_lon": 0.0, "is_disabled": 0, "lat": 38.9023515, "bike_id": "8d507cd318cd6f339a81d4d3dd0e8632", "name": "8d507cd318cd6f339a81d4d3dd0e8632", "is_reserved": 0, "fusion_lat": 0.0}, {"type": "electric_scooter", "rental_uris": {"ios": "https://dc.lft.to/lastmile_qr_scan", "android": "https://dc.lft.to/lastmile_qr_scan"}, "lon": -77.0041145, "fusion_lon": 0.0, "is_disabled": 0, "lat": 38.8766715, "bike_id": "077cf7465860f95193cf5cb97cb10ea3", "name": "077cf7465860f95193cf5cb97cb10ea3", "is_reserved": 0, "fusion_lat": 0.0}, {"type": "electric_scooter", "rental_uris": {"ios": "https://dc.lft.to/lastmile_qr_scan", "android": "https://dc.lft.to/lastmile_qr_scan"}, "lon": -77.005903, "fusion_lon": 0.0, "is_disabled": 0, "lat": 38.902223166666666, "bike_id": "e9c6af84436ff66af6da8e6e1ed29f03", "name": "e9c6af84436ff66af6da8e6e1ed29f03", "is_reserved": 0, "fusion_lat": 0.0}, {"type": "electric_scooter", "rental_uris": {"ios": "https://dc.lft.to/lastmile_qr_scan", "android": "https://dc.lft.to/lastmile_qr_scan"}, "lon": -77.03205666666666, "fusion_lon": 0.0, "is_disabled": 0, "lat": 38.921179333333335, "bike_id": "09ff43da9604740f3dd2e2d8313bd391", "name": "09ff43da9604740f3dd2e2d8313bd391", "is_reserved": 0, "fusion_lat": 0.0}, {"type": "electric_scooter", "rental_uris": {"ios": "https://dc.lft.to/lastmile_qr_scan", "android": "https://dc.lft.to/lastmile_qr_scan"}, "lon": -77.03679733333334, "fusion_lon": 0.0, "is_disabled": 0, "lat": 38.936453666666665, "bike_id": "56ba9aa991ccc517360142e7a8784331", "name": "56ba9aa991ccc517360142e7a8784331", "is_reserved": 0, "fusion_lat": 0.0}, {"type": "electric_scooter", "rental_uris": {"ios": "https://dc.lft.to/lastmile_qr_scan", "android": "https://dc.lft.to/lastmile_qr_scan"}, "lon": -77.0203035, "fusion_lon": 0.0, "is_disabled": 0, "lat": 38.89715366666667, "bike_id": "e4793afc1128ab0781aae1694ba4933e", "name": "e4793afc1128ab0781aae1694ba4933e", "is_reserved": 0, "fusion_lat": 0.0}, {"type": "electric_scooter", "rental_uris": {"ios": "https://dc.lft.to/lastmile_qr_scan", "android": "https://dc.lft.to/lastmile_qr_scan"}, "lon": -77.03073233333333, "fusion_lon": 0.0, "is_disabled": 0, "lat": 38.922497166666666, "bike_id": "32f2c8339a5d8c4742ac1c20f1d1b67d", "name": "32f2c8339a5d8c4742ac1c20f1d1b67d", "is_reserved": 0, "fusion_lat": 0.0}, {"type": "electric_scooter", "rental_uris": {"ios": "https://dc.lft.to/lastmile_qr_scan", "android": "https://dc.lft.to/lastmile_qr_scan"}, "lon": -77.03445583333334, "fusion_lon": 0.0, "is_disabled": 0, "lat": 38.91871416666667, "bike_id": "1ccc81b79d9e726b91eceaebb6d04c56", "name": "1ccc81b79d9e726b91eceaebb6d04c56", "is_reserved": 0, "fusion_lat": 0.0}, {"type": "electric_scooter", "rental_uris": {"ios": "https://dc.lft.to/lastmile_qr_scan", "android": "https://dc.lft.to/lastmile_qr_scan"}, "lon": -77.0415725, "fusion_lon": 0.0, "is_disabled": 0, "lat": 38.91420333333333, "bike_id": "5c1d54d33ee838772645e5b35946fe8c", "name": "5c1d54d33ee838772645e5b35946fe8c", "is_reserved": 0, "fusion_lat": 0.0}, {"type": "electric_scooter", "rental_uris": {"ios": "https://dc.lft.to/lastmile_qr_scan", "android": "https://dc.lft.to/lastmile_qr_scan"}, "lon": -77.0322045, "fusion_lon": 0.0, "is_disabled": 0, "lat": 38.892278, "bike_id": "d37493e883b898a50b637a212f2551a9", "name": "d37493e883b898a50b637a212f2551a9", "is_reserved": 0, "fusion_lat": 0.0}, {"type": "electric_scooter", "rental_uris": {"ios": "https://dc.lft.to/lastmile_qr_scan", "android": "https://dc.lft.to/lastmile_qr_scan"}, "lon": -77.03242633333333, "fusion_lon": 0.0, "is_disabled": 0, "lat": 38.928043333333335, "bike_id": "94b053c108a7e0db95c265f581eb2319", "name": "94b053c108a7e0db95c265f581eb2319", "is_reserved": 0, "fusion_lat": 0.0}, {"type": "electric_scooter", "rental_uris": {"ios": "https://dc.lft.to/lastmile_qr_scan", "android": "https://dc.lft.to/lastmile_qr_scan"}, "lon": -77.03527466666667, "fusion_lon": 0.0, "is_disabled": 0, "lat": 38.9181895, "bike_id": "8e551f9411fbd09bac10f5844a83b795", "name": "8e551f9411fbd09bac10f5844a83b795", "is_reserved": 0, "fusion_lat": 0.0}, {"type": "electric_scooter", "rental_uris": {"ios": "https://dc.lft.to/lastmile_qr_scan", "android": "https://dc.lft.to/lastmile_qr_scan"}, "lon": -77.03419316666667, "fusion_lon": 0.0, "is_disabled": 0, "lat": 38.922447166666664, "bike_id": "312a5315b8c02dcc61953275d441518f", "name": "312a5315b8c02dcc61953275d441518f", "is_reserved": 0, "fusion_lat": 0.0}, {"type": "electric_scooter", "rental_uris": {"ios": "https://dc.lft.to/lastmile_qr_scan", "android": "https://dc.lft.to/lastmile_qr_scan"}, "lon": -77.03719666666667, "fusion_lon": 0.0, "is_disabled": 0, "lat": 38.928627666666664, "bike_id": "e88f85c20d5e8b719f9cf5d9b41a36f8", "name": "e88f85c20d5e8b719f9cf5d9b41a36f8", "is_reserved": 0, "fusion_lat": 0.0}, {"type": "electric_scooter", "rental_uris": {"ios": "https://dc.lft.to/lastmile_qr_scan", "android": "https://dc.lft.to/lastmile_qr_scan"}, "lon": -77.03324116666667, "fusion_lon": 0.0, "is_disabled": 0, "lat": 38.9104655, "bike_id": "9fe57057b4c7a44d480af705df67f230", "name": "9fe57057b4c7a44d480af705df67f230", "is_reserved": 0, "fusion_lat": 0.0}, {"type": "electric_scooter", "rental_uris": {"ios": "https://dc.lft.to/lastmile_qr_scan", "android": "https://dc.lft.to/lastmile_qr_scan"}, "lon": -77.023469, "fusion_lon": 0.0, "is_disabled": 0, "lat": 38.917802333333334, "bike_id": "6074b9b32dbb5aab607764b9dc47abf7", "name": "6074b9b32dbb5aab607764b9dc47abf7", "is_reserved": 0, "fusion_lat": 0.0}, {"type": "electric_bike", "rental_uris": {"ios": "https://dc.lft.to/lastmile_qr_scan", "android": "https://dc.lft.to/lastmile_qr_scan"}, "lon": -77.120316, "fusion_lon": 0.0, "is_disabled": 0, "lat": 38.85511316666667, "bike_id": "4f906aee09249ee4bcb6298f17f0c95f", "name": "4f906aee09249ee4bcb6298f17f0c95f", "is_reserved": 0, "fusion_lat": 0.0}, {"type": "electric_scooter", "rental_uris": {"ios": "https://dc.lft.to/lastmile_qr_scan", "android": "https://dc.lft.to/lastmile_qr_scan"}, "lon": -77.02228966666667, "fusion_lon": 0.0, "is_disabled": 0, "lat": 38.90849683333333, "bike_id": "472a38c96494348e9819f631e0f7a448", "name": "472a38c96494348e9819f631e0f7a448", "is_reserved": 0, "fusion_lat": 0.0}, {"type": "electric_bike", "rental_uris": {"ios": "https://dc.lft.to/lastmile_qr_scan", "android": "https://dc.lft.to/lastmile_qr_scan"}, "lon": -76.96111916666666, "fusion_lon": 0.0, "is_disabled": 0, "lat": 38.85190683333333, "bike_id": "4b6644a3ffbf93ef4311b194b84ed8b5", "name": "4b6644a3ffbf93ef4311b194b84ed8b5", "is_reserved": 0, "fusion_lat": 0.0}, {"type": "electric_scooter", "rental_uris": {"ios": "https://dc.lft.to/lastmile_qr_scan", "android": "https://dc.lft.to/lastmile_qr_scan"}, "lon": -76.976686, "fusion_lon": 0.0, "is_disabled": 0, "lat": 38.898574833333335, "bike_id": "f69c9d5edb92881af66749da35f1188e", "name": "f69c9d5edb92881af66749da35f1188e", "is_reserved": 0, "fusion_lat": 0.0}, {"type": "electric_scooter", "rental_uris": {"ios": "https://dc.lft.to/lastmile_qr_scan", "android": "https://dc.lft.to/lastmile_qr_scan"}, "lon": -77.01944966666667, "fusion_lon": 0.0, "is_disabled": 0, "lat": 38.9492485, "bike_id": "84d1cc67dafb2033867ebc146e137ab7", "name": "84d1cc67dafb2033867ebc146e137ab7", "is_reserved": 0, "fusion_lat": 0.0}, {"type": "electric_scooter", "rental_uris": {"ios": "https://dc.lft.to/lastmile_qr_scan", "android": "https://dc.lft.to/lastmile_qr_scan"}, "lon": -77.03147666666666, "fusion_lon": 0.0, "is_disabled": 0, "lat": 38.915745666666666, "bike_id": "e5bf250734015e13c3d25b44cb296411", "name": "e5bf250734015e13c3d25b44cb296411", "is_reserved": 0, "fusion_lat": 0.0}, {"type": "electric_scooter", "rental_uris": {"ios": "https://dc.lft.to/lastmile_qr_scan", "android": "https://dc.lft.to/lastmile_qr_scan"}, "lon": -76.94186933333333, "fusion_lon": 0.0, "is_disabled": 0, "lat": 38.897577166666665, "bike_id": "ba44d88d915c2498ac7cc2ece3538ccb", "name": "ba44d88d915c2498ac7cc2ece3538ccb", "is_reserved": 0, "fusion_lat": 0.0}, {"type": "electric_scooter", "rental_uris": {"ios": "https://dc.lft.to/lastmile_qr_scan", "android": "https://dc.lft.to/lastmile_qr_scan"}, "lon": -77.0341735, "fusion_lon": 0.0, "is_disabled": 0, "lat": 38.907147333333334, "bike_id": "7af6dea09e5eba770efb7abca9151e04", "name": "7af6dea09e5eba770efb7abca9151e04", "is_reserved": 0, "fusion_lat": 0.0}, {"type": "electric_scooter", "rental_uris": {"ios": "https://dc.lft.to/lastmile_qr_scan", "android": "https://dc.lft.to/lastmile_qr_scan"}, "lon": -77.040297, "fusion_lon": 0.0, "is_disabled": 0, "lat": 38.918063333333336, "bike_id": "36cb0bc2ca86f76ebb571642648deeef", "name": "36cb0bc2ca86f76ebb571642648deeef", "is_reserved": 0, "fusion_lat": 0.0}, {"type": "electric_scooter", "rental_uris": {"ios": "https://dc.lft.to/lastmile_qr_scan", "android": "https://dc.lft.to/lastmile_qr_scan"}, "lon": -77.03190416666666, "fusion_lon": 0.0, "is_disabled": 0, "lat": 38.914250833333334, "bike_id": "bdf3e1dc69d018061a40101240118e0b", "name": "bdf3e1dc69d018061a40101240118e0b", "is_reserved": 0, "fusion_lat": 0.0}, {"type": "electric_scooter", "rental_uris": {"ios": "https://dc.lft.to/lastmile_qr_scan", "android": "https://dc.lft.to/lastmile_qr_scan"}, "lon": -76.93302616666666, "fusion_lon": 0.0, "is_disabled": 0, "lat": 38.88133233333333, "bike_id": "05d0e472852a861c4b828eb25d9b602c", "name": "05d0e472852a861c4b828eb25d9b602c", "is_reserved": 0, "fusion_lat": 0.0}, {"type": "electric_scooter", "rental_uris": {"ios": "https://dc.lft.to/lastmile_qr_scan", "android": "https://dc.lft.to/lastmile_qr_scan"}, "lon": -77.0414465, "fusion_lon": 0.0, "is_disabled": 0, "lat": 38.9229585, "bike_id": "6d5b4594157c3b536d41f10dbd4e005f", "name": "6d5b4594157c3b536d41f10dbd4e005f", "is_reserved": 0, "fusion_lat": 0.0}, {"type": "electric_bike", "rental_uris": {"ios": "https://dc.lft.to/lastmile_qr_scan", "android": "https://dc.lft.to/lastmile_qr_scan"}, "lon": -76.99343433333334, "fusion_lon": 0.0, "is_disabled": 0, "lat": 38.972294, "bike_id": "eec5e415edd36fc0902e28874f0cb7d1", "name": "eec5e415edd36fc0902e28874f0cb7d1", "is_reserved": 0, "fusion_lat": 0.0}, {"type": "electric_scooter", "rental_uris": {"ios": "https://dc.lft.to/lastmile_qr_scan", "android": "https://dc.lft.to/lastmile_qr_scan"}, "lon": -77.03254683333333, "fusion_lon": 0.0, "is_disabled": 0, "lat": 38.939698666666665, "bike_id": "b292ca65b8dfe96a6f11676676eb4c58", "name": "b292ca65b8dfe96a6f11676676eb4c58", "is_reserved": 0, "fusion_lat": 0.0}, {"type": "electric_scooter", "rental_uris": {"ios": "https://dc.lft.to/lastmile_qr_scan", "android": "https://dc.lft.to/lastmile_qr_scan"}, "lon": -77.04533866666667, "fusion_lon": 0.0, "is_disabled": 0, "lat": 38.93313833333333, "bike_id": "45d49703c3078c779f411ca9520db89f", "name": "45d49703c3078c779f411ca9520db89f", "is_reserved": 0, "fusion_lat": 0.0}, {"type": "electric_scooter", "rental_uris": {"ios": "https://dc.lft.to/lastmile_qr_scan", "android": "https://dc.lft.to/lastmile_qr_scan"}, "lon": -77.04365816666666, "fusion_lon": 0.0, "is_disabled": 0, "lat": 38.892226666666666, "bike_id": "c50a6788d75a1609ff307925528ccfe7", "name": "c50a6788d75a1609ff307925528ccfe7", "is_reserved": 0, "fusion_lat": 0.0}, {"type": "electric_scooter", "rental_uris": {"ios": "https://dc.lft.to/lastmile_qr_scan", "android": "https://dc.lft.to/lastmile_qr_scan"}, "lon": -76.99516216666666, "fusion_lon": 0.0, "is_disabled": 0, "lat": 38.883688, "bike_id": "160baeccbd9985600a92fc99ac0675b3", "name": "160baeccbd9985600a92fc99ac0675b3", "is_reserved": 0, "fusion_lat": 0.0}, {"type": "electric_scooter", "rental_uris": {"ios": "https://dc.lft.to/lastmile_qr_scan", "android": "https://dc.lft.to/lastmile_qr_scan"}, "lon": -77.03350683333333, "fusion_lon": 0.0, "is_disabled": 0, "lat": 38.895287, "bike_id": "ffae9fc2731c9f135edf58b9620b9987", "name": "ffae9fc2731c9f135edf58b9620b9987", "is_reserved": 0, "fusion_lat": 0.0}, {"type": "electric_bike", "rental_uris": {"ios": "https://dc.lft.to/lastmile_qr_scan", "android": "https://dc.lft.to/lastmile_qr_scan"}, "lon": -77.0365795, "fusion_lon": 0.0, "is_disabled": 0, "lat": 38.92804566666667, "bike_id": "3f86d444f02b9d07f7c2451683d10c79", "name": "3f86d444f02b9d07f7c2451683d10c79", "is_reserved": 0, "fusion_lat": 0.0}, {"type": "electric_scooter", "rental_uris": {"ios": "https://dc.lft.to/lastmile_qr_scan", "android": "https://dc.lft.to/lastmile_qr_scan"}, "lon": -77.0281875, "fusion_lon": 0.0, "is_disabled": 0, "lat": 38.9027875, "bike_id": "c5f9dd4abfc3b39e376f5eeaf46d115e", "name": "c5f9dd4abfc3b39e376f5eeaf46d115e", "is_reserved": 0, "fusion_lat": 0.0}, {"type": "electric_scooter", "rental_uris": {"ios": "https://dc.lft.to/lastmile_qr_scan", "android": "https://dc.lft.to/lastmile_qr_scan"}, "lon": -76.99697066666667, "fusion_lon": 0.0, "is_disabled": 0, "lat": 38.9084015, "bike_id": "ea4fd20a4d0f3969677745ee5483ecda", "name": "ea4fd20a4d0f3969677745ee5483ecda", "is_reserved": 0, "fusion_lat": 0.0}, {"type": "electric_scooter", "rental_uris": {"ios": "https://dc.lft.to/lastmile_qr_scan", "android": "https://dc.lft.to/lastmile_qr_scan"}, "lon": -77.00309583333333, "fusion_lon": 0.0, "is_disabled": 0, "lat": 38.8259745, "bike_id": "55221826c262adc18deab2291141c367", "name": "55221826c262adc18deab2291141c367", "is_reserved": 0, "fusion_lat": 0.0}, {"type": "electric_scooter", "rental_uris": {"ios": "https://dc.lft.to/lastmile_qr_scan", "android": "https://dc.lft.to/lastmile_qr_scan"}, "lon": -77.03958033333333, "fusion_lon": 0.0, "is_disabled": 0, "lat": 38.92466783333333, "bike_id": "cbd1980eb8e643b816cf51244f802807", "name": "cbd1980eb8e643b816cf51244f802807", "is_reserved": 0, "fusion_lat": 0.0}, {"type": "electric_scooter", "rental_uris": {"ios": "https://dc.lft.to/lastmile_qr_scan", "android": "https://dc.lft.to/lastmile_qr_scan"}, "lon": -77.04149, "fusion_lon": 0.0, "is_disabled": 0, "lat": 38.892230166666664, "bike_id": "2a94327f7795277c025c8bcb71d876e9", "name": "2a94327f7795277c025c8bcb71d876e9", "is_reserved": 0, "fusion_lat": 0.0}, {"type": "electric_scooter", "rental_uris": {"ios": "https://dc.lft.to/lastmile_qr_scan", "android": "https://dc.lft.to/lastmile_qr_scan"}, "lon": -77.041814, "fusion_lon": 0.0, "is_disabled": 0, "lat": 38.92007816666667, "bike_id": "0af40147d80de9617bdd92da086086a7", "name": "0af40147d80de9617bdd92da086086a7", "is_reserved": 0, "fusion_lat": 0.0}, {"type": "electric_scooter", "rental_uris": {"ios": "https://dc.lft.to/lastmile_qr_scan", "android": "https://dc.lft.to/lastmile_qr_scan"}, "lon": -77.02750833333333, "fusion_lon": 0.0, "is_disabled": 0, "lat": 38.9578615, "bike_id": "ae8c46c5dcd0b742bcbe7aaf45f510b9", "name": "ae8c46c5dcd0b742bcbe7aaf45f510b9", "is_reserved": 0, "fusion_lat": 0.0}, {"type": "electric_scooter", "rental_uris": {"ios": "https://dc.lft.to/lastmile_qr_scan", "android": "https://dc.lft.to/lastmile_qr_scan"}, "lon": -77.04176, "fusion_lon": 0.0, "is_disabled": 0, "lat": 38.905175166666666, "bike_id": "c8df5adee3d1854c6970e376fccdbb4c", "name": "c8df5adee3d1854c6970e376fccdbb4c", "is_reserved": 0, "fusion_lat": 0.0}, {"type": "electric_scooter", "rental_uris": {"ios": "https://dc.lft.to/lastmile_qr_scan", "android": "https://dc.lft.to/lastmile_qr_scan"}, "lon": -76.96530966666667, "fusion_lon": 0.0, "is_disabled": 0, "lat": 38.876282833333335, "bike_id": "3e0334f3d85273a96c5aa73d55bd87f1", "name": "3e0334f3d85273a96c5aa73d55bd87f1", "is_reserved": 0, "fusion_lat": 0.0}, {"type": "electric_scooter", "rental_uris": {"ios": "https://dc.lft.to/lastmile_qr_scan", "android": "https://dc.lft.to/lastmile_qr_scan"}, "lon": -77.03648666666666, "fusion_lon": 0.0, "is_disabled": 0, "lat": 38.9234505, "bike_id": "18e61cdca81425181049d6d4f3c506fc", "name": "18e61cdca81425181049d6d4f3c506fc", "is_reserved": 0, "fusion_lat": 0.0}, {"type": "electric_scooter", "rental_uris": {"ios": "https://dc.lft.to/lastmile_qr_scan", "android": "https://dc.lft.to/lastmile_qr_scan"}, "lon": -77.0180595, "fusion_lon": 0.0, "is_disabled": 0, "lat": 38.90248366666667, "bike_id": "6fa512ebf2e4651f06e8811fd4fac22b", "name": "6fa512ebf2e4651f06e8811fd4fac22b", "is_reserved": 0, "fusion_lat": 0.0}, {"type": "electric_scooter", "rental_uris": {"ios": "https://dc.lft.to/lastmile_qr_scan", "android": "https://dc.lft.to/lastmile_qr_scan"}, "lon": -77.04349783333333, "fusion_lon": 0.0, "is_disabled": 0, "lat": 38.921624, "bike_id": "d59392953f88db1d13dbf61a5a0d7c2e", "name": "d59392953f88db1d13dbf61a5a0d7c2e", "is_reserved": 0, "fusion_lat": 0.0}, {"type": "electric_scooter", "rental_uris": {"ios": "https://dc.lft.to/lastmile_qr_scan", "android": "https://dc.lft.to/lastmile_qr_scan"}, "lon": -77.050626, "fusion_lon": 0.0, "is_disabled": 0, "lat": 38.900735166666664, "bike_id": "57ad48f3e6163b9f63b35f621838a895", "name": "57ad48f3e6163b9f63b35f621838a895", "is_reserved": 0, "fusion_lat": 0.0}, {"type": "electric_scooter", "rental_uris": {"ios": "https://dc.lft.to/lastmile_qr_scan", "android": "https://dc.lft.to/lastmile_qr_scan"}, "lon": -77.04700833333334, "fusion_lon": 0.0, "is_disabled": 0, "lat": 38.909583833333336, "bike_id": "eee90b0506ace4742663edd364b6a569", "name": "eee90b0506ace4742663edd364b6a569", "is_reserved": 0, "fusion_lat": 0.0}, {"type": "electric_scooter", "rental_uris": {"ios": "https://dc.lft.to/lastmile_qr_scan", "android": "https://dc.lft.to/lastmile_qr_scan"}, "lon": -77.04028033333333, "fusion_lon": 0.0, "is_disabled": 0, "lat": 38.918351666666666, "bike_id": "6988a05d078d2f28e85c0f0f910b206c", "name": "6988a05d078d2f28e85c0f0f910b206c", "is_reserved": 0, "fusion_lat": 0.0}, {"type": "electric_scooter", "rental_uris": {"ios": "https://dc.lft.to/lastmile_qr_scan", "android": "https://dc.lft.to/lastmile_qr_scan"}, "lon": -77.04709733333334, "fusion_lon": 0.0, "is_disabled": 0, "lat": 38.921852, "bike_id": "7b49e6d3680fc5d101aff5f0e54909af", "name": "7b49e6d3680fc5d101aff5f0e54909af", "is_reserved": 0, "fusion_lat": 0.0}, {"type": "electric_scooter", "rental_uris": {"ios": "https://dc.lft.to/lastmile_qr_scan", "android": "https://dc.lft.to/lastmile_qr_scan"}, "lon": -77.038395, "fusion_lon": 0.0, "is_disabled": 0, "lat": 38.91757833333333, "bike_id": "04f042eb08a2460a11f0ce8afafc55db", "name": "04f042eb08a2460a11f0ce8afafc55db", "is_reserved": 0, "fusion_lat": 0.0}, {"type": "electric_scooter", "rental_uris": {"ios": "https://dc.lft.to/lastmile_qr_scan", "android": "https://dc.lft.to/lastmile_qr_scan"}, "lon": -77.02673583333333, "fusion_lon": 0.0, "is_disabled": 0, "lat": 38.91697116666667, "bike_id": "d0fae1e385b7c0660e04d41751fcc600", "name": "d0fae1e385b7c0660e04d41751fcc600", "is_reserved": 0, "fusion_lat": 0.0}, {"type": "electric_scooter", "rental_uris": {"ios": "https://dc.lft.to/lastmile_qr_scan", "android": "https://dc.lft.to/lastmile_qr_scan"}, "lon": -76.91909333333334, "fusion_lon": 0.0, "is_disabled": 0, "lat": 38.8857935, "bike_id": "98a7db50f770949683d40efb3b9abf6a", "name": "98a7db50f770949683d40efb3b9abf6a", "is_reserved": 0, "fusion_lat": 0.0}, {"type": "electric_scooter", "rental_uris": {"ios": "https://dc.lft.to/lastmile_qr_scan", "android": "https://dc.lft.to/lastmile_qr_scan"}, "lon": -77.04589016666667, "fusion_lon": 0.0, "is_disabled": 0, "lat": 38.91737166666667, "bike_id": "82b18c205b822335ea0896d01e8b0b92", "name": "82b18c205b822335ea0896d01e8b0b92", "is_reserved": 0, "fusion_lat": 0.0}, {"type": "electric_scooter", "rental_uris": {"ios": "https://dc.lft.to/lastmile_qr_scan", "android": "https://dc.lft.to/lastmile_qr_scan"}, "lon": -77.03838816666666, "fusion_lon": 0.0, "is_disabled": 0, "lat": 38.9175905, "bike_id": "726776e045a8f942531a67ebe4679431", "name": "726776e045a8f942531a67ebe4679431", "is_reserved": 0, "fusion_lat": 0.0}, {"type": "electric_scooter", "rental_uris": {"ios": "https://dc.lft.to/lastmile_qr_scan", "android": "https://dc.lft.to/lastmile_qr_scan"}, "lon": -77.04904216666667, "fusion_lon": 0.0, "is_disabled": 0, "lat": 38.892227166666665, "bike_id": "8ecd86aa8efb40edbe5ae227861409d2", "name": "8ecd86aa8efb40edbe5ae227861409d2", "is_reserved": 0, "fusion_lat": 0.0}, {"type": "electric_scooter", "rental_uris": {"ios": "https://dc.lft.to/lastmile_qr_scan", "android": "https://dc.lft.to/lastmile_qr_scan"}, "lon": -77.0047455, "fusion_lon": 0.0, "is_disabled": 0, "lat": 38.91142966666666, "bike_id": "7a6ad1f6904f5387265a66da5b106daf", "name": "7a6ad1f6904f5387265a66da5b106daf", "is_reserved": 0, "fusion_lat": 0.0}, {"type": "electric_scooter", "rental_uris": {"ios": "https://dc.lft.to/lastmile_qr_scan", "android": "https://dc.lft.to/lastmile_qr_scan"}, "lon": -77.0326695, "fusion_lon": 0.0, "is_disabled": 0, "lat": 38.935214, "bike_id": "6f110f57cf6a49cc5f7abec2cae2039e", "name": "6f110f57cf6a49cc5f7abec2cae2039e", "is_reserved": 0, "fusion_lat": 0.0}, {"type": "electric_scooter", "rental_uris": {"ios": "https://dc.lft.to/lastmile_qr_scan", "android": "https://dc.lft.to/lastmile_qr_scan"}, "lon": -77.05752016666666, "fusion_lon": 0.0, "is_disabled": 0, "lat": 38.92384116666667, "bike_id": "a21d9d58ee72ad0453cad8ffcdce2ce9", "name": "a21d9d58ee72ad0453cad8ffcdce2ce9", "is_reserved": 0, "fusion_lat": 0.0}, {"type": "electric_scooter", "rental_uris": {"ios": "https://dc.lft.to/lastmile_qr_scan", "android": "https://dc.lft.to/lastmile_qr_scan"}, "lon": -77.02171966666667, "fusion_lon": 0.0, "is_disabled": 0, "lat": 38.94295233333333, "bike_id": "231bbf3ec235fa7ab9d99b41da9aa4dc", "name": "231bbf3ec235fa7ab9d99b41da9aa4dc", "is_reserved": 0, "fusion_lat": 0.0}, {"type": "electric_bike", "rental_uris": {"ios": "https://dc.lft.to/lastmile_qr_scan", "android": "https://dc.lft.to/lastmile_qr_scan"}, "lon": -77.033412, "fusion_lon": 0.0, "is_disabled": 0, "lat": 38.9693875, "bike_id": "c71288733ca0cf8316465827af889538", "name": "c71288733ca0cf8316465827af889538", "is_reserved": 0, "fusion_lat": 0.0}, {"type": "electric_scooter", "rental_uris": {"ios": "https://dc.lft.to/lastmile_qr_scan", "android": "https://dc.lft.to/lastmile_qr_scan"}, "lon": -77.01344816666666, "fusion_lon": 0.0, "is_disabled": 0, "lat": 38.886645666666666, "bike_id": "57931711db7308858dcd383428543a22", "name": "57931711db7308858dcd383428543a22", "is_reserved": 0, "fusion_lat": 0.0}, {"type": "electric_scooter", "rental_uris": {"ios": "https://dc.lft.to/lastmile_qr_scan", "android": "https://dc.lft.to/lastmile_qr_scan"}, "lon": -76.99934533333334, "fusion_lon": 0.0, "is_disabled": 0, "lat": 38.889731, "bike_id": "8f3acbefa4ff1162559c2d456ec6a341", "name": "8f3acbefa4ff1162559c2d456ec6a341", "is_reserved": 0, "fusion_lat": 0.0}, {"type": "electric_scooter", "rental_uris": {"ios": "https://dc.lft.to/lastmile_qr_scan", "android": "https://dc.lft.to/lastmile_qr_scan"}, "lon": -77.03170216666666, "fusion_lon": 0.0, "is_disabled": 0, "lat": 38.924901166666665, "bike_id": "fe244c2469b92f8c1be420ac3cda2ee4", "name": "fe244c2469b92f8c1be420ac3cda2ee4", "is_reserved": 0, "fusion_lat": 0.0}, {"type": "electric_scooter", "rental_uris": {"ios": "https://dc.lft.to/lastmile_qr_scan", "android": "https://dc.lft.to/lastmile_qr_scan"}, "lon": -77.04364033333333, "fusion_lon": 0.0, "is_disabled": 0, "lat": 38.90247033333333, "bike_id": "84b08d9afd9f83f0439466851877b849", "name": "84b08d9afd9f83f0439466851877b849", "is_reserved": 0, "fusion_lat": 0.0}, {"type": "electric_scooter", "rental_uris": {"ios": "https://dc.lft.to/lastmile_qr_scan", "android": "https://dc.lft.to/lastmile_qr_scan"}, "lon": -76.98577866666666, "fusion_lon": 0.0, "is_disabled": 0, "lat": 38.854550333333336, "bike_id": "ffbad862023494fec7dca5ba5dc45c26", "name": "ffbad862023494fec7dca5ba5dc45c26", "is_reserved": 0, "fusion_lat": 0.0}, {"type": "electric_bike", "rental_uris": {"ios": "https://dc.lft.to/lastmile_qr_scan", "android": "https://dc.lft.to/lastmile_qr_scan"}, "lon": -77.02269316666667, "fusion_lon": 0.0, "is_disabled": 0, "lat": 38.90868616666667, "bike_id": "d8ad55e7c9676eec5eee4adb31cf4d19", "name": "d8ad55e7c9676eec5eee4adb31cf4d19", "is_reserved": 0, "fusion_lat": 0.0}, {"type": "electric_scooter", "rental_uris": {"ios": "https://dc.lft.to/lastmile_qr_scan", "android": "https://dc.lft.to/lastmile_qr_scan"}, "lon": -77.020076, "fusion_lon": 0.0, "is_disabled": 0, "lat": 38.9241895, "bike_id": "d3584e085f58c3b939827f8a7a5cf3f1", "name": "d3584e085f58c3b939827f8a7a5cf3f1", "is_reserved": 0, "fusion_lat": 0.0}, {"type": "electric_scooter", "rental_uris": {"ios": "https://dc.lft.to/lastmile_qr_scan", "android": "https://dc.lft.to/lastmile_qr_scan"}, "lon": -76.9652965, "fusion_lon": 0.0, "is_disabled": 0, "lat": 38.876291, "bike_id": "fb258ccbb86d6cd16543a1695872306c", "name": "fb258ccbb86d6cd16543a1695872306c", "is_reserved": 0, "fusion_lat": 0.0}, {"type": "electric_bike", "rental_uris": {"ios": "https://dc.lft.to/lastmile_qr_scan", "android": "https://dc.lft.to/lastmile_qr_scan"}, "lon": -77.026276, "fusion_lon": 0.0, "is_disabled": 0, "lat": 38.96223466666667, "bike_id": "a096c46d926d4f9125ed030e40a57a62", "name": "a096c46d926d4f9125ed030e40a57a62", "is_reserved": 0, "fusion_lat": 0.0}, {"type": "electric_scooter", "rental_uris": {"ios": "https://dc.lft.to/lastmile_qr_scan", "android": "https://dc.lft.to/lastmile_qr_scan"}, "lon": -77.00601666666667, "fusion_lon": 0.0, "is_disabled": 0, "lat": 38.906292666666666, "bike_id": "2d28d4373709ede2773e649678babdff", "name": "2d28d4373709ede2773e649678babdff", "is_reserved": 0, "fusion_lat": 0.0}, {"type": "electric_bike", "rental_uris": {"ios": "https://dc.lft.to/lastmile_qr_scan", "android": "https://dc.lft.to/lastmile_qr_scan"}, "lon": -77.10784683333333, "fusion_lon": 0.0, "is_disabled": 0, "lat": 38.892214833333334, "bike_id": "b2a39b1265bb025af089d109cc7636b9", "name": "b2a39b1265bb025af089d109cc7636b9", "is_reserved": 0, "fusion_lat": 0.0}, {"type": "electric_scooter", "rental_uris": {"ios": "https://dc.lft.to/lastmile_qr_scan", "android": "https://dc.lft.to/lastmile_qr_scan"}, "lon": -76.93140216666667, "fusion_lon": 0.0, "is_disabled": 0, "lat": 38.893395166666664, "bike_id": "5c527beac412668855d22797bea6864a", "name": "5c527beac412668855d22797bea6864a", "is_reserved": 0, "fusion_lat": 0.0}, {"type": "electric_scooter", "rental_uris": {"ios": "https://dc.lft.to/lastmile_qr_scan", "android": "https://dc.lft.to/lastmile_qr_scan"}, "lon": -77.03313233333333, "fusion_lon": 0.0, "is_disabled": 0, "lat": 38.959584666666665, "bike_id": "d6d728a418cb29360184cd214f76ec57", "name": "d6d728a418cb29360184cd214f76ec57", "is_reserved": 0, "fusion_lat": 0.0}, {"type": "electric_bike", "rental_uris": {"ios": "https://dc.lft.to/lastmile_qr_scan", "android": "https://dc.lft.to/lastmile_qr_scan"}, "lon": -76.98947066666666, "fusion_lon": 0.0, "is_disabled": 0, "lat": 38.8670645, "bike_id": "d53fb010c143bc6a162f61b4f463df20", "name": "d53fb010c143bc6a162f61b4f463df20", "is_reserved": 0, "fusion_lat": 0.0}, {"type": "electric_scooter", "rental_uris": {"ios": "https://dc.lft.to/lastmile_qr_scan", "android": "https://dc.lft.to/lastmile_qr_scan"}, "lon": -77.03871533333333, "fusion_lon": 0.0, "is_disabled": 0, "lat": 38.9346105, "bike_id": "a3b8ce10ac580d904fdad5bdd135a932", "name": "a3b8ce10ac580d904fdad5bdd135a932", "is_reserved": 0, "fusion_lat": 0.0}, {"type": "electric_scooter", "rental_uris": {"ios": "https://dc.lft.to/lastmile_qr_scan", "android": "https://dc.lft.to/lastmile_qr_scan"}, "lon": -77.00614633333333, "fusion_lon": 0.0, "is_disabled": 0, "lat": 38.906439, "bike_id": "f44a9140f07ea9ff63a803962229d415", "name": "f44a9140f07ea9ff63a803962229d415", "is_reserved": 0, "fusion_lat": 0.0}, {"type": "electric_scooter", "rental_uris": {"ios": "https://dc.lft.to/lastmile_qr_scan", "android": "https://dc.lft.to/lastmile_qr_scan"}, "lon": -77.03778516666667, "fusion_lon": 0.0, "is_disabled": 0, "lat": 38.92968916666667, "bike_id": "fecfe43f50702c0a11c92adb5887c63e", "name": "fecfe43f50702c0a11c92adb5887c63e", "is_reserved": 0, "fusion_lat": 0.0}, {"type": "electric_scooter", "rental_uris": {"ios": "https://dc.lft.to/lastmile_qr_scan", "android": "https://dc.lft.to/lastmile_qr_scan"}, "lon": -77.0700315, "fusion_lon": 0.0, "is_disabled": 0, "lat": 38.90590983333333, "bike_id": "76fc5e203de0fbccc75acdc34abfbce8", "name": "76fc5e203de0fbccc75acdc34abfbce8", "is_reserved": 0, "fusion_lat": 0.0}, {"type": "electric_scooter", "rental_uris": {"ios": "https://dc.lft.to/lastmile_qr_scan", "android": "https://dc.lft.to/lastmile_qr_scan"}, "lon": -77.0326965, "fusion_lon": 0.0, "is_disabled": 0, "lat": 38.913282833333334, "bike_id": "ff8f2aa9e8fc43f2100e7be41c40c6dc", "name": "ff8f2aa9e8fc43f2100e7be41c40c6dc", "is_reserved": 0, "fusion_lat": 0.0}, {"type": "electric_scooter", "rental_uris": {"ios": "https://dc.lft.to/lastmile_qr_scan", "android": "https://dc.lft.to/lastmile_qr_scan"}, "lon": -77.03866966666666, "fusion_lon": 0.0, "is_disabled": 0, "lat": 38.912568, "bike_id": "703057fdc420291eac2059f46d0cfe32", "name": "703057fdc420291eac2059f46d0cfe32", "is_reserved": 0, "fusion_lat": 0.0}, {"type": "electric_scooter", "rental_uris": {"ios": "https://dc.lft.to/lastmile_qr_scan", "android": "https://dc.lft.to/lastmile_qr_scan"}, "lon": -77.04684766666666, "fusion_lon": 0.0, "is_disabled": 0, "lat": 38.89222933333333, "bike_id": "87ecdb30c27dafcecc28a53a13ce3e88", "name": "87ecdb30c27dafcecc28a53a13ce3e88", "is_reserved": 0, "fusion_lat": 0.0}, {"type": "electric_scooter", "rental_uris": {"ios": "https://dc.lft.to/lastmile_qr_scan", "android": "https://dc.lft.to/lastmile_qr_scan"}, "lon": -77.0362225, "fusion_lon": 0.0, "is_disabled": 0, "lat": 38.936841666666666, "bike_id": "b18fc1c115cd9ccc8428da099728c1f9", "name": "b18fc1c115cd9ccc8428da099728c1f9", "is_reserved": 0, "fusion_lat": 0.0}, {"type": "electric_scooter", "rental_uris": {"ios": "https://dc.lft.to/lastmile_qr_scan", "android": "https://dc.lft.to/lastmile_qr_scan"}, "lon": -77.02160516666666, "fusion_lon": 0.0, "is_disabled": 0, "lat": 38.92899583333333, "bike_id": "28194d039c5f7a815e6d62bb88793775", "name": "28194d039c5f7a815e6d62bb88793775", "is_reserved": 0, "fusion_lat": 0.0}, {"type": "electric_bike", "rental_uris": {"ios": "https://dc.lft.to/lastmile_qr_scan", "android": "https://dc.lft.to/lastmile_qr_scan"}, "lon": -77.1008575, "fusion_lon": 0.0, "is_disabled": 0, "lat": 38.959606666666666, "bike_id": "3e1936f085e61d262426ad9651d8168d", "name": "3e1936f085e61d262426ad9651d8168d", "is_reserved": 0, "fusion_lat": 0.0}, {"type": "electric_scooter", "rental_uris": {"ios": "https://dc.lft.to/lastmile_qr_scan", "android": "https://dc.lft.to/lastmile_qr_scan"}, "lon": -77.04253383333334, "fusion_lon": 0.0, "is_disabled": 0, "lat": 38.91695133333333, "bike_id": "44e2858f66d61f665c3363836ed87acf", "name": "44e2858f66d61f665c3363836ed87acf", "is_reserved": 0, "fusion_lat": 0.0}, {"type": "electric_scooter", "rental_uris": {"ios": "https://dc.lft.to/lastmile_qr_scan", "android": "https://dc.lft.to/lastmile_qr_scan"}, "lon": -77.01503933333333, "fusion_lon": 0.0, "is_disabled": 0, "lat": 38.94331283333333, "bike_id": "9d759fdb7c683f4781e1329485470223", "name": "9d759fdb7c683f4781e1329485470223", "is_reserved": 0, "fusion_lat": 0.0}, {"type": "electric_bike", "rental_uris": {"ios": "https://dc.lft.to/lastmile_qr_scan", "android": "https://dc.lft.to/lastmile_qr_scan"}, "lon": -76.9098135, "fusion_lon": 0.0, "is_disabled": 0, "lat": 38.85446683333333, "bike_id": "cc0cee14274edb00b1c14056e2ef37c5", "name": "cc0cee14274edb00b1c14056e2ef37c5", "is_reserved": 0, "fusion_lat": 0.0}, {"type": "electric_scooter", "rental_uris": {"ios": "https://dc.lft.to/lastmile_qr_scan", "android": "https://dc.lft.to/lastmile_qr_scan"}, "lon": -76.965351, "fusion_lon": 0.0, "is_disabled": 0, "lat": 38.8762795, "bike_id": "c019e7900b00d21d97a4ba53caf3766e", "name": "c019e7900b00d21d97a4ba53caf3766e", "is_reserved": 0, "fusion_lat": 0.0}, {"type": "electric_scooter", "rental_uris": {"ios": "https://dc.lft.to/lastmile_qr_scan", "android": "https://dc.lft.to/lastmile_qr_scan"}, "lon": -77.05232633333334, "fusion_lon": 0.0, "is_disabled": 0, "lat": 38.924683333333334, "bike_id": "9ea35f44e9f9d042995812137f07c5a1", "name": "9ea35f44e9f9d042995812137f07c5a1", "is_reserved": 0, "fusion_lat": 0.0}, {"type": "electric_scooter", "rental_uris": {"ios": "https://dc.lft.to/lastmile_qr_scan", "android": "https://dc.lft.to/lastmile_qr_scan"}, "lon": -77.045009, "fusion_lon": 0.0, "is_disabled": 0, "lat": 38.9192385, "bike_id": "2c30a0d6acef6539693379198aa4cede", "name": "2c30a0d6acef6539693379198aa4cede", "is_reserved": 0, "fusion_lat": 0.0}, {"type": "electric_scooter", "rental_uris": {"ios": "https://dc.lft.to/lastmile_qr_scan", "android": "https://dc.lft.to/lastmile_qr_scan"}, "lon": -77.028479, "fusion_lon": 0.0, "is_disabled": 0, "lat": 38.927615333333335, "bike_id": "a58081fcf9b3c7407202b48952d22c94", "name": "a58081fcf9b3c7407202b48952d22c94", "is_reserved": 0, "fusion_lat": 0.0}, {"type": "electric_scooter", "rental_uris": {"ios": "https://dc.lft.to/lastmile_qr_scan", "android": "https://dc.lft.to/lastmile_qr_scan"}, "lon": -77.04331616666667, "fusion_lon": 0.0, "is_disabled": 0, "lat": 38.89224433333333, "bike_id": "0437ca3226daea5c8f9674253eb9aa52", "name": "0437ca3226daea5c8f9674253eb9aa52", "is_reserved": 0, "fusion_lat": 0.0}, {"type": "electric_scooter", "rental_uris": {"ios": "https://dc.lft.to/lastmile_qr_scan", "android": "https://dc.lft.to/lastmile_qr_scan"}, "lon": -77.02363133333333, "fusion_lon": 0.0, "is_disabled": 0, "lat": 38.9307475, "bike_id": "28cd727faa781456e67adf9c019f1d6f", "name": "28cd727faa781456e67adf9c019f1d6f", "is_reserved": 0, "fusion_lat": 0.0}, {"type": "electric_scooter", "rental_uris": {"ios": "https://dc.lft.to/lastmile_qr_scan", "android": "https://dc.lft.to/lastmile_qr_scan"}, "lon": -77.00922216666666, "fusion_lon": 0.0, "is_disabled": 0, "lat": 38.8763625, "bike_id": "b83c32b9a9fa05136876f770b4f73780", "name": "b83c32b9a9fa05136876f770b4f73780", "is_reserved": 0, "fusion_lat": 0.0}, {"type": "electric_scooter", "rental_uris": {"ios": "https://dc.lft.to/lastmile_qr_scan", "android": "https://dc.lft.to/lastmile_qr_scan"}, "lon": -76.99856366666667, "fusion_lon": 0.0, "is_disabled": 0, "lat": 38.899988666666665, "bike_id": "07079f49d18ce5c1ed298dbc2eb5b5a2", "name": "07079f49d18ce5c1ed298dbc2eb5b5a2", "is_reserved": 0, "fusion_lat": 0.0}, {"type": "electric_scooter", "rental_uris": {"ios": "https://dc.lft.to/lastmile_qr_scan", "android": "https://dc.lft.to/lastmile_qr_scan"}, "lon": -76.99959366666667, "fusion_lon": 0.0, "is_disabled": 0, "lat": 38.901123166666665, "bike_id": "feb291817ebb116ebc9683068d7963c7", "name": "feb291817ebb116ebc9683068d7963c7", "is_reserved": 0, "fusion_lat": 0.0}, {"type": "electric_scooter", "rental_uris": {"ios": "https://dc.lft.to/lastmile_qr_scan", "android": "https://dc.lft.to/lastmile_qr_scan"}, "lon": -77.05126583333333, "fusion_lon": 0.0, "is_disabled": 0, "lat": 38.92365566666667, "bike_id": "3218c68a7edad4a439dc8d6ecfbcab3e", "name": "3218c68a7edad4a439dc8d6ecfbcab3e", "is_reserved": 0, "fusion_lat": 0.0}, {"type": "electric_scooter", "rental_uris": {"ios": "https://dc.lft.to/lastmile_qr_scan", "android": "https://dc.lft.to/lastmile_qr_scan"}, "lon": -77.02584333333333, "fusion_lon": 0.0, "is_disabled": 0, "lat": 38.918186166666665, "bike_id": "2cb606fea1672c3c1d949dfd9f6d20f8", "name": "2cb606fea1672c3c1d949dfd9f6d20f8", "is_reserved": 0, "fusion_lat": 0.0}, {"type": "electric_scooter", "rental_uris": {"ios": "https://dc.lft.to/lastmile_qr_scan", "android": "https://dc.lft.to/lastmile_qr_scan"}, "lon": -77.04384516666667, "fusion_lon": 0.0, "is_disabled": 0, "lat": 38.92101666666667, "bike_id": "3ac4233a8b4399a37418df5a1bcfaca2", "name": "3ac4233a8b4399a37418df5a1bcfaca2", "is_reserved": 0, "fusion_lat": 0.0}, {"type": "electric_bike", "rental_uris": {"ios": "https://dc.lft.to/lastmile_qr_scan", "android": "https://dc.lft.to/lastmile_qr_scan"}, "lon": -77.065709, "fusion_lon": 0.0, "is_disabled": 0, "lat": 38.86998033333333, "bike_id": "e693547358d01a916e399ef6bb6257a0", "name": "e693547358d01a916e399ef6bb6257a0", "is_reserved": 0, "fusion_lat": 0.0}, {"type": "electric_scooter", "rental_uris": {"ios": "https://dc.lft.to/lastmile_qr_scan", "android": "https://dc.lft.to/lastmile_qr_scan"}, "lon": -77.03192616666666, "fusion_lon": 0.0, "is_disabled": 0, "lat": 38.930688, "bike_id": "91970bf69d4991c41beaf79ff175e4d5", "name": "91970bf69d4991c41beaf79ff175e4d5", "is_reserved": 0, "fusion_lat": 0.0}, {"type": "electric_scooter", "rental_uris": {"ios": "https://dc.lft.to/lastmile_qr_scan", "android": "https://dc.lft.to/lastmile_qr_scan"}, "lon": -77.0318155, "fusion_lon": 0.0, "is_disabled": 0, "lat": 38.914268666666665, "bike_id": "cc14b6164d73d2a519604dbfe354a473", "name": "cc14b6164d73d2a519604dbfe354a473", "is_reserved": 0, "fusion_lat": 0.0}, {"type": "electric_scooter", "rental_uris": {"ios": "https://dc.lft.to/lastmile_qr_scan", "android": "https://dc.lft.to/lastmile_qr_scan"}, "lon": -77.01525033333333, "fusion_lon": 0.0, "is_disabled": 0, "lat": 38.88412133333333, "bike_id": "004a49c0a856a35e676ab7291444c589", "name": "004a49c0a856a35e676ab7291444c589", "is_reserved": 0, "fusion_lat": 0.0}, {"type": "electric_scooter", "rental_uris": {"ios": "https://dc.lft.to/lastmile_qr_scan", "android": "https://dc.lft.to/lastmile_qr_scan"}, "lon": -77.00463, "fusion_lon": 0.0, "is_disabled": 0, "lat": 38.925842333333335, "bike_id": "7c95dccc2311eead0426b06310b88b7f", "name": "7c95dccc2311eead0426b06310b88b7f", "is_reserved": 0, "fusion_lat": 0.0}, {"type": "electric_scooter", "rental_uris": {"ios": "https://dc.lft.to/lastmile_qr_scan", "android": "https://dc.lft.to/lastmile_qr_scan"}, "lon": -77.00931133333333, "fusion_lon": 0.0, "is_disabled": 0, "lat": 38.87623466666667, "bike_id": "9cb345f017495a1b2294e47647cf96fa", "name": "9cb345f017495a1b2294e47647cf96fa", "is_reserved": 0, "fusion_lat": 0.0}, {"type": "electric_scooter", "rental_uris": {"ios": "https://dc.lft.to/lastmile_qr_scan", "android": "https://dc.lft.to/lastmile_qr_scan"}, "lon": -77.02534266666666, "fusion_lon": 0.0, "is_disabled": 0, "lat": 38.91265416666667, "bike_id": "cdc3788829facd4037c984b5da21753f", "name": "cdc3788829facd4037c984b5da21753f", "is_reserved": 0, "fusion_lat": 0.0}, {"type": "electric_scooter", "rental_uris": {"ios": "https://dc.lft.to/lastmile_qr_scan", "android": "https://dc.lft.to/lastmile_qr_scan"}, "lon": -77.04027016666667, "fusion_lon": 0.0, "is_disabled": 0, "lat": 38.924453666666665, "bike_id": "70a1c41404037869c164ca7d4bf19f6b", "name": "70a1c41404037869c164ca7d4bf19f6b", "is_reserved": 0, "fusion_lat": 0.0}, {"type": "electric_scooter", "rental_uris": {"ios": "https://dc.lft.to/lastmile_qr_scan", "android": "https://dc.lft.to/lastmile_qr_scan"}, "lon": -77.01534783333334, "fusion_lon": 0.0, "is_disabled": 0, "lat": 38.8873755, "bike_id": "6f4f85894c667cd39144d31c47f87411", "name": "6f4f85894c667cd39144d31c47f87411", "is_reserved": 0, "fusion_lat": 0.0}, {"type": "electric_scooter", "rental_uris": {"ios": "https://dc.lft.to/lastmile_qr_scan", "android": "https://dc.lft.to/lastmile_qr_scan"}, "lon": -77.03641316666666, "fusion_lon": 0.0, "is_disabled": 0, "lat": 38.91779733333333, "bike_id": "cfaf5f9254df3ab8c57cd952b17c4a2f", "name": "cfaf5f9254df3ab8c57cd952b17c4a2f", "is_reserved": 0, "fusion_lat": 0.0}, {"type": "electric_scooter", "rental_uris": {"ios": "https://dc.lft.to/lastmile_qr_scan", "android": "https://dc.lft.to/lastmile_qr_scan"}, "lon": -77.043841, "fusion_lon": 0.0, "is_disabled": 0, "lat": 38.901611, "bike_id": "ab77c5b1a3362c57547df7830043d17a", "name": "ab77c5b1a3362c57547df7830043d17a", "is_reserved": 0, "fusion_lat": 0.0}, {"type": "electric_scooter", "rental_uris": {"ios": "https://dc.lft.to/lastmile_qr_scan", "android": "https://dc.lft.to/lastmile_qr_scan"}, "lon": -77.04883733333334, "fusion_lon": 0.0, "is_disabled": 0, "lat": 38.905332666666666, "bike_id": "3ead1cd9dd32991c64c3ecda413f55f5", "name": "3ead1cd9dd32991c64c3ecda413f55f5", "is_reserved": 0, "fusion_lat": 0.0}, {"type": "electric_scooter", "rental_uris": {"ios": "https://dc.lft.to/lastmile_qr_scan", "android": "https://dc.lft.to/lastmile_qr_scan"}, "lon": -77.03840083333333, "fusion_lon": 0.0, "is_disabled": 0, "lat": 38.91090533333333, "bike_id": "e0419ae465b828fe44b2d97476385fd1", "name": "e0419ae465b828fe44b2d97476385fd1", "is_reserved": 0, "fusion_lat": 0.0}, {"type": "electric_scooter", "rental_uris": {"ios": "https://dc.lft.to/lastmile_qr_scan", "android": "https://dc.lft.to/lastmile_qr_scan"}, "lon": -77.03855383333334, "fusion_lon": 0.0, "is_disabled": 0, "lat": 38.9123975, "bike_id": "687df8c0cb743eb3ac259278758ca472", "name": "687df8c0cb743eb3ac259278758ca472", "is_reserved": 0, "fusion_lat": 0.0}, {"type": "electric_scooter", "rental_uris": {"ios": "https://dc.lft.to/lastmile_qr_scan", "android": "https://dc.lft.to/lastmile_qr_scan"}, "lon": -77.02399466666667, "fusion_lon": 0.0, "is_disabled": 0, "lat": 38.95708616666667, "bike_id": "ce9bd278291eebd50c87efca5fe54739", "name": "ce9bd278291eebd50c87efca5fe54739", "is_reserved": 0, "fusion_lat": 0.0}, {"type": "electric_scooter", "rental_uris": {"ios": "https://dc.lft.to/lastmile_qr_scan", "android": "https://dc.lft.to/lastmile_qr_scan"}, "lon": -77.02834566666667, "fusion_lon": 0.0, "is_disabled": 0, "lat": 38.89945483333333, "bike_id": "fdff3ded4029e1010c394baa90bed6f8", "name": "fdff3ded4029e1010c394baa90bed6f8", "is_reserved": 0, "fusion_lat": 0.0}, {"type": "electric_scooter", "rental_uris": {"ios": "https://dc.lft.to/lastmile_qr_scan", "android": "https://dc.lft.to/lastmile_qr_scan"}, "lon": -76.9869145, "fusion_lon": 0.0, "is_disabled": 0, "lat": 38.866264666666666, "bike_id": "4b11a3ce9476cda0cbd1124c3adf1be8", "name": "4b11a3ce9476cda0cbd1124c3adf1be8", "is_reserved": 0, "fusion_lat": 0.0}, {"type": "electric_scooter", "rental_uris": {"ios": "https://dc.lft.to/lastmile_qr_scan", "android": "https://dc.lft.to/lastmile_qr_scan"}, "lon": -76.95411916666667, "fusion_lon": 0.0, "is_disabled": 0, "lat": 38.88999483333333, "bike_id": "84c8e6dff3bd34d728da0764ba1cbee7", "name": "84c8e6dff3bd34d728da0764ba1cbee7", "is_reserved": 0, "fusion_lat": 0.0}, {"type": "electric_scooter", "rental_uris": {"ios": "https://dc.lft.to/lastmile_qr_scan", "android": "https://dc.lft.to/lastmile_qr_scan"}, "lon": -77.0436645, "fusion_lon": 0.0, "is_disabled": 0, "lat": 38.905141666666665, "bike_id": "fc00e53c310f292049d8d67aacacbde7", "name": "fc00e53c310f292049d8d67aacacbde7", "is_reserved": 0, "fusion_lat": 0.0}, {"type": "electric_scooter", "rental_uris": {"ios": "https://dc.lft.to/lastmile_qr_scan", "android": "https://dc.lft.to/lastmile_qr_scan"}, "lon": -76.99513633333333, "fusion_lon": 0.0, "is_disabled": 0, "lat": 38.9266525, "bike_id": "f9adacdc404c84e8051884d00984b20b", "name": "f9adacdc404c84e8051884d00984b20b", "is_reserved": 0, "fusion_lat": 0.0}, {"type": "electric_scooter", "rental_uris": {"ios": "https://dc.lft.to/lastmile_qr_scan", "android": "https://dc.lft.to/lastmile_qr_scan"}, "lon": -77.0418775, "fusion_lon": 0.0, "is_disabled": 0, "lat": 38.9052465, "bike_id": "d07c7b7bbfdd8b132b46f07b9d0455ea", "name": "d07c7b7bbfdd8b132b46f07b9d0455ea", "is_reserved": 0, "fusion_lat": 0.0}, {"type": "electric_scooter", "rental_uris": {"ios": "https://dc.lft.to/lastmile_qr_scan", "android": "https://dc.lft.to/lastmile_qr_scan"}, "lon": -77.01066616666667, "fusion_lon": 0.0, "is_disabled": 0, "lat": 38.9073115, "bike_id": "6107055dc7d10e758f3241b3172a72c6", "name": "6107055dc7d10e758f3241b3172a72c6", "is_reserved": 0, "fusion_lat": 0.0}, {"type": "electric_scooter", "rental_uris": {"ios": "https://dc.lft.to/lastmile_qr_scan", "android": "https://dc.lft.to/lastmile_qr_scan"}, "lon": -77.0440325, "fusion_lon": 0.0, "is_disabled": 0, "lat": 38.934210666666665, "bike_id": "02ef6d294f38bee5838114ad5394a5b2", "name": "02ef6d294f38bee5838114ad5394a5b2", "is_reserved": 0, "fusion_lat": 0.0}, {"type": "electric_scooter", "rental_uris": {"ios": "https://dc.lft.to/lastmile_qr_scan", "android": "https://dc.lft.to/lastmile_qr_scan"}, "lon": -77.00364283333333, "fusion_lon": 0.0, "is_disabled": 0, "lat": 38.88260316666667, "bike_id": "45595223e409d235e26715edd48df6a8", "name": "45595223e409d235e26715edd48df6a8", "is_reserved": 0, "fusion_lat": 0.0}, {"type": "electric_scooter", "rental_uris": {"ios": "https://dc.lft.to/lastmile_qr_scan", "android": "https://dc.lft.to/lastmile_qr_scan"}, "lon": -77.04195733333333, "fusion_lon": 0.0, "is_disabled": 0, "lat": 38.905257666666664, "bike_id": "f102ae34e7f023d6e05e6ca084772a5b", "name": "f102ae34e7f023d6e05e6ca084772a5b", "is_reserved": 0, "fusion_lat": 0.0}, {"type": "electric_scooter", "rental_uris": {"ios": "https://dc.lft.to/lastmile_qr_scan", "android": "https://dc.lft.to/lastmile_qr_scan"}, "lon": -77.029908, "fusion_lon": 0.0, "is_disabled": 0, "lat": 38.93066916666667, "bike_id": "e66059e4c004a30e2658833dad9af998", "name": "e66059e4c004a30e2658833dad9af998", "is_reserved": 0, "fusion_lat": 0.0}, {"type": "electric_scooter", "rental_uris": {"ios": "https://dc.lft.to/lastmile_qr_scan", "android": "https://dc.lft.to/lastmile_qr_scan"}, "lon": -77.02720183333334, "fusion_lon": 0.0, "is_disabled": 0, "lat": 38.9518215, "bike_id": "5a1ae52a15614779817fef04451d8caf", "name": "5a1ae52a15614779817fef04451d8caf", "is_reserved": 0, "fusion_lat": 0.0}, {"type": "electric_scooter", "rental_uris": {"ios": "https://dc.lft.to/lastmile_qr_scan", "android": "https://dc.lft.to/lastmile_qr_scan"}, "lon": -76.98924766666667, "fusion_lon": 0.0, "is_disabled": 0, "lat": 38.84077816666667, "bike_id": "172bd9db15898415583aff107e34004c", "name": "172bd9db15898415583aff107e34004c", "is_reserved": 0, "fusion_lat": 0.0}, {"type": "electric_scooter", "rental_uris": {"ios": "https://dc.lft.to/lastmile_qr_scan", "android": "https://dc.lft.to/lastmile_qr_scan"}, "lon": -77.04327966666666, "fusion_lon": 0.0, "is_disabled": 0, "lat": 38.89224, "bike_id": "658b351cc4215377c5941509088d7987", "name": "658b351cc4215377c5941509088d7987", "is_reserved": 0, "fusion_lat": 0.0}, {"type": "electric_scooter", "rental_uris": {"ios": "https://dc.lft.to/lastmile_qr_scan", "android": "https://dc.lft.to/lastmile_qr_scan"}, "lon": -77.003858, "fusion_lon": 0.0, "is_disabled": 0, "lat": 38.9107585, "bike_id": "f4c3d3d9e4bf99901b34bd2bd45d903d", "name": "f4c3d3d9e4bf99901b34bd2bd45d903d", "is_reserved": 0, "fusion_lat": 0.0}, {"type": "electric_scooter", "rental_uris": {"ios": "https://dc.lft.to/lastmile_qr_scan", "android": "https://dc.lft.to/lastmile_qr_scan"}, "lon": -77.03724933333334, "fusion_lon": 0.0, "is_disabled": 0, "lat": 38.9170895, "bike_id": "26a6e0b43967c19f54200b50f72c9bf1", "name": "26a6e0b43967c19f54200b50f72c9bf1", "is_reserved": 0, "fusion_lat": 0.0}, {"type": "electric_scooter", "rental_uris": {"ios": "https://dc.lft.to/lastmile_qr_scan", "android": "https://dc.lft.to/lastmile_qr_scan"}, "lon": -77.02717083333333, "fusion_lon": 0.0, "is_disabled": 0, "lat": 38.907402166666664, "bike_id": "2e0e6372e103aa98cd96fd308787c27f", "name": "2e0e6372e103aa98cd96fd308787c27f", "is_reserved": 0, "fusion_lat": 0.0}, {"type": "electric_scooter", "rental_uris": {"ios": "https://dc.lft.to/lastmile_qr_scan", "android": "https://dc.lft.to/lastmile_qr_scan"}, "lon": -77.02732116666667, "fusion_lon": 0.0, "is_disabled": 0, "lat": 38.897287, "bike_id": "cd27170db32cf0ce9d99919fe02c8944", "name": "cd27170db32cf0ce9d99919fe02c8944", "is_reserved": 0, "fusion_lat": 0.0}, {"type": "electric_scooter", "rental_uris": {"ios": "https://dc.lft.to/lastmile_qr_scan", "android": "https://dc.lft.to/lastmile_qr_scan"}, "lon": -77.02803983333334, "fusion_lon": 0.0, "is_disabled": 0, "lat": 38.8923125, "bike_id": "11c691d487bb6954b566cf1d3af8e377", "name": "11c691d487bb6954b566cf1d3af8e377", "is_reserved": 0, "fusion_lat": 0.0}, {"type": "electric_scooter", "rental_uris": {"ios": "https://dc.lft.to/lastmile_qr_scan", "android": "https://dc.lft.to/lastmile_qr_scan"}, "lon": -77.02228766666667, "fusion_lon": 0.0, "is_disabled": 0, "lat": 38.91269916666667, "bike_id": "93895f3688c37de7686e76540ff2c6ac", "name": "93895f3688c37de7686e76540ff2c6ac", "is_reserved": 0, "fusion_lat": 0.0}, {"type": "electric_scooter", "rental_uris": {"ios": "https://dc.lft.to/lastmile_qr_scan", "android": "https://dc.lft.to/lastmile_qr_scan"}, "lon": -77.03215566666667, "fusion_lon": 0.0, "is_disabled": 0, "lat": 38.892235, "bike_id": "1ac61fa2a3fc4ad444aca30f4b0937de", "name": "1ac61fa2a3fc4ad444aca30f4b0937de", "is_reserved": 0, "fusion_lat": 0.0}, {"type": "electric_scooter", "rental_uris": {"ios": "https://dc.lft.to/lastmile_qr_scan", "android": "https://dc.lft.to/lastmile_qr_scan"}, "lon": -77.0119805, "fusion_lon": 0.0, "is_disabled": 0, "lat": 38.90002533333333, "bike_id": "4c7dad8d3898b6f2c94954b05c7ba081", "name": "4c7dad8d3898b6f2c94954b05c7ba081", "is_reserved": 0, "fusion_lat": 0.0}, {"type": "electric_scooter", "rental_uris": {"ios": "https://dc.lft.to/lastmile_qr_scan", "android": "https://dc.lft.to/lastmile_qr_scan"}, "lon": -77.04199733333333, "fusion_lon": 0.0, "is_disabled": 0, "lat": 38.90667583333333, "bike_id": "8a81e9727f96acc4f1a465ef8fafefdc", "name": "8a81e9727f96acc4f1a465ef8fafefdc", "is_reserved": 0, "fusion_lat": 0.0}, {"type": "electric_scooter", "rental_uris": {"ios": "https://dc.lft.to/lastmile_qr_scan", "android": "https://dc.lft.to/lastmile_qr_scan"}, "lon": -77.027929, "fusion_lon": 0.0, "is_disabled": 0, "lat": 38.930819166666666, "bike_id": "18f9f8352568807d17de0e3c59911669", "name": "18f9f8352568807d17de0e3c59911669", "is_reserved": 0, "fusion_lat": 0.0}, {"type": "electric_scooter", "rental_uris": {"ios": "https://dc.lft.to/lastmile_qr_scan", "android": "https://dc.lft.to/lastmile_qr_scan"}, "lon": -77.0346725, "fusion_lon": 0.0, "is_disabled": 0, "lat": 38.90961316666667, "bike_id": "9303b1f4bd60750ac8fcad1e81892c3f", "name": "9303b1f4bd60750ac8fcad1e81892c3f", "is_reserved": 0, "fusion_lat": 0.0}, {"type": "electric_bike", "rental_uris": {"ios": "https://dc.lft.to/lastmile_qr_scan", "android": "https://dc.lft.to/lastmile_qr_scan"}, "lon": -76.92499233333334, "fusion_lon": 0.0, "is_disabled": 0, "lat": 38.99996816666667, "bike_id": "cd01df68118eda2a4d71d2e3cd4cba01", "name": "cd01df68118eda2a4d71d2e3cd4cba01", "is_reserved": 0, "fusion_lat": 0.0}, {"type": "electric_scooter", "rental_uris": {"ios": "https://dc.lft.to/lastmile_qr_scan", "android": "https://dc.lft.to/lastmile_qr_scan"}, "lon": -77.03177716666667, "fusion_lon": 0.0, "is_disabled": 0, "lat": 38.9182125, "bike_id": "cfde01570342d91dfd5a4a4743122471", "name": "cfde01570342d91dfd5a4a4743122471", "is_reserved": 0, "fusion_lat": 0.0}, {"type": "electric_scooter", "rental_uris": {"ios": "https://dc.lft.to/lastmile_qr_scan", "android": "https://dc.lft.to/lastmile_qr_scan"}, "lon": -77.041786, "fusion_lon": 0.0, "is_disabled": 0, "lat": 38.918381, "bike_id": "9323f5299155bb04c1b067d197990934", "name": "9323f5299155bb04c1b067d197990934", "is_reserved": 0, "fusion_lat": 0.0}, {"type": "electric_scooter", "rental_uris": {"ios": "https://dc.lft.to/lastmile_qr_scan", "android": "https://dc.lft.to/lastmile_qr_scan"}, "lon": -77.02033716666666, "fusion_lon": 0.0, "is_disabled": 0, "lat": 38.931879, "bike_id": "60229ee041adb86b0cb94b1a76bdba42", "name": "60229ee041adb86b0cb94b1a76bdba42", "is_reserved": 0, "fusion_lat": 0.0}, {"type": "electric_scooter", "rental_uris": {"ios": "https://dc.lft.to/lastmile_qr_scan", "android": "https://dc.lft.to/lastmile_qr_scan"}, "lon": -77.05947416666666, "fusion_lon": 0.0, "is_disabled": 0, "lat": 38.90941083333333, "bike_id": "303c76d0e9ee093df5f599fba24beaf3", "name": "303c76d0e9ee093df5f599fba24beaf3", "is_reserved": 0, "fusion_lat": 0.0}, {"type": "electric_scooter", "rental_uris": {"ios": "https://dc.lft.to/lastmile_qr_scan", "android": "https://dc.lft.to/lastmile_qr_scan"}, "lon": -77.08028333333333, "fusion_lon": 0.0, "is_disabled": 0, "lat": 38.909220833333336, "bike_id": "ed1413778e74ca9914ddd75b7cc4ed89", "name": "ed1413778e74ca9914ddd75b7cc4ed89", "is_reserved": 0, "fusion_lat": 0.0}, {"type": "electric_scooter", "rental_uris": {"ios": "https://dc.lft.to/lastmile_qr_scan", "android": "https://dc.lft.to/lastmile_qr_scan"}, "lon": -77.04468983333334, "fusion_lon": 0.0, "is_disabled": 0, "lat": 38.919245333333336, "bike_id": "6fbb59da402e14d88e1706dd4c02f76d", "name": "6fbb59da402e14d88e1706dd4c02f76d", "is_reserved": 0, "fusion_lat": 0.0}, {"type": "electric_scooter", "rental_uris": {"ios": "https://dc.lft.to/lastmile_qr_scan", "android": "https://dc.lft.to/lastmile_qr_scan"}, "lon": -76.976652, "fusion_lon": 0.0, "is_disabled": 0, "lat": 38.8674645, "bike_id": "272d9a5fcc97209ab119dd48ea98ee32", "name": "272d9a5fcc97209ab119dd48ea98ee32", "is_reserved": 0, "fusion_lat": 0.0}, {"type": "electric_scooter", "rental_uris": {"ios": "https://dc.lft.to/lastmile_qr_scan", "android": "https://dc.lft.to/lastmile_qr_scan"}, "lon": -77.01845166666666, "fusion_lon": 0.0, "is_disabled": 0, "lat": 38.946317, "bike_id": "64c45be63d6b12cc3f6ed742df82b6ac", "name": "64c45be63d6b12cc3f6ed742df82b6ac", "is_reserved": 0, "fusion_lat": 0.0}, {"type": "electric_scooter", "rental_uris": {"ios": "https://dc.lft.to/lastmile_qr_scan", "android": "https://dc.lft.to/lastmile_qr_scan"}, "lon": -77.02591466666667, "fusion_lon": 0.0, "is_disabled": 0, "lat": 38.904017, "bike_id": "455cce5a769e73c394487de47a5841b8", "name": "455cce5a769e73c394487de47a5841b8", "is_reserved": 0, "fusion_lat": 0.0}, {"type": "electric_scooter", "rental_uris": {"ios": "https://dc.lft.to/lastmile_qr_scan", "android": "https://dc.lft.to/lastmile_qr_scan"}, "lon": -77.036426, "fusion_lon": 0.0, "is_disabled": 0, "lat": 38.924560166666666, "bike_id": "66dcccf0c8b1f1fca83e61b4408a3773", "name": "66dcccf0c8b1f1fca83e61b4408a3773", "is_reserved": 0, "fusion_lat": 0.0}, {"type": "electric_scooter", "rental_uris": {"ios": "https://dc.lft.to/lastmile_qr_scan", "android": "https://dc.lft.to/lastmile_qr_scan"}, "lon": -77.02765733333334, "fusion_lon": 0.0, "is_disabled": 0, "lat": 38.907345, "bike_id": "d9ced7d45920076ca9172142e0efc90d", "name": "d9ced7d45920076ca9172142e0efc90d", "is_reserved": 0, "fusion_lat": 0.0}, {"type": "electric_scooter", "rental_uris": {"ios": "https://dc.lft.to/lastmile_qr_scan", "android": "https://dc.lft.to/lastmile_qr_scan"}, "lon": -77.03136, "fusion_lon": 0.0, "is_disabled": 0, "lat": 38.892289, "bike_id": "3ee76376671b3d4252b70956030b2c82", "name": "3ee76376671b3d4252b70956030b2c82", "is_reserved": 0, "fusion_lat": 0.0}, {"type": "electric_scooter", "rental_uris": {"ios": "https://dc.lft.to/lastmile_qr_scan", "android": "https://dc.lft.to/lastmile_qr_scan"}, "lon": -77.02766833333334, "fusion_lon": 0.0, "is_disabled": 0, "lat": 38.90724016666667, "bike_id": "9cfe8fb03b8a273c2673662726b02354", "name": "9cfe8fb03b8a273c2673662726b02354", "is_reserved": 0, "fusion_lat": 0.0}, {"type": "electric_bike", "rental_uris": {"ios": "https://dc.lft.to/lastmile_qr_scan", "android": "https://dc.lft.to/lastmile_qr_scan"}, "lon": -77.118502, "fusion_lon": 0.0, "is_disabled": 0, "lat": 38.8773245, "bike_id": "d047dde6d8c5e9eaec3a9fcf9687f2d3", "name": "d047dde6d8c5e9eaec3a9fcf9687f2d3", "is_reserved": 0, "fusion_lat": 0.0}, {"type": "electric_bike", "rental_uris": {"ios": "https://dc.lft.to/lastmile_qr_scan", "android": "https://dc.lft.to/lastmile_qr_scan"}, "lon": -76.93546066666667, "fusion_lon": 0.0, "is_disabled": 0, "lat": 38.95187416666667, "bike_id": "666cc0b7b6807a68bb5423019fa221d3", "name": "666cc0b7b6807a68bb5423019fa221d3", "is_reserved": 0, "fusion_lat": 0.0}, {"type": "electric_scooter", "rental_uris": {"ios": "https://dc.lft.to/lastmile_qr_scan", "android": "https://dc.lft.to/lastmile_qr_scan"}, "lon": -77.029553, "fusion_lon": 0.0, "is_disabled": 0, "lat": 38.922495833333336, "bike_id": "07a96923b222e4400dd834420c2eb992", "name": "07a96923b222e4400dd834420c2eb992", "is_reserved": 0, "fusion_lat": 0.0}, {"type": "electric_scooter", "rental_uris": {"ios": "https://dc.lft.to/lastmile_qr_scan", "android": "https://dc.lft.to/lastmile_qr_scan"}, "lon": -77.03379383333333, "fusion_lon": 0.0, "is_disabled": 0, "lat": 38.90978483333333, "bike_id": "df04f2f936de4ad3ed8bb0ddb76c9052", "name": "df04f2f936de4ad3ed8bb0ddb76c9052", "is_reserved": 0, "fusion_lat": 0.0}, {"type": "electric_scooter", "rental_uris": {"ios": "https://dc.lft.to/lastmile_qr_scan", "android": "https://dc.lft.to/lastmile_qr_scan"}, "lon": -77.0345945, "fusion_lon": 0.0, "is_disabled": 0, "lat": 38.9374965, "bike_id": "91f6b9a8360b44ead1f40d34bc92c20f", "name": "91f6b9a8360b44ead1f40d34bc92c20f", "is_reserved": 0, "fusion_lat": 0.0}, {"type": "electric_scooter", "rental_uris": {"ios": "https://dc.lft.to/lastmile_qr_scan", "android": "https://dc.lft.to/lastmile_qr_scan"}, "lon": -77.029656, "fusion_lon": 0.0, "is_disabled": 0, "lat": 38.92333216666667, "bike_id": "3b74d308da6fdddabcefa35b8b34f6fe", "name": "3b74d308da6fdddabcefa35b8b34f6fe", "is_reserved": 0, "fusion_lat": 0.0}, {"type": "electric_scooter", "rental_uris": {"ios": "https://dc.lft.to/lastmile_qr_scan", "android": "https://dc.lft.to/lastmile_qr_scan"}, "lon": -77.039346, "fusion_lon": 0.0, "is_disabled": 0, "lat": 38.917039, "bike_id": "cff16d0f31ed5b8e1d9ea502dec42901", "name": "cff16d0f31ed5b8e1d9ea502dec42901", "is_reserved": 0, "fusion_lat": 0.0}, {"type": "electric_scooter", "rental_uris": {"ios": "https://dc.lft.to/lastmile_qr_scan", "android": "https://dc.lft.to/lastmile_qr_scan"}, "lon": -77.01759733333333, "fusion_lon": 0.0, "is_disabled": 0, "lat": 38.876672666666664, "bike_id": "020ec57c81c7967792bf05c75639c700", "name": "020ec57c81c7967792bf05c75639c700", "is_reserved": 0, "fusion_lat": 0.0}, {"type": "electric_scooter", "rental_uris": {"ios": "https://dc.lft.to/lastmile_qr_scan", "android": "https://dc.lft.to/lastmile_qr_scan"}, "lon": -77.02429616666667, "fusion_lon": 0.0, "is_disabled": 0, "lat": 38.918504666666664, "bike_id": "10965ac86319fb89381a36e1d773d9f1", "name": "10965ac86319fb89381a36e1d773d9f1", "is_reserved": 0, "fusion_lat": 0.0}, {"type": "electric_scooter", "rental_uris": {"ios": "https://dc.lft.to/lastmile_qr_scan", "android": "https://dc.lft.to/lastmile_qr_scan"}, "lon": -77.0384525, "fusion_lon": 0.0, "is_disabled": 0, "lat": 38.91665483333333, "bike_id": "8f37c4f64db184828b696592ce998b14", "name": "8f37c4f64db184828b696592ce998b14", "is_reserved": 0, "fusion_lat": 0.0}, {"type": "electric_scooter", "rental_uris": {"ios": "https://dc.lft.to/lastmile_qr_scan", "android": "https://dc.lft.to/lastmile_qr_scan"}, "lon": -77.03157666666667, "fusion_lon": 0.0, "is_disabled": 0, "lat": 38.915665, "bike_id": "92deed5c62d544caca615ce2c54e6194", "name": "92deed5c62d544caca615ce2c54e6194", "is_reserved": 0, "fusion_lat": 0.0}, {"type": "electric_scooter", "rental_uris": {"ios": "https://dc.lft.to/lastmile_qr_scan", "android": "https://dc.lft.to/lastmile_qr_scan"}, "lon": -77.03479816666666, "fusion_lon": 0.0, "is_disabled": 0, "lat": 38.9247755, "bike_id": "abd711769b24686f615e9ab63226a499", "name": "abd711769b24686f615e9ab63226a499", "is_reserved": 0, "fusion_lat": 0.0}, {"type": "electric_scooter", "rental_uris": {"ios": "https://dc.lft.to/lastmile_qr_scan", "android": "https://dc.lft.to/lastmile_qr_scan"}, "lon": -77.04359633333333, "fusion_lon": 0.0, "is_disabled": 0, "lat": 38.920649, "bike_id": "ffb5cb68cb62a44f5b1f299aef4fb6eb", "name": "ffb5cb68cb62a44f5b1f299aef4fb6eb", "is_reserved": 0, "fusion_lat": 0.0}, {"type": "electric_scooter", "rental_uris": {"ios": "https://dc.lft.to/lastmile_qr_scan", "android": "https://dc.lft.to/lastmile_qr_scan"},