{"data": {"bikes": [{"rental_uris": {"android": "https://dc.lft.to/lastmile_qr_scan", "ios": "https://dc.lft.to/lastmile_qr_scan"}, "type": "electric_scooter", "lon": -77.02427, "name": "d416e430143baa6cbb05f7836559f5d3", "bike_id": "d416e430143baa6cbb05f7836559f5d3", "fusion_lat": 0.0, "is_reserved": 0, "lat": 38.89219466666667, "fusion_lon": 0.0, "is_disabled": 0}, {"rental_uris": {"android": "https://dc.lft.to/lastmile_qr_scan", "ios": "https://dc.lft.to/lastmile_qr_scan"}, "type": "electric_scooter", "lon": -77.0364495, "name": "c9e0b0e6bf23e9435057a7219eb0c34c", "bike_id": "c9e0b0e6bf23e9435057a7219eb0c34c", "fusion_lat": 0.0, "is_reserved": 0, "lat": 38.913177166666664, "fusion_lon": 0.0, "is_disabled": 0}, {"rental_uris": {"android": "https://dc.lft.to/lastmile_qr_scan", "ios": "https://dc.lft.to/lastmile_qr_scan"}, "type": "electric_scooter", "lon": -76.986978, "name": "518366419536d7e3c23dbfee3d02fc5a", "bike_id": "518366419536d7e3c23dbfee3d02fc5a", "fusion_lat": 0.0, "is_reserved": 0, "lat": 38.90203533333333, "fusion_lon": 0.0, "is_disabled": 0}, {"rental_uris": {"android": "https://dc.lft.to/lastmile_qr_scan", "ios": "https://dc.lft.to/lastmile_qr_scan"}, "type": "electric_scooter", "lon": -76.98501416666667, "name": "c2e258b595aaef0bb93523d936e9d717", "bike_id": "c2e258b595aaef0bb93523d936e9d717", "fusion_lat": 0.0, "is_reserved": 0, "lat": 38.880838833333335, "fusion_lon": 0.0, "is_disabled": 0}, {"rental_uris": {"android": "https://dc.lft.to/lastmile_qr_scan", "ios": "https://dc.lft.to/lastmile_qr_scan"}, "type": "electric_bike", "lon": -77.17800633333333, "name": "307f265890222ff98e5cbcde31787c13", "bike_id": "307f265890222ff98e5cbcde31787c13", "fusion_lat": 0.0, "is_reserved": 0, "lat": 39.088432833333336, "fusion_lon": 0.0, "is_disabled": 0}, {"rental_uris": {"android": "https://dc.lft.to/lastmile_qr_scan", "ios": "https://dc.lft.to/lastmile_qr_scan"}, "type": "electric_scooter", "lon": -76.99456166666667, "name": "6e7c96986cd43067a7020b0aa9bb588d", "bike_id": "6e7c96986cd43067a7020b0aa9bb588d", "fusion_lat": 0.0, "is_reserved": 0, "lat": 38.88605116666667, "fusion_lon": 0.0, "is_disabled": 0}, {"rental_uris": {"android": "https://dc.lft.to/lastmile_qr_scan", "ios": "https://dc.lft.to/lastmile_qr_scan"}, "type": "electric_scooter", "lon": -77.02557733333333, "name": "e6885ed1640be05cba551a62a85c5fe8", "bike_id": "e6885ed1640be05cba551a62a85c5fe8", "fusion_lat": 0.0, "is_reserved": 0, "lat": 38.94162383333333, "fusion_lon": 0.0, "is_disabled": 0}, {"rental_uris": {"android": "https://dc.lft.to/lastmile_qr_scan", "ios": "https://dc.lft.to/lastmile_qr_scan"}, "type": "electric_scooter", "lon": -76.98899716666666, "name": "caeef155ddf0adfaaf540678586dc63d", "bike_id": "caeef155ddf0adfaaf540678586dc63d", "fusion_lat": 0.0, "is_reserved": 0, "lat": 38.8667595, "fusion_lon": 0.0, "is_disabled": 0}, {"rental_uris": {"android": "https://dc.lft.to/lastmile_qr_scan", "ios": "https://dc.lft.to/lastmile_qr_scan"}, "type": "electric_scooter", "lon": -76.98757983333333, "name": "e1ed1131578a7a3a537879dafe50be97", "bike_id": "e1ed1131578a7a3a537879dafe50be97", "fusion_lat": 0.0, "is_reserved": 0, "lat": 38.844576, "fusion_lon": 0.0, "is_disabled": 0}, {"rental_uris": {"android": "https://dc.lft.to/lastmile_qr_scan", "ios": "https://dc.lft.to/lastmile_qr_scan"}, "type": "electric_bike", "lon": -77.02629383333333, "name": "f2dbebceba36d20a7b1180a101da4e0e", "bike_id": "f2dbebceba36d20a7b1180a101da4e0e", "fusion_lat": 0.0, "is_reserved": 0, "lat": 38.962141833333334, "fusion_lon": 0.0, "is_disabled": 0}, {"rental_uris": {"android": "https://dc.lft.to/lastmile_qr_scan", "ios": "https://dc.lft.to/lastmile_qr_scan"}, "type": "electric_scooter", "lon": -77.02798833333334, "name": "09198bfb4c3ca281e5aa076ab5eccc30", "bike_id": "09198bfb4c3ca281e5aa076ab5eccc30", "fusion_lat": 0.0, "is_reserved": 0, "lat": 38.96137083333333, "fusion_lon": 0.0, "is_disabled": 0}, {"rental_uris": {"android": "https://dc.lft.to/lastmile_qr_scan", "ios": "https://dc.lft.to/lastmile_qr_scan"}, "type": "electric_scooter", "lon": -77.03758783333333, "name": "419dc3b44af8213fa8098e50e5bcd26f", "bike_id": "419dc3b44af8213fa8098e50e5bcd26f", "fusion_lat": 0.0, "is_reserved": 0, "lat": 38.89296983333333, "fusion_lon": 0.0, "is_disabled": 0}, {"rental_uris": {"android": "https://dc.lft.to/lastmile_qr_scan", "ios": "https://dc.lft.to/lastmile_qr_scan"}, "type": "electric_scooter", "lon": -77.037465, "name": "1bf2377c29d608f7d511ef38e0adb344", "bike_id": "1bf2377c29d608f7d511ef38e0adb344", "fusion_lat": 0.0, "is_reserved": 0, "lat": 38.916971333333336, "fusion_lon": 0.0, "is_disabled": 0}, {"rental_uris": {"android": "https://dc.lft.to/lastmile_qr_scan", "ios": "https://dc.lft.to/lastmile_qr_scan"}, "type": "electric_scooter", "lon": -77.020379, "name": "03d33d165a86d5e46525be281fc37cba", "bike_id": "03d33d165a86d5e46525be281fc37cba", "fusion_lat": 0.0, "is_reserved": 0, "lat": 38.892711166666665, "fusion_lon": 0.0, "is_disabled": 0}, {"rental_uris": {"android": "https://dc.lft.to/lastmile_qr_scan", "ios": "https://dc.lft.to/lastmile_qr_scan"}, "type": "electric_scooter", "lon": -77.065352, "name": "7446e43443e2659f1b03a91837fb8ded", "bike_id": "7446e43443e2659f1b03a91837fb8ded", "fusion_lat": 0.0, "is_reserved": 0, "lat": 38.95067016666667, "fusion_lon": 0.0, "is_disabled": 0}, {"rental_uris": {"android": "https://dc.lft.to/lastmile_qr_scan", "ios": "https://dc.lft.to/lastmile_qr_scan"}, "type": "electric_bike", "lon": -77.08537483333333, "name": "63349bb7ebd6a453b5447d00465c78cc", "bike_id": "63349bb7ebd6a453b5447d00465c78cc", "fusion_lat": 0.0, "is_reserved": 0, "lat": 38.85620016666667, "fusion_lon": 0.0, "is_disabled": 0}, {"rental_uris": {"android": "https://dc.lft.to/lastmile_qr_scan", "ios": "https://dc.lft.to/lastmile_qr_scan"}, "type": "electric_scooter", "lon": -77.01808333333334, "name": "6da45c306f4b3d96f74b799a0a74db2b", "bike_id": "6da45c306f4b3d96f74b799a0a74db2b", "fusion_lat": 0.0, "is_reserved": 0, "lat": 38.9199395, "fusion_lon": 0.0, "is_disabled": 0}, {"rental_uris": {"android": "https://dc.lft.to/lastmile_qr_scan", "ios": "https://dc.lft.to/lastmile_qr_scan"}, "type": "electric_scooter", "lon": -77.007416, "name": "983ce619eaf28d02b5639bebcb5380f9", "bike_id": "983ce619eaf28d02b5639bebcb5380f9", "fusion_lat": 0.0, "is_reserved": 0, "lat": 38.95522783333333, "fusion_lon": 0.0, "is_disabled": 0}, {"rental_uris": {"android": "https://dc.lft.to/lastmile_qr_scan", "ios": "https://dc.lft.to/lastmile_qr_scan"}, "type": "electric_scooter", "lon": -77.020073, "name": "f161169faba681796f777f1fc83bc63c", "bike_id": "f161169faba681796f777f1fc83bc63c", "fusion_lat": 0.0, "is_reserved": 0, "lat": 38.924187333333336, "fusion_lon": 0.0, "is_disabled": 0}, {"rental_uris": {"android": "https://dc.lft.to/lastmile_qr_scan", "ios": "https://dc.lft.to/lastmile_qr_scan"}, "type": "electric_scooter", "lon": -77.009673, "name": "d61e5215a1a406546159f2cfb2e1d14f", "bike_id": "d61e5215a1a406546159f2cfb2e1d14f", "fusion_lat": 0.0, "is_reserved": 0, "lat": 38.881278, "fusion_lon": 0.0, "is_disabled": 0}, {"rental_uris": {"android": "https://dc.lft.to/lastmile_qr_scan", "ios": "https://dc.lft.to/lastmile_qr_scan"}, "type": "electric_scooter", "lon": -77.01846066666667, "name": "5f4075c07d7920ee928595b4a26e2ea0", "bike_id": "5f4075c07d7920ee928595b4a26e2ea0", "fusion_lat": 0.0, "is_reserved": 0, "lat": 38.94990816666667, "fusion_lon": 0.0, "is_disabled": 0}, {"rental_uris": {"android": "https://dc.lft.to/lastmile_qr_scan", "ios": "https://dc.lft.to/lastmile_qr_scan"}, "type": "electric_scooter", "lon": -77.0334195, "name": "603959202fe507c69a8f9b6f7bff571b", "bike_id": "603959202fe507c69a8f9b6f7bff571b", "fusion_lat": 0.0, "is_reserved": 0, "lat": 38.90265616666667, "fusion_lon": 0.0, "is_disabled": 0}, {"rental_uris": {"android": "https://dc.lft.to/lastmile_qr_scan", "ios": "https://dc.lft.to/lastmile_qr_scan"}, "type": "electric_scooter", "lon": -77.0326325, "name": "19da18463deb938cc7e1413b957090ee", "bike_id": "19da18463deb938cc7e1413b957090ee", "fusion_lat": 0.0, "is_reserved": 0, "lat": 38.935212166666666, "fusion_lon": 0.0, "is_disabled": 0}, {"rental_uris": {"android": "https://dc.lft.to/lastmile_qr_scan", "ios": "https://dc.lft.to/lastmile_qr_scan"}, "type": "electric_scooter", "lon": -77.04366016666667, "name": "3e078e8e258e8fc7d5fbc3ce353e6631", "bike_id": "3e078e8e258e8fc7d5fbc3ce353e6631", "fusion_lat": 0.0, "is_reserved": 0, "lat": 38.902606166666665, "fusion_lon": 0.0, "is_disabled": 0}, {"rental_uris": {"android": "https://dc.lft.to/lastmile_qr_scan", "ios": "https://dc.lft.to/lastmile_qr_scan"}, "type": "electric_scooter", "lon": -76.9906775, "name": "192f58a883901450d553b31715f495d6", "bike_id": "192f58a883901450d553b31715f495d6", "fusion_lat": 0.0, "is_reserved": 0, "lat": 38.929414666666666, "fusion_lon": 0.0, "is_disabled": 0}, {"rental_uris": {"android": "https://dc.lft.to/lastmile_qr_scan", "ios": "https://dc.lft.to/lastmile_qr_scan"}, "type": "electric_scooter", "lon": -77.028006, "name": "7bd881d25994f3158010331883daea48", "bike_id": "7bd881d25994f3158010331883daea48", "fusion_lat": 0.0, "is_reserved": 0, "lat": 38.961367333333335, "fusion_lon": 0.0, "is_disabled": 0}, {"rental_uris": {"android": "https://dc.lft.to/lastmile_qr_scan", "ios": "https://dc.lft.to/lastmile_qr_scan"}, "type": "electric_scooter", "lon": -77.036983, "name": "a90286428154fc4908927120055c5372", "bike_id": "a90286428154fc4908927120055c5372", "fusion_lat": 0.0, "is_reserved": 0, "lat": 38.926444833333335, "fusion_lon": 0.0, "is_disabled": 0}, {"rental_uris": {"android": "https://dc.lft.to/lastmile_qr_scan", "ios": "https://dc.lft.to/lastmile_qr_scan"}, "type": "electric_scooter", "lon": -77.06778566666667, "name": "0faa26feb18c44fcb816c1669b2c353d", "bike_id": "0faa26feb18c44fcb816c1669b2c353d", "fusion_lat": 0.0, "is_reserved": 0, "lat": 38.9520905, "fusion_lon": 0.0, "is_disabled": 0}, {"rental_uris": {"android": "https://dc.lft.to/lastmile_qr_scan", "ios": "https://dc.lft.to/lastmile_qr_scan"}, "type": "electric_scooter", "lon": -76.99002416666667, "name": "060238888aa01003217a34226f895efe", "bike_id": "060238888aa01003217a34226f895efe", "fusion_lat": 0.0, "is_reserved": 0, "lat": 38.865060666666665, "fusion_lon": 0.0, "is_disabled": 0}, {"rental_uris": {"android": "https://dc.lft.to/lastmile_qr_scan", "ios": "https://dc.lft.to/lastmile_qr_scan"}, "type": "electric_scooter", "lon": -77.01130266666667, "name": "04fdadb6616fcd03e3aa0d6aa37173da", "bike_id": "04fdadb6616fcd03e3aa0d6aa37173da", "fusion_lat": 0.0, "is_reserved": 0, "lat": 38.90728383333333, "fusion_lon": 0.0, "is_disabled": 0}, {"rental_uris": {"android": "https://dc.lft.to/lastmile_qr_scan", "ios": "https://dc.lft.to/lastmile_qr_scan"}, "type": "electric_scooter", "lon": -77.02217033333334, "name": "78d8ca62d2d84054586ef569841c2eb7", "bike_id": "78d8ca62d2d84054586ef569841c2eb7", "fusion_lat": 0.0, "is_reserved": 0, "lat": 38.90956, "fusion_lon": 0.0, "is_disabled": 0}, {"rental_uris": {"android": "https://dc.lft.to/lastmile_qr_scan", "ios": "https://dc.lft.to/lastmile_qr_scan"}, "type": "electric_bike", "lon": -76.99495466666667, "name": "71d433cba2874210f7b01a2c13dee50f", "bike_id": "71d433cba2874210f7b01a2c13dee50f", "fusion_lat": 0.0, "is_reserved": 0, "lat": 38.92574233333333, "fusion_lon": 0.0, "is_disabled": 0}, {"rental_uris": {"android": "https://dc.lft.to/lastmile_qr_scan", "ios": "https://dc.lft.to/lastmile_qr_scan"}, "type": "electric_scooter", "lon": -77.05145166666667, "name": "7f4e18864fb94ab26bd8d08476700863", "bike_id": "7f4e18864fb94ab26bd8d08476700863", "fusion_lat": 0.0, "is_reserved": 0, "lat": 38.9079885, "fusion_lon": 0.0, "is_disabled": 0}, {"rental_uris": {"android": "https://dc.lft.to/lastmile_qr_scan", "ios": "https://dc.lft.to/lastmile_qr_scan"}, "type": "electric_scooter", "lon": -77.02312116666667, "name": "a1552aedfc40b41f7e47235e191cebf9", "bike_id": "a1552aedfc40b41f7e47235e191cebf9", "fusion_lat": 0.0, "is_reserved": 0, "lat": 38.91790533333333, "fusion_lon": 0.0, "is_disabled": 0}, {"rental_uris": {"android": "https://dc.lft.to/lastmile_qr_scan", "ios": "https://dc.lft.to/lastmile_qr_scan"}, "type": "electric_scooter", "lon": -77.03265333333333, "name": "7d42257163126ef8a735f4f90cd4265d", "bike_id": "7d42257163126ef8a735f4f90cd4265d", "fusion_lat": 0.0, "is_reserved": 0, "lat": 38.93661683333333, "fusion_lon": 0.0, "is_disabled": 0}, {"rental_uris": {"android": "https://dc.lft.to/lastmile_qr_scan", "ios": "https://dc.lft.to/lastmile_qr_scan"}, "type": "electric_scooter", "lon": -76.98618766666667, "name": "7852c9612e97f33948473d259037bcf0", "bike_id": "7852c9612e97f33948473d259037bcf0", "fusion_lat": 0.0, "is_reserved": 0, "lat": 38.93826833333333, "fusion_lon": 0.0, "is_disabled": 0}, {"rental_uris": {"android": "https://dc.lft.to/lastmile_qr_scan", "ios": "https://dc.lft.to/lastmile_qr_scan"}, "type": "electric_scooter", "lon": -76.9343465, "name": "846fd828a4bd02e3bcf7b6dcc6a7476b", "bike_id": "846fd828a4bd02e3bcf7b6dcc6a7476b", "fusion_lat": 0.0, "is_reserved": 0, "lat": 38.8995705, "fusion_lon": 0.0, "is_disabled": 0}, {"rental_uris": {"android": "https://dc.lft.to/lastmile_qr_scan", "ios": "https://dc.lft.to/lastmile_qr_scan"}, "type": "electric_scooter", "lon": -77.02853566666667, "name": "5c5829736ed177c807f1cd160912b3f9", "bike_id": "5c5829736ed177c807f1cd160912b3f9", "fusion_lat": 0.0, "is_reserved": 0, "lat": 38.92229316666667, "fusion_lon": 0.0, "is_disabled": 0}, {"rental_uris": {"android": "https://dc.lft.to/lastmile_qr_scan", "ios": "https://dc.lft.to/lastmile_qr_scan"}, "type": "electric_scooter", "lon": -77.03892466666667, "name": "9579eaffd9b7c1143aac6d17f075eb84", "bike_id": "9579eaffd9b7c1143aac6d17f075eb84", "fusion_lat": 0.0, "is_reserved": 0, "lat": 38.922370666666666, "fusion_lon": 0.0, "is_disabled": 0}, {"rental_uris": {"android": "https://dc.lft.to/lastmile_qr_scan", "ios": "https://dc.lft.to/lastmile_qr_scan"}, "type": "electric_scooter", "lon": -77.02950033333333, "name": "eda9ad6ea9a3ff80b470fed0090a7548", "bike_id": "eda9ad6ea9a3ff80b470fed0090a7548", "fusion_lat": 0.0, "is_reserved": 0, "lat": 38.89827566666666, "fusion_lon": 0.0, "is_disabled": 0}, {"rental_uris": {"android": "https://dc.lft.to/lastmile_qr_scan", "ios": "https://dc.lft.to/lastmile_qr_scan"}, "type": "electric_scooter", "lon": -77.05023733333333, "name": "7ccc67210f3f4b85e2406af352cbcc7a", "bike_id": "7ccc67210f3f4b85e2406af352cbcc7a", "fusion_lat": 0.0, "is_reserved": 0, "lat": 38.923689, "fusion_lon": 0.0, "is_disabled": 0}, {"rental_uris": {"android": "https://dc.lft.to/lastmile_qr_scan", "ios": "https://dc.lft.to/lastmile_qr_scan"}, "type": "electric_scooter", "lon": -76.94819883333334, "name": "42fb8d5550337b5a19c9ed8962f82b7a", "bike_id": "42fb8d5550337b5a19c9ed8962f82b7a", "fusion_lat": 0.0, "is_reserved": 0, "lat": 38.893506, "fusion_lon": 0.0, "is_disabled": 0}, {"rental_uris": {"android": "https://dc.lft.to/lastmile_qr_scan", "ios": "https://dc.lft.to/lastmile_qr_scan"}, "type": "electric_bike", "lon": -76.998004, "name": "3c1df602e067ce1696925fdb644634e8", "bike_id": "3c1df602e067ce1696925fdb644634e8", "fusion_lat": 0.0, "is_reserved": 0, "lat": 38.935027, "fusion_lon": 0.0, "is_disabled": 0}, {"rental_uris": {"android": "https://dc.lft.to/lastmile_qr_scan", "ios": "https://dc.lft.to/lastmile_qr_scan"}, "type": "electric_scooter", "lon": -77.01764616666667, "name": "93bfaa06921600c6791b335435478ae8", "bike_id": "93bfaa06921600c6791b335435478ae8", "fusion_lat": 0.0, "is_reserved": 0, "lat": 38.872923166666666, "fusion_lon": 0.0, "is_disabled": 0}, {"rental_uris": {"android": "https://dc.lft.to/lastmile_qr_scan", "ios": "https://dc.lft.to/lastmile_qr_scan"}, "type": "electric_scooter", "lon": -77.03184333333333, "name": "d6f03e62d10349efa2312ae3367ace07", "bike_id": "d6f03e62d10349efa2312ae3367ace07", "fusion_lat": 0.0, "is_reserved": 0, "lat": 38.89251066666667, "fusion_lon": 0.0, "is_disabled": 0}, {"rental_uris": {"android": "https://dc.lft.to/lastmile_qr_scan", "ios": "https://dc.lft.to/lastmile_qr_scan"}, "type": "electric_scooter", "lon": -76.97018933333334, "name": "a5247cad4108aea3eba1a25fe80a4a5a", "bike_id": "a5247cad4108aea3eba1a25fe80a4a5a", "fusion_lat": 0.0, "is_reserved": 0, "lat": 38.920306333333336, "fusion_lon": 0.0, "is_disabled": 0}, {"rental_uris": {"android": "https://dc.lft.to/lastmile_qr_scan", "ios": "https://dc.lft.to/lastmile_qr_scan"}, "type": "electric_scooter", "lon": -77.02976966666667, "name": "4890636425535a74cd4a80fbe3085584", "bike_id": "4890636425535a74cd4a80fbe3085584", "fusion_lat": 0.0, "is_reserved": 0, "lat": 38.923068666666666, "fusion_lon": 0.0, "is_disabled": 0}, {"rental_uris": {"android": "https://dc.lft.to/lastmile_qr_scan", "ios": "https://dc.lft.to/lastmile_qr_scan"}, "type": "electric_bike", "lon": -76.9909935, "name": "e6acb71290b4144a41244ce0bd3e5907", "bike_id": "e6acb71290b4144a41244ce0bd3e5907", "fusion_lat": 0.0, "is_reserved": 0, "lat": 38.93372816666667, "fusion_lon": 0.0, "is_disabled": 0}, {"rental_uris": {"android": "https://dc.lft.to/lastmile_qr_scan", "ios": "https://dc.lft.to/lastmile_qr_scan"}, "type": "electric_scooter", "lon": -77.02091, "name": "a658a32ef4c94ec8d3c14a3ac4d8f03e", "bike_id": "a658a32ef4c94ec8d3c14a3ac4d8f03e", "fusion_lat": 0.0, "is_reserved": 0, "lat": 38.88507883333333, "fusion_lon": 0.0, "is_disabled": 0}, {"rental_uris": {"android": "https://dc.lft.to/lastmile_qr_scan", "ios": "https://dc.lft.to/lastmile_qr_scan"}, "type": "electric_scooter", "lon": -76.99079883333333, "name": "e677930d82fce3c4f617bb29fe72ac50", "bike_id": "e677930d82fce3c4f617bb29fe72ac50", "fusion_lat": 0.0, "is_reserved": 0, "lat": 38.842861, "fusion_lon": 0.0, "is_disabled": 0}, {"rental_uris": {"android": "https://dc.lft.to/lastmile_qr_scan", "ios": "https://dc.lft.to/lastmile_qr_scan"}, "type": "electric_scooter", "lon": -77.0514225, "name": "111a1fd7a2278a82354e323606b3e480", "bike_id": "111a1fd7a2278a82354e323606b3e480", "fusion_lat": 0.0, "is_reserved": 0, "lat": 38.904165, "fusion_lon": 0.0, "is_disabled": 0}, {"rental_uris": {"android": "https://dc.lft.to/lastmile_qr_scan", "ios": "https://dc.lft.to/lastmile_qr_scan"}, "type": "electric_scooter", "lon": -77.02380083333334, "name": "5a171b48b574a275679ad228eafba275", "bike_id": "5a171b48b574a275679ad228eafba275", "fusion_lat": 0.0, "is_reserved": 0, "lat": 38.90199883333333, "fusion_lon": 0.0, "is_disabled": 0}, {"rental_uris": {"android": "https://dc.lft.to/lastmile_qr_scan", "ios": "https://dc.lft.to/lastmile_qr_scan"}, "type": "electric_scooter", "lon": -77.01900833333333, "name": "6a938d692cd54922789b8069c078a622", "bike_id": "6a938d692cd54922789b8069c078a622", "fusion_lat": 0.0, "is_reserved": 0, "lat": 38.93919866666667, "fusion_lon": 0.0, "is_disabled": 0}, {"rental_uris": {"android": "https://dc.lft.to/lastmile_qr_scan", "ios": "https://dc.lft.to/lastmile_qr_scan"}, "type": "electric_scooter", "lon": -77.02377916666667, "name": "038c18687fe74abaeaf3bf252e1b9222", "bike_id": "038c18687fe74abaeaf3bf252e1b9222", "fusion_lat": 0.0, "is_reserved": 0, "lat": 38.9020795, "fusion_lon": 0.0, "is_disabled": 0}, {"rental_uris": {"android": "https://dc.lft.to/lastmile_qr_scan", "ios": "https://dc.lft.to/lastmile_qr_scan"}, "type": "electric_bike", "lon": -76.9477245, "name": "c3f50a3c71e882b51db26d17a7330a8e", "bike_id": "c3f50a3c71e882b51db26d17a7330a8e", "fusion_lat": 0.0, "is_reserved": 0, "lat": 38.896329, "fusion_lon": 0.0, "is_disabled": 0}, {"rental_uris": {"android": "https://dc.lft.to/lastmile_qr_scan", "ios": "https://dc.lft.to/lastmile_qr_scan"}, "type": "electric_scooter", "lon": -77.03459016666666, "name": "ffa7a4d342d26d223a2afcee50cdf2cf", "bike_id": "ffa7a4d342d26d223a2afcee50cdf2cf", "fusion_lat": 0.0, "is_reserved": 0, "lat": 38.935572666666665, "fusion_lon": 0.0, "is_disabled": 0}, {"rental_uris": {"android": "https://dc.lft.to/lastmile_qr_scan", "ios": "https://dc.lft.to/lastmile_qr_scan"}, "type": "electric_scooter", "lon": -77.0014525, "name": "d497508100dcfa07e365daba57eb40ce", "bike_id": "d497508100dcfa07e365daba57eb40ce", "fusion_lat": 0.0, "is_reserved": 0, "lat": 38.9000655, "fusion_lon": 0.0, "is_disabled": 0}, {"rental_uris": {"android": "https://dc.lft.to/lastmile_qr_scan", "ios": "https://dc.lft.to/lastmile_qr_scan"}, "type": "electric_scooter", "lon": -77.04991266666667, "name": "51a65d1ea71b90e3e876f7bb67dc5353", "bike_id": "51a65d1ea71b90e3e876f7bb67dc5353", "fusion_lat": 0.0, "is_reserved": 0, "lat": 38.8972895, "fusion_lon": 0.0, "is_disabled": 0}, {"rental_uris": {"android": "https://dc.lft.to/lastmile_qr_scan", "ios": "https://dc.lft.to/lastmile_qr_scan"}, "type": "electric_scooter", "lon": -77.02107516666666, "name": "1f06b7d2f4a3d08ba077ac9844bb166b", "bike_id": "1f06b7d2f4a3d08ba077ac9844bb166b", "fusion_lat": 0.0, "is_reserved": 0, "lat": 38.9409605, "fusion_lon": 0.0, "is_disabled": 0}, {"rental_uris": {"android": "https://dc.lft.to/lastmile_qr_scan", "ios": "https://dc.lft.to/lastmile_qr_scan"}, "type": "electric_scooter", "lon": -77.04045416666666, "name": "6e697d0dab7fac29a9087c4d8b6101c6", "bike_id": "6e697d0dab7fac29a9087c4d8b6101c6", "fusion_lat": 0.0, "is_reserved": 0, "lat": 38.905719166666664, "fusion_lon": 0.0, "is_disabled": 0}, {"rental_uris": {"android": "https://dc.lft.to/lastmile_qr_scan", "ios": "https://dc.lft.to/lastmile_qr_scan"}, "type": "electric_scooter", "lon": -76.999484, "name": "f4292f0a2121b1caad0a6753e53979a9", "bike_id": "f4292f0a2121b1caad0a6753e53979a9", "fusion_lat": 0.0, "is_reserved": 0, "lat": 38.8428915, "fusion_lon": 0.0, "is_disabled": 0}, {"rental_uris": {"android": "https://dc.lft.to/lastmile_qr_scan", "ios": "https://dc.lft.to/lastmile_qr_scan"}, "type": "electric_scooter", "lon": -77.00069333333333, "name": "900fdb121acc6e40bbf75395b9b5a589", "bike_id": "900fdb121acc6e40bbf75395b9b5a589", "fusion_lat": 0.0, "is_reserved": 0, "lat": 38.919095, "fusion_lon": 0.0, "is_disabled": 0}, {"rental_uris": {"android": "https://dc.lft.to/lastmile_qr_scan", "ios": "https://dc.lft.to/lastmile_qr_scan"}, "type": "electric_scooter", "lon": -77.026963, "name": "f3a7ff944e70e3ea1cda33c9444d7f09", "bike_id": "f3a7ff944e70e3ea1cda33c9444d7f09", "fusion_lat": 0.0, "is_reserved": 0, "lat": 38.908459, "fusion_lon": 0.0, "is_disabled": 0}, {"rental_uris": {"android": "https://dc.lft.to/lastmile_qr_scan", "ios": "https://dc.lft.to/lastmile_qr_scan"}, "type": "electric_scooter", "lon": -77.02089, "name": "1b79228c5418e8646413cfd47dda0ef3", "bike_id": "1b79228c5418e8646413cfd47dda0ef3", "fusion_lat": 0.0, "is_reserved": 0, "lat": 38.92913266666667, "fusion_lon": 0.0, "is_disabled": 0}, {"rental_uris": {"android": "https://dc.lft.to/lastmile_qr_scan", "ios": "https://dc.lft.to/lastmile_qr_scan"}, "type": "electric_scooter", "lon": -77.01793833333333, "name": "7f0c96adb028cb66eed103f47f4aba6c", "bike_id": "7f0c96adb028cb66eed103f47f4aba6c", "fusion_lat": 0.0, "is_reserved": 0, "lat": 38.9211355, "fusion_lon": 0.0, "is_disabled": 0}, {"rental_uris": {"android": "https://dc.lft.to/lastmile_qr_scan", "ios": "https://dc.lft.to/lastmile_qr_scan"}, "type": "electric_scooter", "lon": -77.0651155, "name": "7e4d31d3b92daefc2e047f07af113691", "bike_id": "7e4d31d3b92daefc2e047f07af113691", "fusion_lat": 0.0, "is_reserved": 0, "lat": 38.90515466666667, "fusion_lon": 0.0, "is_disabled": 0}, {"rental_uris": {"android": "https://dc.lft.to/lastmile_qr_scan", "ios": "https://dc.lft.to/lastmile_qr_scan"}, "type": "electric_scooter", "lon": -77.0385965, "name": "86a7ccd22201baf7e1abbed31ac1f5e0", "bike_id": "86a7ccd22201baf7e1abbed31ac1f5e0", "fusion_lat": 0.0, "is_reserved": 0, "lat": 38.9125255, "fusion_lon": 0.0, "is_disabled": 0}, {"rental_uris": {"android": "https://dc.lft.to/lastmile_qr_scan", "ios": "https://dc.lft.to/lastmile_qr_scan"}, "type": "electric_scooter", "lon": -77.012019, "name": "37909e6d6e2fd0313d97fb4c2903b922", "bike_id": "37909e6d6e2fd0313d97fb4c2903b922", "fusion_lat": 0.0, "is_reserved": 0, "lat": 38.8709085, "fusion_lon": 0.0, "is_disabled": 0}, {"rental_uris": {"android": "https://dc.lft.to/lastmile_qr_scan", "ios": "https://dc.lft.to/lastmile_qr_scan"}, "type": "electric_scooter", "lon": -77.006408, "name": "e77e2d18bd2e9b26ab276fbb4926088f", "bike_id": "e77e2d18bd2e9b26ab276fbb4926088f", "fusion_lat": 0.0, "is_reserved": 0, "lat": 38.883348166666664, "fusion_lon": 0.0, "is_disabled": 0}, {"rental_uris": {"android": "https://dc.lft.to/lastmile_qr_scan", "ios": "https://dc.lft.to/lastmile_qr_scan"}, "type": "electric_scooter", "lon": -77.03183016666667, "name": "3dd06d8b4199421aac77c14bb91a21ae", "bike_id": "3dd06d8b4199421aac77c14bb91a21ae", "fusion_lat": 0.0, "is_reserved": 0, "lat": 38.92975366666667, "fusion_lon": 0.0, "is_disabled": 0}, {"rental_uris": {"android": "https://dc.lft.to/lastmile_qr_scan", "ios": "https://dc.lft.to/lastmile_qr_scan"}, "type": "electric_scooter", "lon": -77.03844733333334, "name": "a8479edbacaaf6d0997d84d581f5ac05", "bike_id": "a8479edbacaaf6d0997d84d581f5ac05", "fusion_lat": 0.0, "is_reserved": 0, "lat": 38.902764833333336, "fusion_lon": 0.0, "is_disabled": 0}, {"rental_uris": {"android": "https://dc.lft.to/lastmile_qr_scan", "ios": "https://dc.lft.to/lastmile_qr_scan"}, "type": "electric_scooter", "lon": -77.01460533333334, "name": "8bd6c566e25d51b5e91dbe0062b29bf3", "bike_id": "8bd6c566e25d51b5e91dbe0062b29bf3", "fusion_lat": 0.0, "is_reserved": 0, "lat": 38.92670833333333, "fusion_lon": 0.0, "is_disabled": 0}, {"rental_uris": {"android": "https://dc.lft.to/lastmile_qr_scan", "ios": "https://dc.lft.to/lastmile_qr_scan"}, "type": "electric_scooter", "lon": -77.03414033333334, "name": "9640995b1400b2bc382cb3693cff00f7", "bike_id": "9640995b1400b2bc382cb3693cff00f7", "fusion_lat": 0.0, "is_reserved": 0, "lat": 38.92423466666666, "fusion_lon": 0.0, "is_disabled": 0}, {"rental_uris": {"android": "https://dc.lft.to/lastmile_qr_scan", "ios": "https://dc.lft.to/lastmile_qr_scan"}, "type": "electric_scooter", "lon": -77.04997566666667, "name": "bb41d03bfb0f073f84788e9b41f23a3b", "bike_id": "bb41d03bfb0f073f84788e9b41f23a3b", "fusion_lat": 0.0, "is_reserved": 0, "lat": 38.898956, "fusion_lon": 0.0, "is_disabled": 0}, {"rental_uris": {"android": "https://dc.lft.to/lastmile_qr_scan", "ios": "https://dc.lft.to/lastmile_qr_scan"}, "type": "electric_scooter", "lon": -77.02705633333333, "name": "35bbcc0bc9ba86a54cbaf3ad05accaa8", "bike_id": "35bbcc0bc9ba86a54cbaf3ad05accaa8", "fusion_lat": 0.0, "is_reserved": 0, "lat": 38.90663216666667, "fusion_lon": 0.0, "is_disabled": 0}, {"rental_uris": {"android": "https://dc.lft.to/lastmile_qr_scan", "ios": "https://dc.lft.to/lastmile_qr_scan"}, "type": "electric_scooter", "lon": -76.935343, "name": "9678de38f70d12a2b6b7e3d25b7623bf", "bike_id": "9678de38f70d12a2b6b7e3d25b7623bf", "fusion_lat": 0.0, "is_reserved": 0, "lat": 38.896794666666665, "fusion_lon": 0.0, "is_disabled": 0}, {"rental_uris": {"android": "https://dc.lft.to/lastmile_qr_scan", "ios": "https://dc.lft.to/lastmile_qr_scan"}, "type": "electric_scooter", "lon": -77.02283216666666, "name": "9debcfb3f0979e864c71377fc0e38c70", "bike_id": "9debcfb3f0979e864c71377fc0e38c70", "fusion_lat": 0.0, "is_reserved": 0, "lat": 38.92414433333333, "fusion_lon": 0.0, "is_disabled": 0}, {"rental_uris": {"android": "https://dc.lft.to/lastmile_qr_scan", "ios": "https://dc.lft.to/lastmile_qr_scan"}, "type": "electric_scooter", "lon": -77.02704083333333, "name": "7dd9303c2a3e27638b17848743700928", "bike_id": "7dd9303c2a3e27638b17848743700928", "fusion_lat": 0.0, "is_reserved": 0, "lat": 38.9499605, "fusion_lon": 0.0, "is_disabled": 0}, {"rental_uris": {"android": "https://dc.lft.to/lastmile_qr_scan", "ios": "https://dc.lft.to/lastmile_qr_scan"}, "type": "electric_scooter", "lon": -77.08214016666666, "name": "f5724b7137072b6710cbaa09c5da261c", "bike_id": "f5724b7137072b6710cbaa09c5da261c", "fusion_lat": 0.0, "is_reserved": 0, "lat": 38.93558983333333, "fusion_lon": 0.0, "is_disabled": 0}, {"rental_uris": {"android": "https://dc.lft.to/lastmile_qr_scan", "ios": "https://dc.lft.to/lastmile_qr_scan"}, "type": "electric_bike", "lon": -77.17846866666666, "name": "44f0a00c8c1fce761438c8324f8475c4", "bike_id": "44f0a00c8c1fce761438c8324f8475c4", "fusion_lat": 0.0, "is_reserved": 0, "lat": 39.08900916666666, "fusion_lon": 0.0, "is_disabled": 0}, {"rental_uris": {"android": "https://dc.lft.to/lastmile_qr_scan", "ios": "https://dc.lft.to/lastmile_qr_scan"}, "type": "electric_bike", "lon": -77.04305766666667, "name": "3da965aca259904857f6cee2f933cda4", "bike_id": "3da965aca259904857f6cee2f933cda4", "fusion_lat": 0.0, "is_reserved": 0, "lat": 39.054434, "fusion_lon": 0.0, "is_disabled": 0}, {"rental_uris": {"android": "https://dc.lft.to/lastmile_qr_scan", "ios": "https://dc.lft.to/lastmile_qr_scan"}, "type": "electric_scooter", "lon": -77.0152685, "name": "cf6d57d166830b587c3285a1107491ec", "bike_id": "cf6d57d166830b587c3285a1107491ec", "fusion_lat": 0.0, "is_reserved": 0, "lat": 38.91349566666667, "fusion_lon": 0.0, "is_disabled": 0}, {"rental_uris": {"android": "https://dc.lft.to/lastmile_qr_scan", "ios": "https://dc.lft.to/lastmile_qr_scan"}, "type": "electric_scooter", "lon": -77.02410133333333, "name": "bc8e187c00cdf1d246029e970abed497", "bike_id": "bc8e187c00cdf1d246029e970abed497", "fusion_lat": 0.0, "is_reserved": 0, "lat": 38.9134115, "fusion_lon": 0.0, "is_disabled": 0}, {"rental_uris": {"android": "https://dc.lft.to/lastmile_qr_scan", "ios": "https://dc.lft.to/lastmile_qr_scan"}, "type": "electric_scooter", "lon": -77.02722333333334, "name": "c193f40d2c61f1b0da9850168b3d1bd3", "bike_id": "c193f40d2c61f1b0da9850168b3d1bd3", "fusion_lat": 0.0, "is_reserved": 0, "lat": 38.934477, "fusion_lon": 0.0, "is_disabled": 0}, {"rental_uris": {"android": "https://dc.lft.to/lastmile_qr_scan", "ios": "https://dc.lft.to/lastmile_qr_scan"}, "type": "electric_scooter", "lon": -77.0450465, "name": "a8bc1f404ac6c5366fe98dff699d2c91", "bike_id": "a8bc1f404ac6c5366fe98dff699d2c91", "fusion_lat": 0.0, "is_reserved": 0, "lat": 38.902487, "fusion_lon": 0.0, "is_disabled": 0}, {"rental_uris": {"android": "https://dc.lft.to/lastmile_qr_scan", "ios": "https://dc.lft.to/lastmile_qr_scan"}, "type": "electric_scooter", "lon": -77.02371966666666, "name": "7d4be933b7f4e0bf8272ca66adcef576", "bike_id": "7d4be933b7f4e0bf8272ca66adcef576", "fusion_lat": 0.0, "is_reserved": 0, "lat": 38.90206416666667, "fusion_lon": 0.0, "is_disabled": 0}, {"rental_uris": {"android": "https://dc.lft.to/lastmile_qr_scan", "ios": "https://dc.lft.to/lastmile_qr_scan"}, "type": "electric_scooter", "lon": -76.97417666666666, "name": "a47fe6bf7ef90fe8c3ec0b37422f4f54", "bike_id": "a47fe6bf7ef90fe8c3ec0b37422f4f54", "fusion_lat": 0.0, "is_reserved": 0, "lat": 38.865692, "fusion_lon": 0.0, "is_disabled": 0}, {"rental_uris": {"android": "https://dc.lft.to/lastmile_qr_scan", "ios": "https://dc.lft.to/lastmile_qr_scan"}, "type": "electric_scooter", "lon": -77.03944083333333, "name": "8488bc6953b343db0174a487feeca91c", "bike_id": "8488bc6953b343db0174a487feeca91c", "fusion_lat": 0.0, "is_reserved": 0, "lat": 38.908170166666665, "fusion_lon": 0.0, "is_disabled": 0}, {"rental_uris": {"android": "https://dc.lft.to/lastmile_qr_scan", "ios": "https://dc.lft.to/lastmile_qr_scan"}, "type": "electric_scooter", "lon": -77.03298616666666, "name": "38938641aa4cb85370ceb229c694ddda", "bike_id": "38938641aa4cb85370ceb229c694ddda", "fusion_lat": 0.0, "is_reserved": 0, "lat": 38.9085715, "fusion_lon": 0.0, "is_disabled": 0}, {"rental_uris": {"android": "https://dc.lft.to/lastmile_qr_scan", "ios": "https://dc.lft.to/lastmile_qr_scan"}, "type": "electric_scooter", "lon": -77.04003766666666, "name": "32b91d5f32be34c98edbf08142086d5b", "bike_id": "32b91d5f32be34c98edbf08142086d5b", "fusion_lat": 0.0, "is_reserved": 0, "lat": 38.9034545, "fusion_lon": 0.0, "is_disabled": 0}, {"rental_uris": {"android": "https://dc.lft.to/lastmile_qr_scan", "ios": "https://dc.lft.to/lastmile_qr_scan"}, "type": "electric_scooter", "lon": -77.04320883333334, "name": "b9fd4d724e9c706d59303c59c7536a95", "bike_id": "b9fd4d724e9c706d59303c59c7536a95", "fusion_lat": 0.0, "is_reserved": 0, "lat": 38.90616283333333, "fusion_lon": 0.0, "is_disabled": 0}, {"rental_uris": {"android": "https://dc.lft.to/lastmile_qr_scan", "ios": "https://dc.lft.to/lastmile_qr_scan"}, "type": "electric_scooter", "lon": -77.00334716666667, "name": "7f6a47005540d75b28e7474dd51228f0", "bike_id": "7f6a47005540d75b28e7474dd51228f0", "fusion_lat": 0.0, "is_reserved": 0, "lat": 38.893582, "fusion_lon": 0.0, "is_disabled": 0}, {"rental_uris": {"android": "https://dc.lft.to/lastmile_qr_scan", "ios": "https://dc.lft.to/lastmile_qr_scan"}, "type": "electric_scooter", "lon": -76.9915385, "name": "5df12f6ffcd5e90d29a7b1d01ba4e71f", "bike_id": "5df12f6ffcd5e90d29a7b1d01ba4e71f", "fusion_lat": 0.0, "is_reserved": 0, "lat": 38.873154, "fusion_lon": 0.0, "is_disabled": 0}, {"rental_uris": {"android": "https://dc.lft.to/lastmile_qr_scan", "ios": "https://dc.lft.to/lastmile_qr_scan"}, "type": "electric_scooter", "lon": -77.051214, "name": "a9f7a9bbd88a958f45681b892434f87b", "bike_id": "a9f7a9bbd88a958f45681b892434f87b", "fusion_lat": 0.0, "is_reserved": 0, "lat": 38.923456, "fusion_lon": 0.0, "is_disabled": 0}, {"rental_uris": {"android": "https://dc.lft.to/lastmile_qr_scan", "ios": "https://dc.lft.to/lastmile_qr_scan"}, "type": "electric_scooter", "lon": -77.00281016666666, "name": "4e2649ee7e589fe5f3a7b0f2f1b3ae88", "bike_id": "4e2649ee7e589fe5f3a7b0f2f1b3ae88", "fusion_lat": 0.0, "is_reserved": 0, "lat": 38.9392025, "fusion_lon": 0.0, "is_disabled": 0}, {"rental_uris": {"android": "https://dc.lft.to/lastmile_qr_scan", "ios": "https://dc.lft.to/lastmile_qr_scan"}, "type": "electric_scooter", "lon": -76.9908905, "name": "0bf99647e83085054dd5907c37c9a366", "bike_id": "0bf99647e83085054dd5907c37c9a366", "fusion_lat": 0.0, "is_reserved": 0, "lat": 38.90023866666667, "fusion_lon": 0.0, "is_disabled": 0}, {"rental_uris": {"android": "https://dc.lft.to/lastmile_qr_scan", "ios": "https://dc.lft.to/lastmile_qr_scan"}, "type": "electric_scooter", "lon": -77.02414666666667, "name": "6ecbc7b9ed8219f639f6980c52c82e7e", "bike_id": "6ecbc7b9ed8219f639f6980c52c82e7e", "fusion_lat": 0.0, "is_reserved": 0, "lat": 38.909512666666664, "fusion_lon": 0.0, "is_disabled": 0}, {"rental_uris": {"android": "https://dc.lft.to/lastmile_qr_scan", "ios": "https://dc.lft.to/lastmile_qr_scan"}, "type": "electric_scooter", "lon": -77.03262316666667, "name": "cd8ff30a002b6d6779145699d23f7f03", "bike_id": "cd8ff30a002b6d6779145699d23f7f03", "fusion_lat": 0.0, "is_reserved": 0, "lat": 38.90260983333334, "fusion_lon": 0.0, "is_disabled": 0}, {"rental_uris": {"android": "https://dc.lft.to/lastmile_qr_scan", "ios": "https://dc.lft.to/lastmile_qr_scan"}, "type": "electric_scooter", "lon": -77.02167983333334, "name": "267e34d589c06233c9ed29c8768a4724", "bike_id": "267e34d589c06233c9ed29c8768a4724", "fusion_lat": 0.0, "is_reserved": 0, "lat": 38.887453, "fusion_lon": 0.0, "is_disabled": 0}, {"rental_uris": {"android": "https://dc.lft.to/lastmile_qr_scan", "ios": "https://dc.lft.to/lastmile_qr_scan"}, "type": "electric_scooter", "lon": -77.05253083333334, "name": "36345a90f8183d81559a0138d786f986", "bike_id": "36345a90f8183d81559a0138d786f986", "fusion_lat": 0.0, "is_reserved": 0, "lat": 38.923773833333335, "fusion_lon": 0.0, "is_disabled": 0}, {"rental_uris": {"android": "https://dc.lft.to/lastmile_qr_scan", "ios": "https://dc.lft.to/lastmile_qr_scan"}, "type": "electric_scooter", "lon": -77.00834516666667, "name": "7b8a8b444eb53181f19e8a28fd90e5f1", "bike_id": "7b8a8b444eb53181f19e8a28fd90e5f1", "fusion_lat": 0.0, "is_reserved": 0, "lat": 38.9155365, "fusion_lon": 0.0, "is_disabled": 0}, {"rental_uris": {"android": "https://dc.lft.to/lastmile_qr_scan", "ios": "https://dc.lft.to/lastmile_qr_scan"}, "type": "electric_scooter", "lon": -77.02614116666666, "name": "af2b644460e47ea014eb654f7da0981a", "bike_id": "af2b644460e47ea014eb654f7da0981a", "fusion_lat": 0.0, "is_reserved": 0, "lat": 38.89294566666667, "fusion_lon": 0.0, "is_disabled": 0}, {"rental_uris": {"android": "https://dc.lft.to/lastmile_qr_scan", "ios": "https://dc.lft.to/lastmile_qr_scan"}, "type": "electric_scooter", "lon": -77.03238916666666, "name": "13d81e23d12f9f785efd86462fe3c8fc", "bike_id": "13d81e23d12f9f785efd86462fe3c8fc", "fusion_lat": 0.0, "is_reserved": 0, "lat": 38.901309833333336, "fusion_lon": 0.0, "is_disabled": 0}, {"rental_uris": {"android": "https://dc.lft.to/lastmile_qr_scan", "ios": "https://dc.lft.to/lastmile_qr_scan"}, "type": "electric_scooter", "lon": -77.0324875, "name": "b0cf75ab1c086ccca29a6cb6dcecacbf", "bike_id": "b0cf75ab1c086ccca29a6cb6dcecacbf", "fusion_lat": 0.0, "is_reserved": 0, "lat": 38.9287555, "fusion_lon": 0.0, "is_disabled": 0}, {"rental_uris": {"android": "https://dc.lft.to/lastmile_qr_scan", "ios": "https://dc.lft.to/lastmile_qr_scan"}, "type": "electric_scooter", "lon": -77.043397, "name": "2450847a3d84ea9df34f6fdb45b82f52", "bike_id": "2450847a3d84ea9df34f6fdb45b82f52", "fusion_lat": 0.0, "is_reserved": 0, "lat": 38.90875033333333, "fusion_lon": 0.0, "is_disabled": 0}, {"rental_uris": {"android": "https://dc.lft.to/lastmile_qr_scan", "ios": "https://dc.lft.to/lastmile_qr_scan"}, "type": "electric_bike", "lon": -76.90533783333333, "name": "d0e148e5fdc09d9e27f19f36dc8ceef3", "bike_id": "d0e148e5fdc09d9e27f19f36dc8ceef3", "fusion_lat": 0.0, "is_reserved": 0, "lat": 38.897343666666664, "fusion_lon": 0.0, "is_disabled": 0}, {"rental_uris": {"android": "https://dc.lft.to/lastmile_qr_scan", "ios": "https://dc.lft.to/lastmile_qr_scan"}, "type": "electric_scooter", "lon": -77.02510633333333, "name": "e5e9dc2c53a7e3b7e9e07cd00ee319ae", "bike_id": "e5e9dc2c53a7e3b7e9e07cd00ee319ae", "fusion_lat": 0.0, "is_reserved": 0, "lat": 38.90100533333333, "fusion_lon": 0.0, "is_disabled": 0}, {"rental_uris": {"android": "https://dc.lft.to/lastmile_qr_scan", "ios": "https://dc.lft.to/lastmile_qr_scan"}, "type": "electric_scooter", "lon": -77.02403316666667, "name": "062904452498d9387b5baf14a8ea4b71", "bike_id": "062904452498d9387b5baf14a8ea4b71", "fusion_lat": 0.0, "is_reserved": 0, "lat": 38.93704616666667, "fusion_lon": 0.0, "is_disabled": 0}, {"rental_uris": {"android": "https://dc.lft.to/lastmile_qr_scan", "ios": "https://dc.lft.to/lastmile_qr_scan"}, "type": "electric_scooter", "lon": -77.04059383333333, "name": "e4e4c866f211ec85d028f787ece68a2c", "bike_id": "e4e4c866f211ec85d028f787ece68a2c", "fusion_lat": 0.0, "is_reserved": 0, "lat": 38.92645066666667, "fusion_lon": 0.0, "is_disabled": 0}, {"rental_uris": {"android": "https://dc.lft.to/lastmile_qr_scan", "ios": "https://dc.lft.to/lastmile_qr_scan"}, "type": "electric_scooter", "lon": -77.0551365, "name": "c82eb2c8dc8f3cb96d55010a44e2dbbb", "bike_id": "c82eb2c8dc8f3cb96d55010a44e2dbbb", "fusion_lat": 0.0, "is_reserved": 0, "lat": 38.944106, "fusion_lon": 0.0, "is_disabled": 0}, {"rental_uris": {"android": "https://dc.lft.to/lastmile_qr_scan", "ios": "https://dc.lft.to/lastmile_qr_scan"}, "type": "electric_scooter", "lon": -76.9939095, "name": "415efb69860ed08e3034578d02960bc8", "bike_id": "415efb69860ed08e3034578d02960bc8", "fusion_lat": 0.0, "is_reserved": 0, "lat": 38.884518, "fusion_lon": 0.0, "is_disabled": 0}, {"rental_uris": {"android": "https://dc.lft.to/lastmile_qr_scan", "ios": "https://dc.lft.to/lastmile_qr_scan"}, "type": "electric_scooter", "lon": -77.0467275, "name": "d69ac502da0a6d3dc506f606ce75d9a8", "bike_id": "d69ac502da0a6d3dc506f606ce75d9a8", "fusion_lat": 0.0, "is_reserved": 0, "lat": 38.89551216666667, "fusion_lon": 0.0, "is_disabled": 0}, {"rental_uris": {"android": "https://dc.lft.to/lastmile_qr_scan", "ios": "https://dc.lft.to/lastmile_qr_scan"}, "type": "electric_scooter", "lon": -77.0326355, "name": "cd54ba5362fa9c03361dbb98e94a6714", "bike_id": "cd54ba5362fa9c03361dbb98e94a6714", "fusion_lat": 0.0, "is_reserved": 0, "lat": 38.936645166666665, "fusion_lon": 0.0, "is_disabled": 0}, {"rental_uris": {"android": "https://dc.lft.to/lastmile_qr_scan", "ios": "https://dc.lft.to/lastmile_qr_scan"}, "type": "electric_bike", "lon": -77.129004, "name": "dfff7cbae8dcbfa2c30bc43101a817ab", "bike_id": "dfff7cbae8dcbfa2c30bc43101a817ab", "fusion_lat": 0.0, "is_reserved": 0, "lat": 38.863746, "fusion_lon": 0.0, "is_disabled": 0}, {"rental_uris": {"android": "https://dc.lft.to/lastmile_qr_scan", "ios": "https://dc.lft.to/lastmile_qr_scan"}, "type": "electric_scooter", "lon": -77.060321, "name": "008abb910905909d4943c9b58108ef1a", "bike_id": "008abb910905909d4943c9b58108ef1a", "fusion_lat": 0.0, "is_reserved": 0, "lat": 38.93913516666667, "fusion_lon": 0.0, "is_disabled": 0}, {"rental_uris": {"android": "https://dc.lft.to/lastmile_qr_scan", "ios": "https://dc.lft.to/lastmile_qr_scan"}, "type": "electric_scooter", "lon": -77.04264133333334, "name": "19c6c3065b86966d27cf8753a584cf48", "bike_id": "19c6c3065b86966d27cf8753a584cf48", "fusion_lat": 0.0, "is_reserved": 0, "lat": 38.909805, "fusion_lon": 0.0, "is_disabled": 0}, {"rental_uris": {"android": "https://dc.lft.to/lastmile_qr_scan", "ios": "https://dc.lft.to/lastmile_qr_scan"}, "type": "electric_bike", "lon": -77.0210965, "name": "0a56f4c030bdf3182998a043f7d742a0", "bike_id": "0a56f4c030bdf3182998a043f7d742a0", "fusion_lat": 0.0, "is_reserved": 0, "lat": 39.02297, "fusion_lon": 0.0, "is_disabled": 0}, {"rental_uris": {"android": "https://dc.lft.to/lastmile_qr_scan", "ios": "https://dc.lft.to/lastmile_qr_scan"}, "type": "electric_scooter", "lon": -77.03858483333333, "name": "7d37668b61984e2ea1f6e57757090595", "bike_id": "7d37668b61984e2ea1f6e57757090595", "fusion_lat": 0.0, "is_reserved": 0, "lat": 38.9165765, "fusion_lon": 0.0, "is_disabled": 0}, {"rental_uris": {"android": "https://dc.lft.to/lastmile_qr_scan", "ios": "https://dc.lft.to/lastmile_qr_scan"}, "type": "electric_scooter", "lon": -77.00586716666666, "name": "c463b60b08b4f5aac2d374b00e9f53fb", "bike_id": "c463b60b08b4f5aac2d374b00e9f53fb", "fusion_lat": 0.0, "is_reserved": 0, "lat": 38.88376783333333, "fusion_lon": 0.0, "is_disabled": 0}, {"rental_uris": {"android": "https://dc.lft.to/lastmile_qr_scan", "ios": "https://dc.lft.to/lastmile_qr_scan"}, "type": "electric_scooter", "lon": -77.0743025, "name": "ed926839699868f9d3bc9f0e13a37004", "bike_id": "ed926839699868f9d3bc9f0e13a37004", "fusion_lat": 0.0, "is_reserved": 0, "lat": 38.910949333333335, "fusion_lon": 0.0, "is_disabled": 0}, {"rental_uris": {"android": "https://dc.lft.to/lastmile_qr_scan", "ios": "https://dc.lft.to/lastmile_qr_scan"}, "type": "electric_scooter", "lon": -77.05109116666667, "name": "2e7b66200a3751507b5607679f73e91e", "bike_id": "2e7b66200a3751507b5607679f73e91e", "fusion_lat": 0.0, "is_reserved": 0, "lat": 38.905304, "fusion_lon": 0.0, "is_disabled": 0}, {"rental_uris": {"android": "https://dc.lft.to/lastmile_qr_scan", "ios": "https://dc.lft.to/lastmile_qr_scan"}, "type": "electric_scooter", "lon": -77.02941766666666, "name": "6e3ed5d8614b7300a4a14fedc33015e3", "bike_id": "6e3ed5d8614b7300a4a14fedc33015e3", "fusion_lat": 0.0, "is_reserved": 0, "lat": 38.94277866666667, "fusion_lon": 0.0, "is_disabled": 0}, {"rental_uris": {"android": "https://dc.lft.to/lastmile_qr_scan", "ios": "https://dc.lft.to/lastmile_qr_scan"}, "type": "electric_scooter", "lon": -77.0057595, "name": "c0b13f8897f9c48eeca47f5aa2d84e54", "bike_id": "c0b13f8897f9c48eeca47f5aa2d84e54", "fusion_lat": 0.0, "is_reserved": 0, "lat": 38.885342333333334, "fusion_lon": 0.0, "is_disabled": 0}, {"rental_uris": {"android": "https://dc.lft.to/lastmile_qr_scan", "ios": "https://dc.lft.to/lastmile_qr_scan"}, "type": "electric_scooter", "lon": -77.04642416666667, "name": "1d5528f9ec0524d8a4100634c56e24bd", "bike_id": "1d5528f9ec0524d8a4100634c56e24bd", "fusion_lat": 0.0, "is_reserved": 0, "lat": 38.92229, "fusion_lon": 0.0, "is_disabled": 0}, {"rental_uris": {"android": "https://dc.lft.to/lastmile_qr_scan", "ios": "https://dc.lft.to/lastmile_qr_scan"}, "type": "electric_scooter", "lon": -77.039799, "name": "9d14e4fda760b668ab78dfb8b1b56469", "bike_id": "9d14e4fda760b668ab78dfb8b1b56469", "fusion_lat": 0.0, "is_reserved": 0, "lat": 38.9091635, "fusion_lon": 0.0, "is_disabled": 0}, {"rental_uris": {"android": "https://dc.lft.to/lastmile_qr_scan", "ios": "https://dc.lft.to/lastmile_qr_scan"}, "type": "electric_scooter", "lon": -77.0371275, "name": "012978e76920a3131091aa22d85006a9", "bike_id": "012978e76920a3131091aa22d85006a9", "fusion_lat": 0.0, "is_reserved": 0, "lat": 38.91554983333333, "fusion_lon": 0.0, "is_disabled": 0}, {"rental_uris": {"android": "https://dc.lft.to/lastmile_qr_scan", "ios": "https://dc.lft.to/lastmile_qr_scan"}, "type": "electric_bike", "lon": -76.960895, "name": "fae7be5647e4b4ffb742feab5d61b8ba", "bike_id": "fae7be5647e4b4ffb742feab5d61b8ba", "fusion_lat": 0.0, "is_reserved": 0, "lat": 38.918588166666666, "fusion_lon": 0.0, "is_disabled": 0}, {"rental_uris": {"android": "https://dc.lft.to/lastmile_qr_scan", "ios": "https://dc.lft.to/lastmile_qr_scan"}, "type": "electric_scooter", "lon": -77.00493466666667, "name": "e5bfb09346a1677d0c62a79ea79edc93", "bike_id": "e5bfb09346a1677d0c62a79ea79edc93", "fusion_lat": 0.0, "is_reserved": 0, "lat": 38.896783, "fusion_lon": 0.0, "is_disabled": 0}, {"rental_uris": {"android": "https://dc.lft.to/lastmile_qr_scan", "ios": "https://dc.lft.to/lastmile_qr_scan"}, "type": "electric_bike", "lon": -77.06379966666667, "name": "53b417329205fadb4ed4a71681de268f", "bike_id": "53b417329205fadb4ed4a71681de268f", "fusion_lat": 0.0, "is_reserved": 0, "lat": 39.017297166666665, "fusion_lon": 0.0, "is_disabled": 0}, {"rental_uris": {"android": "https://dc.lft.to/lastmile_qr_scan", "ios": "https://dc.lft.to/lastmile_qr_scan"}, "type": "electric_scooter", "lon": -76.9820895, "name": "0d5798e786c8b66d2c5f33a7d7252d55", "bike_id": "0d5798e786c8b66d2c5f33a7d7252d55", "fusion_lat": 0.0, "is_reserved": 0, "lat": 38.90184216666667, "fusion_lon": 0.0, "is_disabled": 0}, {"rental_uris": {"android": "https://dc.lft.to/lastmile_qr_scan", "ios": "https://dc.lft.to/lastmile_qr_scan"}, "type": "electric_scooter", "lon": -76.95657916666667, "name": "7fc352fcec0e7476db000a4d46353354", "bike_id": "7fc352fcec0e7476db000a4d46353354", "fusion_lat": 0.0, "is_reserved": 0, "lat": 38.89610016666666, "fusion_lon": 0.0, "is_disabled": 0}, {"rental_uris": {"android": "https://dc.lft.to/lastmile_qr_scan", "ios": "https://dc.lft.to/lastmile_qr_scan"}, "type": "electric_bike", "lon": -76.97250866666667, "name": "1fe93696ed67fc979276b19aa7b43e1c", "bike_id": "1fe93696ed67fc979276b19aa7b43e1c", "fusion_lat": 0.0, "is_reserved": 0, "lat": 38.957415, "fusion_lon": 0.0, "is_disabled": 0}, {"rental_uris": {"android": "https://dc.lft.to/lastmile_qr_scan", "ios": "https://dc.lft.to/lastmile_qr_scan"}, "type": "electric_scooter", "lon": -77.06398933333334, "name": "a3fdbb3dc54e2d3563c7497353429725", "bike_id": "a3fdbb3dc54e2d3563c7497353429725", "fusion_lat": 0.0, "is_reserved": 0, "lat": 38.94416066666667, "fusion_lon": 0.0, "is_disabled": 0}, {"rental_uris": {"android": "https://dc.lft.to/lastmile_qr_scan", "ios": "https://dc.lft.to/lastmile_qr_scan"}, "type": "electric_scooter", "lon": -76.988903, "name": "88dfc27d7b80ca113a5cd5b5e56f5c43", "bike_id": "88dfc27d7b80ca113a5cd5b5e56f5c43", "fusion_lat": 0.0, "is_reserved": 0, "lat": 38.866749, "fusion_lon": 0.0, "is_disabled": 0}, {"rental_uris": {"android": "https://dc.lft.to/lastmile_qr_scan", "ios": "https://dc.lft.to/lastmile_qr_scan"}, "type": "electric_scooter", "lon": -77.04182033333333, "name": "571c48280f4bd4a3e95a5496c37a3237", "bike_id": "571c48280f4bd4a3e95a5496c37a3237", "fusion_lat": 0.0, "is_reserved": 0, "lat": 38.92312033333333, "fusion_lon": 0.0, "is_disabled": 0}, {"rental_uris": {"android": "https://dc.lft.to/lastmile_qr_scan", "ios": "https://dc.lft.to/lastmile_qr_scan"}, "type": "electric_scooter", "lon": -76.99956183333333, "name": "1cf3d8af586fbf0ac7ffb35c7d9ee1cf", "bike_id": "1cf3d8af586fbf0ac7ffb35c7d9ee1cf", "fusion_lat": 0.0, "is_reserved": 0, "lat": 38.908649, "fusion_lon": 0.0, "is_disabled": 0}, {"rental_uris": {"android": "https://dc.lft.to/lastmile_qr_scan", "ios": "https://dc.lft.to/lastmile_qr_scan"}, "type": "electric_scooter", "lon": -77.02, "name": "40ed82c1abbe231cf4e49aa1ed5732c6", "bike_id": "40ed82c1abbe231cf4e49aa1ed5732c6", "fusion_lat": 0.0, "is_reserved": 0, "lat": 38.913321, "fusion_lon": 0.0, "is_disabled": 0}, {"rental_uris": {"android": "https://dc.lft.to/lastmile_qr_scan", "ios": "https://dc.lft.to/lastmile_qr_scan"}, "type": "electric_scooter", "lon": -77.027125, "name": "8b55a383d693022128535b990f402d3f", "bike_id": "8b55a383d693022128535b990f402d3f", "fusion_lat": 0.0, "is_reserved": 0, "lat": 38.89723166666667, "fusion_lon": 0.0, "is_disabled": 0}, {"rental_uris": {"android": "https://dc.lft.to/lastmile_qr_scan", "ios": "https://dc.lft.to/lastmile_qr_scan"}, "type": "electric_scooter", "lon": -77.02725716666667, "name": "e97376c48200c13b64ed2da2b3d432f8", "bike_id": "e97376c48200c13b64ed2da2b3d432f8", "fusion_lat": 0.0, "is_reserved": 0, "lat": 38.95137066666667, "fusion_lon": 0.0, "is_disabled": 0}, {"rental_uris": {"android": "https://dc.lft.to/lastmile_qr_scan", "ios": "https://dc.lft.to/lastmile_qr_scan"}, "type": "electric_bike", "lon": -77.35314283333334, "name": "b84f8ceb4c0f10e1428cdfe694a9cb06", "bike_id": "b84f8ceb4c0f10e1428cdfe694a9cb06", "fusion_lat": 0.0, "is_reserved": 0, "lat": 38.95002016666667, "fusion_lon": 0.0, "is_disabled": 0}, {"rental_uris": {"android": "https://dc.lft.to/lastmile_qr_scan", "ios": "https://dc.lft.to/lastmile_qr_scan"}, "type": "electric_scooter", "lon": -77.03441233333334, "name": "3ed61fcf75ae0610cc1eeb6013d73a84", "bike_id": "3ed61fcf75ae0610cc1eeb6013d73a84", "fusion_lat": 0.0, "is_reserved": 0, "lat": 38.90271883333333, "fusion_lon": 0.0, "is_disabled": 0}, {"rental_uris": {"android": "https://dc.lft.to/lastmile_qr_scan", "ios": "https://dc.lft.to/lastmile_qr_scan"}, "type": "electric_bike", "lon": -77.01994116666667, "name": "c1d469a76a5191d58a248d312b7081c1", "bike_id": "c1d469a76a5191d58a248d312b7081c1", "fusion_lat": 0.0, "is_reserved": 0, "lat": 38.960188, "fusion_lon": 0.0, "is_disabled": 0}, {"rental_uris": {"android": "https://dc.lft.to/lastmile_qr_scan", "ios": "https://dc.lft.to/lastmile_qr_scan"}, "type": "electric_scooter", "lon": -77.00931633333333, "name": "f53985930e7dee8ceff002b5a3a25675", "bike_id": "f53985930e7dee8ceff002b5a3a25675", "fusion_lat": 0.0, "is_reserved": 0, "lat": 38.896027333333336, "fusion_lon": 0.0, "is_disabled": 0}, {"rental_uris": {"android": "https://dc.lft.to/lastmile_qr_scan", "ios": "https://dc.lft.to/lastmile_qr_scan"}, "type": "electric_scooter", "lon": -77.0423095, "name": "89b1a53d140924202c164db4d89b090e", "bike_id": "89b1a53d140924202c164db4d89b090e", "fusion_lat": 0.0, "is_reserved": 0, "lat": 38.9219895, "fusion_lon": 0.0, "is_disabled": 0}, {"rental_uris": {"android": "https://dc.lft.to/lastmile_qr_scan", "ios": "https://dc.lft.to/lastmile_qr_scan"}, "type": "electric_scooter", "lon": -77.00373616666667, "name": "ceb2df1976185a7abf0e17673803f96e", "bike_id": "ceb2df1976185a7abf0e17673803f96e", "fusion_lat": 0.0, "is_reserved": 0, "lat": 38.90717333333333, "fusion_lon": 0.0, "is_disabled": 0}, {"rental_uris": {"android": "https://dc.lft.to/lastmile_qr_scan", "ios": "https://dc.lft.to/lastmile_qr_scan"}, "type": "electric_scooter", "lon": -77.05438516666666, "name": "8bea109f977c5e8f0c96c41d0817c0da", "bike_id": "8bea109f977c5e8f0c96c41d0817c0da", "fusion_lat": 0.0, "is_reserved": 0, "lat": 38.92312316666667, "fusion_lon": 0.0, "is_disabled": 0}, {"rental_uris": {"android": "https://dc.lft.to/lastmile_qr_scan", "ios": "https://dc.lft.to/lastmile_qr_scan"}, "type": "electric_scooter", "lon": -77.00586183333333, "name": "9c0879272e57faa2985766150ad14cbe", "bike_id": "9c0879272e57faa2985766150ad14cbe", "fusion_lat": 0.0, "is_reserved": 0, "lat": 38.905657166666664, "fusion_lon": 0.0, "is_disabled": 0}, {"rental_uris": {"android": "https://dc.lft.to/lastmile_qr_scan", "ios": "https://dc.lft.to/lastmile_qr_scan"}, "type": "electric_scooter", "lon": -77.02173116666667, "name": "d8e4f6cb91d7901eb089ed068fa62561", "bike_id": "d8e4f6cb91d7901eb089ed068fa62561", "fusion_lat": 0.0, "is_reserved": 0, "lat": 38.899591666666666, "fusion_lon": 0.0, "is_disabled": 0}, {"rental_uris": {"android": "https://dc.lft.to/lastmile_qr_scan", "ios": "https://dc.lft.to/lastmile_qr_scan"}, "type": "electric_scooter", "lon": -77.02644133333334, "name": "5d79b2a75d8ca4b107394a12686a8eea", "bike_id": "5d79b2a75d8ca4b107394a12686a8eea", "fusion_lat": 0.0, "is_reserved": 0, "lat": 38.881004833333336, "fusion_lon": 0.0, "is_disabled": 0}, {"rental_uris": {"android": "https://dc.lft.to/lastmile_qr_scan", "ios": "https://dc.lft.to/lastmile_qr_scan"}, "type": "electric_scooter", "lon": -76.988267, "name": "da7a540b48b9f6e93c2213e9c62b3fd3", "bike_id": "da7a540b48b9f6e93c2213e9c62b3fd3", "fusion_lat": 0.0, "is_reserved": 0, "lat": 38.880197, "fusion_lon": 0.0, "is_disabled": 0}, {"rental_uris": {"android": "https://dc.lft.to/lastmile_qr_scan", "ios": "https://dc.lft.to/lastmile_qr_scan"}, "type": "electric_scooter", "lon": -77.0346705, "name": "8c1c164cef54b9f03461d5a3cd23e91e", "bike_id": "8c1c164cef54b9f03461d5a3cd23e91e", "fusion_lat": 0.0, "is_reserved": 0, "lat": 38.9027805, "fusion_lon": 0.0, "is_disabled": 0}, {"rental_uris": {"android": "https://dc.lft.to/lastmile_qr_scan", "ios": "https://dc.lft.to/lastmile_qr_scan"}, "type": "electric_scooter", "lon": -76.9745455, "name": "fac1498a70a303d8d7712b9c53d54083", "bike_id": "fac1498a70a303d8d7712b9c53d54083", "fusion_lat": 0.0, "is_reserved": 0, "lat": 38.86370483333334, "fusion_lon": 0.0, "is_disabled": 0}, {"rental_uris": {"android": "https://dc.lft.to/lastmile_qr_scan", "ios": "https://dc.lft.to/lastmile_qr_scan"}, "type": "electric_scooter", "lon": -77.04223883333333, "name": "134210cf7cd483818286789d37272b71", "bike_id": "134210cf7cd483818286789d37272b71", "fusion_lat": 0.0, "is_reserved": 0, "lat": 38.911067, "fusion_lon": 0.0, "is_disabled": 0}, {"rental_uris": {"android": "https://dc.lft.to/lastmile_qr_scan", "ios": "https://dc.lft.to/lastmile_qr_scan"}, "type": "electric_scooter", "lon": -77.041799, "name": "15773872852b4d7093e54f89481420c4", "bike_id": "15773872852b4d7093e54f89481420c4", "fusion_lat": 0.0, "is_reserved": 0, "lat": 38.92049766666667, "fusion_lon": 0.0, "is_disabled": 0}, {"rental_uris": {"android": "https://dc.lft.to/lastmile_qr_scan", "ios": "https://dc.lft.to/lastmile_qr_scan"}, "type": "electric_scooter", "lon": -77.03319233333333, "name": "365a76228ee94281023f95888b6aeda9", "bike_id": "365a76228ee94281023f95888b6aeda9", "fusion_lat": 0.0, "is_reserved": 0, "lat": 38.8985015, "fusion_lon": 0.0, "is_disabled": 0}, {"rental_uris": {"android": "https://dc.lft.to/lastmile_qr_scan", "ios": "https://dc.lft.to/lastmile_qr_scan"}, "type": "electric_scooter", "lon": -77.04482933333334, "name": "caf509d5e5c45735e7b5c94611a4df4d", "bike_id": "caf509d5e5c45735e7b5c94611a4df4d", "fusion_lat": 0.0, "is_reserved": 0, "lat": 38.91237816666667, "fusion_lon": 0.0, "is_disabled": 0}, {"rental_uris": {"android": "https://dc.lft.to/lastmile_qr_scan", "ios": "https://dc.lft.to/lastmile_qr_scan"}, "type": "electric_scooter", "lon": -77.0419975, "name": "05e79aaad94c46a1e82a99372a2f0372", "bike_id": "05e79aaad94c46a1e82a99372a2f0372", "fusion_lat": 0.0, "is_reserved": 0, "lat": 38.8922135, "fusion_lon": 0.0, "is_disabled": 0}, {"rental_uris": {"android": "https://dc.lft.to/lastmile_qr_scan", "ios": "https://dc.lft.to/lastmile_qr_scan"}, "type": "electric_scooter", "lon": -77.03745533333333, "name": "0d75271c4e4361ccc50f92c6a5fae54e", "bike_id": "0d75271c4e4361ccc50f92c6a5fae54e", "fusion_lat": 0.0, "is_reserved": 0, "lat": 38.92934016666667, "fusion_lon": 0.0, "is_disabled": 0}, {"rental_uris": {"android": "https://dc.lft.to/lastmile_qr_scan", "ios": "https://dc.lft.to/lastmile_qr_scan"}, "type": "electric_bike", "lon": -77.11218816666667, "name": "cbe84a39c81facc6e3483858d79e7e13", "bike_id": "cbe84a39c81facc6e3483858d79e7e13", "fusion_lat": 0.0, "is_reserved": 0, "lat": 38.812216, "fusion_lon": 0.0, "is_disabled": 0}, {"rental_uris": {"android": "https://dc.lft.to/lastmile_qr_scan", "ios": "https://dc.lft.to/lastmile_qr_scan"}, "type": "electric_scooter", "lon": -77.032598, "name": "8bbe362934fd1c501011dd23ca20d7ed", "bike_id": "8bbe362934fd1c501011dd23ca20d7ed", "fusion_lat": 0.0, "is_reserved": 0, "lat": 38.8972175, "fusion_lon": 0.0, "is_disabled": 0}, {"rental_uris": {"android": "https://dc.lft.to/lastmile_qr_scan", "ios": "https://dc.lft.to/lastmile_qr_scan"}, "type": "electric_scooter", "lon": -77.0279155, "name": "c451aac9f2a6017832d6c0524596f014", "bike_id": "c451aac9f2a6017832d6c0524596f014", "fusion_lat": 0.0, "is_reserved": 0, "lat": 38.93083133333333, "fusion_lon": 0.0, "is_disabled": 0}, {"rental_uris": {"android": "https://dc.lft.to/lastmile_qr_scan", "ios": "https://dc.lft.to/lastmile_qr_scan"}, "type": "electric_scooter", "lon": -77.02154, "name": "edd697dbc7af9096ea2241170c2234d3", "bike_id": "edd697dbc7af9096ea2241170c2234d3", "fusion_lat": 0.0, "is_reserved": 0, "lat": 38.925973666666664, "fusion_lon": 0.0, "is_disabled": 0}, {"rental_uris": {"android": "https://dc.lft.to/lastmile_qr_scan", "ios": "https://dc.lft.to/lastmile_qr_scan"}, "type": "electric_scooter", "lon": -77.02208216666666, "name": "5044082ee5a0aedd4a21583898d3d50d", "bike_id": "5044082ee5a0aedd4a21583898d3d50d", "fusion_lat": 0.0, "is_reserved": 0, "lat": 38.88714383333333, "fusion_lon": 0.0, "is_disabled": 0}, {"rental_uris": {"android": "https://dc.lft.to/lastmile_qr_scan", "ios": "https://dc.lft.to/lastmile_qr_scan"}, "type": "electric_bike", "lon": -77.10180933333334, "name": "2583315cccf959fe3fc3f43634e14263", "bike_id": "2583315cccf959fe3fc3f43634e14263", "fusion_lat": 0.0, "is_reserved": 0, "lat": 38.918113, "fusion_lon": 0.0, "is_disabled": 0}, {"rental_uris": {"android": "https://dc.lft.to/lastmile_qr_scan", "ios": "https://dc.lft.to/lastmile_qr_scan"}, "type": "electric_bike", "lon": -76.983318, "name": "51cd77037845372510da3edf746992bb", "bike_id": "51cd77037845372510da3edf746992bb", "fusion_lat": 0.0, "is_reserved": 0, "lat": 38.966044833333335, "fusion_lon": 0.0, "is_disabled": 0}, {"rental_uris": {"android": "https://dc.lft.to/lastmile_qr_scan", "ios": "https://dc.lft.to/lastmile_qr_scan"}, "type": "electric_scooter", "lon": -77.0061885, "name": "4c4406a06857d9ef3d5c5d3e9e4877ce", "bike_id": "4c4406a06857d9ef3d5c5d3e9e4877ce", "fusion_lat": 0.0, "is_reserved": 0, "lat": 38.88498833333333, "fusion_lon": 0.0, "is_disabled": 0}, {"rental_uris": {"android": "https://dc.lft.to/lastmile_qr_scan", "ios": "https://dc.lft.to/lastmile_qr_scan"}, "type": "electric_scooter", "lon": -77.03283216666667, "name": "23f51ac0b850a541b5763161d5a77f2e", "bike_id": "23f51ac0b850a541b5763161d5a77f2e", "fusion_lat": 0.0, "is_reserved": 0, "lat": 38.93677816666667, "fusion_lon": 0.0, "is_disabled": 0}, {"rental_uris": {"android": "https://dc.lft.to/lastmile_qr_scan", "ios": "https://dc.lft.to/lastmile_qr_scan"}, "type": "electric_bike", "lon": -76.98117916666666, "name": "9f3284b77b579f7c3e06bf872ddd7792", "bike_id": "9f3284b77b579f7c3e06bf872ddd7792", "fusion_lat": 0.0, "is_reserved": 0, "lat": 38.896648, "fusion_lon": 0.0, "is_disabled": 0}, {"rental_uris": {"android": "https://dc.lft.to/lastmile_qr_scan", "ios": "https://dc.lft.to/lastmile_qr_scan"}, "type": "electric_scooter", "lon": -77.03667833333333, "name": "0c7ad6cde396e2f7d1d7391ab4eef3e3", "bike_id": "0c7ad6cde396e2f7d1d7391ab4eef3e3", "fusion_lat": 0.0, "is_reserved": 0, "lat": 38.90263983333333, "fusion_lon": 0.0, "is_disabled": 0}, {"rental_uris": {"android": "https://dc.lft.to/lastmile_qr_scan", "ios": "https://dc.lft.to/lastmile_qr_scan"}, "type": "electric_scooter", "lon": -77.01402283333333, "name": "d4f4e347747d7548123e34c4d93fce64", "bike_id": "d4f4e347747d7548123e34c4d93fce64", "fusion_lat": 0.0, "is_reserved": 0, "lat": 38.928351666666664, "fusion_lon": 0.0, "is_disabled": 0}, {"rental_uris": {"android": "https://dc.lft.to/lastmile_qr_scan", "ios": "https://dc.lft.to/lastmile_qr_scan"}, "type": "electric_scooter", "lon": -77.061057, "name": "5afcdad8b3f3da58ecfaee68873b37ca", "bike_id": "5afcdad8b3f3da58ecfaee68873b37ca", "fusion_lat": 0.0, "is_reserved": 0, "lat": 38.94371783333333, "fusion_lon": 0.0, "is_disabled": 0}, {"rental_uris": {"android": "https://dc.lft.to/lastmile_qr_scan", "ios": "https://dc.lft.to/lastmile_qr_scan"}, "type": "electric_scooter", "lon": -77.020233, "name": "c42ba203804257e043f3e33d30402cfe", "bike_id": "c42ba203804257e043f3e33d30402cfe", "fusion_lat": 0.0, "is_reserved": 0, "lat": 38.924245, "fusion_lon": 0.0, "is_disabled": 0}, {"rental_uris": {"android": "https://dc.lft.to/lastmile_qr_scan", "ios": "https://dc.lft.to/lastmile_qr_scan"}, "type": "electric_scooter", "lon": -77.02183183333334, "name": "b8b4cbfd27e33ba638021b2c0a4a9fe8", "bike_id": "b8b4cbfd27e33ba638021b2c0a4a9fe8", "fusion_lat": 0.0, "is_reserved": 0, "lat": 38.91120166666666, "fusion_lon": 0.0, "is_disabled": 0}, {"rental_uris": {"android": "https://dc.lft.to/lastmile_qr_scan", "ios": "https://dc.lft.to/lastmile_qr_scan"}, "type": "electric_scooter", "lon": -77.04872383333333, "name": "bc8e552fbc8fec7b83f3d02eca93fad6", "bike_id": "bc8e552fbc8fec7b83f3d02eca93fad6", "fusion_lat": 0.0, "is_reserved": 0, "lat": 38.90088733333333, "fusion_lon": 0.0, "is_disabled": 0}, {"rental_uris": {"android": "https://dc.lft.to/lastmile_qr_scan", "ios": "https://dc.lft.to/lastmile_qr_scan"}, "type": "electric_scooter", "lon": -77.04006866666667, "name": "b78f0a74ca8862cee15286bef9a6abc4", "bike_id": "b78f0a74ca8862cee15286bef9a6abc4", "fusion_lat": 0.0, "is_reserved": 0, "lat": 38.9033805, "fusion_lon": 0.0, "is_disabled": 0}, {"rental_uris": {"android": "https://dc.lft.to/lastmile_qr_scan", "ios": "https://dc.lft.to/lastmile_qr_scan"}, "type": "electric_scooter", "lon": -76.99028316666667, "name": "fe8f2479777a2da388e090ccbbcde172", "bike_id": "fe8f2479777a2da388e090ccbbcde172", "fusion_lat": 0.0, "is_reserved": 0, "lat": 38.86404066666667, "fusion_lon": 0.0, "is_disabled": 0}, {"rental_uris": {"android": "https://dc.lft.to/lastmile_qr_scan", "ios": "https://dc.lft.to/lastmile_qr_scan"}, "type": "electric_scooter", "lon": -77.04413016666666, "name": "ec0da0f13bda15b9876b52fba054849c", "bike_id": "ec0da0f13bda15b9876b52fba054849c", "fusion_lat": 0.0, "is_reserved": 0, "lat": 38.9255145, "fusion_lon": 0.0, "is_disabled": 0}, {"rental_uris": {"android": "https://dc.lft.to/lastmile_qr_scan", "ios": "https://dc.lft.to/lastmile_qr_scan"}, "type": "electric_scooter", "lon": -76.997256, "name": "d3c662745fe0418a5706ca2282f2165e", "bike_id": "d3c662745fe0418a5706ca2282f2165e", "fusion_lat": 0.0, "is_reserved": 0, "lat": 38.89886533333333, "fusion_lon": 0.0, "is_disabled": 0}, {"rental_uris": {"android": "https://dc.lft.to/lastmile_qr_scan", "ios": "https://dc.lft.to/lastmile_qr_scan"}, "type": "electric_scooter", "lon": -77.03048533333333, "name": "5c57bc10f1ce84fff860ac0425a44df2", "bike_id": "5c57bc10f1ce84fff860ac0425a44df2", "fusion_lat": 0.0, "is_reserved": 0, "lat": 38.884035, "fusion_lon": 0.0, "is_disabled": 0}, {"rental_uris": {"android": "https://dc.lft.to/lastmile_qr_scan", "ios": "https://dc.lft.to/lastmile_qr_scan"}, "type": "electric_scooter", "lon": -77.05227883333333, "name": "0284776154a8ca9fe38f7be76af603fd", "bike_id": "0284776154a8ca9fe38f7be76af603fd", "fusion_lat": 0.0, "is_reserved": 0, "lat": 38.924411166666665, "fusion_lon": 0.0, "is_disabled": 0}, {"rental_uris": {"android": "https://dc.lft.to/lastmile_qr_scan", "ios": "https://dc.lft.to/lastmile_qr_scan"}, "type": "electric_scooter", "lon": -77.06759033333333, "name": "2d26532fc411b1929bc85b4d53b1ef79", "bike_id": "2d26532fc411b1929bc85b4d53b1ef79", "fusion_lat": 0.0, "is_reserved": 0, "lat": 38.903807666666665, "fusion_lon": 0.0, "is_disabled": 0}, {"rental_uris": {"android": "https://dc.lft.to/lastmile_qr_scan", "ios": "https://dc.lft.to/lastmile_qr_scan"}, "type": "electric_scooter", "lon": -77.00594366666667, "name": "4aca8d6f991dc532a4b48524a09d4137", "bike_id": "4aca8d6f991dc532a4b48524a09d4137", "fusion_lat": 0.0, "is_reserved": 0, "lat": 38.908202833333334, "fusion_lon": 0.0, "is_disabled": 0}, {"rental_uris": {"android": "https://dc.lft.to/lastmile_qr_scan", "ios": "https://dc.lft.to/lastmile_qr_scan"}, "type": "electric_scooter", "lon": -77.03477566666666, "name": "700d210ffbfe26852aafd4d137366ca6", "bike_id": "700d210ffbfe26852aafd4d137366ca6", "fusion_lat": 0.0, "is_reserved": 0, "lat": 38.928554, "fusion_lon": 0.0, "is_disabled": 0}, {"rental_uris": {"android": "https://dc.lft.to/lastmile_qr_scan", "ios": "https://dc.lft.to/lastmile_qr_scan"}, "type": "electric_scooter", "lon": -77.02953716666667, "name": "37be142713306c05236c0a0cc998feb9", "bike_id": "37be142713306c05236c0a0cc998feb9", "fusion_lat": 0.0, "is_reserved": 0, "lat": 38.91712966666667, "fusion_lon": 0.0, "is_disabled": 0}, {"rental_uris": {"android": "https://dc.lft.to/lastmile_qr_scan", "ios": "https://dc.lft.to/lastmile_qr_scan"}, "type": "electric_scooter", "lon": -76.94854116666667, "name": "57bdc47797222bdd9a0ea76629eb06b5", "bike_id": "57bdc47797222bdd9a0ea76629eb06b5", "fusion_lat": 0.0, "is_reserved": 0, "lat": 38.883018166666666, "fusion_lon": 0.0, "is_disabled": 0}, {"rental_uris": {"android": "https://dc.lft.to/lastmile_qr_scan", "ios": "https://dc.lft.to/lastmile_qr_scan"}, "type": "electric_scooter", "lon": -77.0345315, "name": "2a24cbd86abc6f8de33f885ca14d00b1", "bike_id": "2a24cbd86abc6f8de33f885ca14d00b1", "fusion_lat": 0.0, "is_reserved": 0, "lat": 38.90502733333334, "fusion_lon": 0.0, "is_disabled": 0}, {"rental_uris": {"android": "https://dc.lft.to/lastmile_qr_scan", "ios": "https://dc.lft.to/lastmile_qr_scan"}, "type": "electric_scooter", "lon": -77.061889, "name": "9ed9345d276bbc778ebf2a0338624b9d", "bike_id": "9ed9345d276bbc778ebf2a0338624b9d", "fusion_lat": 0.0, "is_reserved": 0, "lat": 38.93018883333333, "fusion_lon": 0.0, "is_disabled": 0}, {"rental_uris": {"android": "https://dc.lft.to/lastmile_qr_scan", "ios": "https://dc.lft.to/lastmile_qr_scan"}, "type": "electric_scooter", "lon": -77.03430633333333, "name": "a88a8e0b4d2393f473159bbf18704586", "bike_id": "a88a8e0b4d2393f473159bbf18704586", "fusion_lat": 0.0, "is_reserved": 0, "lat": 38.90387833333333, "fusion_lon": 0.0, "is_disabled": 0}, {"rental_uris": {"android": "https://dc.lft.to/lastmile_qr_scan", "ios": "https://dc.lft.to/lastmile_qr_scan"}, "type": "electric_scooter", "lon": -77.01151616666667, "name": "a714ce4181ca8c8062084b5668a42a6f", "bike_id": "a714ce4181ca8c8062084b5668a42a6f", "fusion_lat": 0.0, "is_reserved": 0, "lat": 38.90294266666667, "fusion_lon": 0.0, "is_disabled": 0}, {"rental_uris": {"android": "https://dc.lft.to/lastmile_qr_scan", "ios": "https://dc.lft.to/lastmile_qr_scan"}, "type": "electric_scooter", "lon": -76.987604, "name": "7fd0e7af9e6b665f5839c56c1effeaa6", "bike_id": "7fd0e7af9e6b665f5839c56c1effeaa6", "fusion_lat": 0.0, "is_reserved": 0, "lat": 38.845012833333335, "fusion_lon": 0.0, "is_disabled": 0}, {"rental_uris": {"android": "https://dc.lft.to/lastmile_qr_scan", "ios": "https://dc.lft.to/lastmile_qr_scan"}, "type": "electric_scooter", "lon": -76.99030633333334, "name": "f314f43a8874cdd7fdb55df7f36b406d", "bike_id": "f314f43a8874cdd7fdb55df7f36b406d", "fusion_lat": 0.0, "is_reserved": 0, "lat": 38.860657, "fusion_lon": 0.0, "is_disabled": 0}, {"rental_uris": {"android": "https://dc.lft.to/lastmile_qr_scan", "ios": "https://dc.lft.to/lastmile_qr_scan"}, "type": "electric_bike", "lon": -77.14323016666667, "name": "b57d8d63c4b93b894d0b81e6968b743a", "bike_id": "b57d8d63c4b93b894d0b81e6968b743a", "fusion_lat": 0.0, "is_reserved": 0, "lat": 39.05454016666667, "fusion_lon": 0.0, "is_disabled": 0}, {"rental_uris": {"android": "https://dc.lft.to/lastmile_qr_scan", "ios": "https://dc.lft.to/lastmile_qr_scan"}, "type": "electric_scooter", "lon": -77.01898383333334, "name": "15475f3a969f4cafcb70de064da52f30", "bike_id": "15475f3a969f4cafcb70de064da52f30", "fusion_lat": 0.0, "is_reserved": 0, "lat": 38.9234185, "fusion_lon": 0.0, "is_disabled": 0}, {"rental_uris": {"android": "https://dc.lft.to/lastmile_qr_scan", "ios": "https://dc.lft.to/lastmile_qr_scan"}, "type": "electric_scooter", "lon": -77.01439716666667, "name": "b7770820f36e9a1ddce40b830183c358", "bike_id": "b7770820f36e9a1ddce40b830183c358", "fusion_lat": 0.0, "is_reserved": 0, "lat": 38.87777616666666, "fusion_lon": 0.0, "is_disabled": 0}, {"rental_uris": {"android": "https://dc.lft.to/lastmile_qr_scan", "ios": "https://dc.lft.to/lastmile_qr_scan"}, "type": "electric_bike", "lon": -76.979486, "name": "d2834cfe6edf250fe600c6b82a767d31", "bike_id": "d2834cfe6edf250fe600c6b82a767d31", "fusion_lat": 0.0, "is_reserved": 0, "lat": 38.898068333333335, "fusion_lon": 0.0, "is_disabled": 0}, {"rental_uris": {"android": "https://dc.lft.to/lastmile_qr_scan", "ios": "https://dc.lft.to/lastmile_qr_scan"}, "type": "electric_scooter", "lon": -76.995166, "name": "14a5600bec0fb8b7c4dfa14ebe77988b", "bike_id": "14a5600bec0fb8b7c4dfa14ebe77988b", "fusion_lat": 0.0, "is_reserved": 0, "lat": 38.89477083333333, "fusion_lon": 0.0, "is_disabled": 0}, {"rental_uris": {"android": "https://dc.lft.to/lastmile_qr_scan", "ios": "https://dc.lft.to/lastmile_qr_scan"}, "type": "electric_scooter", "lon": -77.04320833333334, "name": "b131fb3cdca84d8afce5b8fe579318c1", "bike_id": "b131fb3cdca84d8afce5b8fe579318c1", "fusion_lat": 0.0, "is_reserved": 0, "lat": 38.91114866666667, "fusion_lon": 0.0, "is_disabled": 0}, {"rental_uris": {"android": "https://dc.lft.to/lastmile_qr_scan", "ios": "https://dc.lft.to/lastmile_qr_scan"}, "type": "electric_scooter", "lon": -77.03149416666666, "name": "1aa9737d16b8f7a6768666544210cd75", "bike_id": "1aa9737d16b8f7a6768666544210cd75", "fusion_lat": 0.0, "is_reserved": 0, "lat": 38.88748666666667, "fusion_lon": 0.0, "is_disabled": 0}, {"rental_uris": {"android": "https://dc.lft.to/lastmile_qr_scan", "ios": "https://dc.lft.to/lastmile_qr_scan"}, "type": "electric_scooter", "lon": -77.05290133333334, "name": "36e9e7334ae545957072ddbf8b88baab", "bike_id": "36e9e7334ae545957072ddbf8b88baab", "fusion_lat": 0.0, "is_reserved": 0, "lat": 38.926094666666664, "fusion_lon": 0.0, "is_disabled": 0}, {"rental_uris": {"android": "https://dc.lft.to/lastmile_qr_scan", "ios": "https://dc.lft.to/lastmile_qr_scan"}, "type": "electric_scooter", "lon": -77.02382916666667, "name": "8066b499084b66145046a2f66ac4984a", "bike_id": "8066b499084b66145046a2f66ac4984a", "fusion_lat": 0.0, "is_reserved": 0, "lat": 38.893890999999996, "fusion_lon": 0.0, "is_disabled": 0}, {"rental_uris": {"android": "https://dc.lft.to/lastmile_qr_scan", "ios": "https://dc.lft.to/lastmile_qr_scan"}, "type": "electric_scooter", "lon": -77.055166, "name": "2408fa1bad4c18ba0b0d1fb1914aec75", "bike_id": "2408fa1bad4c18ba0b0d1fb1914aec75", "fusion_lat": 0.0, "is_reserved": 0, "lat": 38.94414316666666, "fusion_lon": 0.0, "is_disabled": 0}, {"rental_uris": {"android": "https://dc.lft.to/lastmile_qr_scan", "ios": "https://dc.lft.to/lastmile_qr_scan"}, "type": "electric_scooter", "lon": -77.03582733333333, "name": "913afd8e47f8e945f586e96ece4f6b42", "bike_id": "913afd8e47f8e945f586e96ece4f6b42", "fusion_lat": 0.0, "is_reserved": 0, "lat": 38.9038505, "fusion_lon": 0.0, "is_disabled": 0}, {"rental_uris": {"android": "https://dc.lft.to/lastmile_qr_scan", "ios": "https://dc.lft.to/lastmile_qr_scan"}, "type": "electric_scooter", "lon": -76.94838583333333, "name": "6e7a114b71fa4df49ad97772e032a198", "bike_id": "6e7a114b71fa4df49ad97772e032a198", "fusion_lat": 0.0, "is_reserved": 0, "lat": 38.89486216666667, "fusion_lon": 0.0, "is_disabled": 0}, {"rental_uris": {"android": "https://dc.lft.to/lastmile_qr_scan", "ios": "https://dc.lft.to/lastmile_qr_scan"}, "type": "electric_scooter", "lon": -77.0344405, "name": "92cc08c6828f073a4f70c82ca3bcb2d2", "bike_id": "92cc08c6828f073a4f70c82ca3bcb2d2", "fusion_lat": 0.0, "is_reserved": 0, "lat": 38.902671833333336, "fusion_lon": 0.0, "is_disabled": 0}, {"rental_uris": {"android": "https://dc.lft.to/lastmile_qr_scan", "ios": "https://dc.lft.to/lastmile_qr_scan"}, "type": "electric_scooter", "lon": -77.03821583333334, "name": "5337b3bf9e13764b3bc69d1185b4ca2a", "bike_id": "5337b3bf9e13764b3bc69d1185b4ca2a", "fusion_lat": 0.0, "is_reserved": 0, "lat": 38.90719133333333, "fusion_lon": 0.0, "is_disabled": 0}, {"rental_uris": {"android": "https://dc.lft.to/lastmile_qr_scan", "ios": "https://dc.lft.to/lastmile_qr_scan"}, "type": "electric_scooter", "lon": -77.00104783333333, "name": "198ce320bba96470f87d57312acd6bd4", "bike_id": "198ce320bba96470f87d57312acd6bd4", "fusion_lat": 0.0, "is_reserved": 0, "lat": 38.916306666666664, "fusion_lon": 0.0, "is_disabled": 0}, {"rental_uris": {"android": "https://dc.lft.to/lastmile_qr_scan", "ios": "https://dc.lft.to/lastmile_qr_scan"}, "type": "electric_scooter", "lon": -76.9860925, "name": "904fc3bbb34fef9033a46c20c15a0916", "bike_id": "904fc3bbb34fef9033a46c20c15a0916", "fusion_lat": 0.0, "is_reserved": 0, "lat": 38.854426, "fusion_lon": 0.0, "is_disabled": 0}, {"rental_uris": {"android": "https://dc.lft.to/lastmile_qr_scan", "ios": "https://dc.lft.to/lastmile_qr_scan"}, "type": "electric_scooter", "lon": -77.045783, "name": "2e381bba24fa8e396cfbf104b8b6d7d2", "bike_id": "2e381bba24fa8e396cfbf104b8b6d7d2", "fusion_lat": 0.0, "is_reserved": 0, "lat": 38.9212625, "fusion_lon": 0.0, "is_disabled": 0}, {"rental_uris": {"android": "https://dc.lft.to/lastmile_qr_scan", "ios": "https://dc.lft.to/lastmile_qr_scan"}, "type": "electric_bike", "lon": -76.99397233333333, "name": "286f424f74cad4ac5f6717e6f8bf7f4b", "bike_id": "286f424f74cad4ac5f6717e6f8bf7f4b", "fusion_lat": 0.0, "is_reserved": 0, "lat": 38.92260383333333, "fusion_lon": 0.0, "is_disabled": 0}, {"rental_uris": {"android": "https://dc.lft.to/lastmile_qr_scan", "ios": "https://dc.lft.to/lastmile_qr_scan"}, "type": "electric_bike", "lon": -76.99060366666667, "name": "daac56887b0331ae003fb1b05384e6ad", "bike_id": "daac56887b0331ae003fb1b05384e6ad", "fusion_lat": 0.0, "is_reserved": 0, "lat": 38.9369145, "fusion_lon": 0.0, "is_disabled": 0}, {"rental_uris": {"android": "https://dc.lft.to/lastmile_qr_scan", "ios": "https://dc.lft.to/lastmile_qr_scan"}, "type": "electric_scooter", "lon": -76.94853216666667, "name": "4adb20cb175bdb74e9a8e062e67941d0", "bike_id": "4adb20cb175bdb74e9a8e062e67941d0", "fusion_lat": 0.0, "is_reserved": 0, "lat": 38.8830625, "fusion_lon": 0.0, "is_disabled": 0}, {"rental_uris": {"android": "https://dc.lft.to/lastmile_qr_scan", "ios": "https://dc.lft.to/lastmile_qr_scan"}, "type": "electric_bike", "lon": -77.095509, "name": "ed94b7dc0f251dceb2bc57a49fd1faa7", "bike_id": "ed94b7dc0f251dceb2bc57a49fd1faa7", "fusion_lat": 0.0, "is_reserved": 0, "lat": 38.83806533333333, "fusion_lon": 0.0, "is_disabled": 0}, {"rental_uris": {"android": "https://dc.lft.to/lastmile_qr_scan", "ios": "https://dc.lft.to/lastmile_qr_scan"}, "type": "electric_bike", "lon": -77.10099666666666, "name": "72602ac1b593adf20c30da40675ed2c7", "bike_id": "72602ac1b593adf20c30da40675ed2c7", "fusion_lat": 0.0, "is_reserved": 0, "lat": 38.858656833333335, "fusion_lon": 0.0, "is_disabled": 0}, {"rental_uris": {"android": "https://dc.lft.to/lastmile_qr_scan", "ios": "https://dc.lft.to/lastmile_qr_scan"}, "type": "electric_scooter", "lon": -76.98411883333333, "name": "f5fc48300521bd9a5f3cc28b2f70b8f6", "bike_id": "f5fc48300521bd9a5f3cc28b2f70b8f6", "fusion_lat": 0.0, "is_reserved": 0, "lat": 38.8597475, "fusion_lon": 0.0, "is_disabled": 0}, {"rental_uris": {"android": "https://dc.lft.to/lastmile_qr_scan", "ios": "https://dc.lft.to/lastmile_qr_scan"}, "type": "electric_scooter", "lon": -77.02942283333333, "name": "b2ab8857796146468ba302247c64ac95", "bike_id": "b2ab8857796146468ba302247c64ac95", "fusion_lat": 0.0, "is_reserved": 0, "lat": 38.907801666666664, "fusion_lon": 0.0, "is_disabled": 0}, {"rental_uris": {"android": "https://dc.lft.to/lastmile_qr_scan", "ios": "https://dc.lft.to/lastmile_qr_scan"}, "type": "electric_scooter", "lon": -77.02761916666667, "name": "ea4154a0fb639d449864fcf7e842d0cc", "bike_id": "ea4154a0fb639d449864fcf7e842d0cc", "fusion_lat": 0.0, "is_reserved": 0, "lat": 38.9428935, "fusion_lon": 0.0, "is_disabled": 0}, {"rental_uris": {"android": "https://dc.lft.to/lastmile_qr_scan", "ios": "https://dc.lft.to/lastmile_qr_scan"}, "type": "electric_scooter", "lon": -77.04243233333334, "name": "dc0d83e83765464bdcebd95890803130", "bike_id": "dc0d83e83765464bdcebd95890803130", "fusion_lat": 0.0, "is_reserved": 0, "lat": 38.91780633333333, "fusion_lon": 0.0, "is_disabled": 0}, {"rental_uris": {"android": "https://dc.lft.to/lastmile_qr_scan", "ios": "https://dc.lft.to/lastmile_qr_scan"}, "type": "electric_scooter", "lon": -77.03268483333333, "name": "64fbf47cc8b295e698f761d9780b9629", "bike_id": "64fbf47cc8b295e698f761d9780b9629", "fusion_lat": 0.0, "is_reserved": 0, "lat": 38.9324845, "fusion_lon": 0.0, "is_disabled": 0}, {"rental_uris": {"android": "https://dc.lft.to/lastmile_qr_scan", "ios": "https://dc.lft.to/lastmile_qr_scan"}, "type": "electric_scooter", "lon": -77.00709316666666, "name": "75ffde9c1bab064c8da6a6e263bad3dd", "bike_id": "75ffde9c1bab064c8da6a6e263bad3dd", "fusion_lat": 0.0, "is_reserved": 0, "lat": 38.88492266666667, "fusion_lon": 0.0, "is_disabled": 0}, {"rental_uris": {"android": "https://dc.lft.to/lastmile_qr_scan", "ios": "https://dc.lft.to/lastmile_qr_scan"}, "type": "electric_scooter", "lon": -77.0225585, "name": "f4ae3960075dfdeac4f91f9dac2a4202", "bike_id": "f4ae3960075dfdeac4f91f9dac2a4202", "fusion_lat": 0.0, "is_reserved": 0, "lat": 38.928194500000004, "fusion_lon": 0.0, "is_disabled": 0}, {"rental_uris": {"android": "https://dc.lft.to/lastmile_qr_scan", "ios": "https://dc.lft.to/lastmile_qr_scan"}, "type": "electric_bike", "lon": -77.10509183333333, "name": "226c31ca82274c1a3644d8f9789d2269", "bike_id": "226c31ca82274c1a3644d8f9789d2269", "fusion_lat": 0.0, "is_reserved": 0, "lat": 38.92846483333334, "fusion_lon": 0.0, "is_disabled": 0}, {"rental_uris": {"android": "https://dc.lft.to/lastmile_qr_scan", "ios": "https://dc.lft.to/lastmile_qr_scan"}, "type": "electric_scooter", "lon": -77.0323425, "name": "e3f2c2a290be33043873897df67aedb5", "bike_id": "e3f2c2a290be33043873897df67aedb5", "fusion_lat": 0.0, "is_reserved": 0, "lat": 38.92165166666667, "fusion_lon": 0.0, "is_disabled": 0}, {"rental_uris": {"android": "https://dc.lft.to/lastmile_qr_scan", "ios": "https://dc.lft.to/lastmile_qr_scan"}, "type": "electric_bike", "lon": -77.07252633333333, "name": "6b0d5addc7d2fb7353378149d230e69b", "bike_id": "6b0d5addc7d2fb7353378149d230e69b", "fusion_lat": 0.0, "is_reserved": 0, "lat": 38.959131166666666, "fusion_lon": 0.0, "is_disabled": 0}, {"rental_uris": {"android": "https://dc.lft.to/lastmile_qr_scan", "ios": "https://dc.lft.to/lastmile_qr_scan"}, "type": "electric_scooter", "lon": -77.04906366666667, "name": "4927164356d419b33c5e83777f96b101", "bike_id": "4927164356d419b33c5e83777f96b101", "fusion_lat": 0.0, "is_reserved": 0, "lat": 38.892551833333336, "fusion_lon": 0.0, "is_disabled": 0}, {"rental_uris": {"android": "https://dc.lft.to/lastmile_qr_scan", "ios": "https://dc.lft.to/lastmile_qr_scan"}, "type": "electric_scooter", "lon": -77.043391, "name": "574bdc100a8fc336f6d343392a51c66b", "bike_id": "574bdc100a8fc336f6d343392a51c66b", "fusion_lat": 0.0, "is_reserved": 0, "lat": 38.9040785, "fusion_lon": 0.0, "is_disabled": 0}, {"rental_uris": {"android": "https://dc.lft.to/lastmile_qr_scan", "ios": "https://dc.lft.to/lastmile_qr_scan"}, "type": "electric_scooter", "lon": -77.03454016666667, "name": "9a50643aadcf560937c800b7bd54e952", "bike_id": "9a50643aadcf560937c800b7bd54e952", "fusion_lat": 0.0, "is_reserved": 0, "lat": 38.90245, "fusion_lon": 0.0, "is_disabled": 0}, {"rental_uris": {"android": "https://dc.lft.to/lastmile_qr_scan", "ios": "https://dc.lft.to/lastmile_qr_scan"}, "type": "electric_scooter", "lon": -77.04390016666666, "name": "5b7141a5801ffb442b1f258fe29e6b23", "bike_id": "5b7141a5801ffb442b1f258fe29e6b23", "fusion_lat": 0.0, "is_reserved": 0, "lat": 38.92273266666667, "fusion_lon": 0.0, "is_disabled": 0}, {"rental_uris": {"android": "https://dc.lft.to/lastmile_qr_scan", "ios": "https://dc.lft.to/lastmile_qr_scan"}, "type": "electric_scooter", "lon": -77.0118655, "name": "d5a0a4824419ef9e2d2a84e2a86c1298", "bike_id": "d5a0a4824419ef9e2d2a84e2a86c1298", "fusion_lat": 0.0, "is_reserved": 0, "lat": 38.90019816666667, "fusion_lon": 0.0, "is_disabled": 0}, {"rental_uris": {"android": "https://dc.lft.to/lastmile_qr_scan", "ios": "https://dc.lft.to/lastmile_qr_scan"}, "type": "electric_bike", "lon": -77.01207033333333, "name": "402b459b1fb4c207ba30697afc128281", "bike_id": "402b459b1fb4c207ba30697afc128281", "fusion_lat": 0.0, "is_reserved": 0, "lat": 38.870808, "fusion_lon": 0.0, "is_disabled": 0}, {"rental_uris": {"android": "https://dc.lft.to/lastmile_qr_scan", "ios": "https://dc.lft.to/lastmile_qr_scan"}, "type": "electric_scooter", "lon": -77.02373116666666, "name": "997bc0440fbfdaea59b58b223ce44517", "bike_id": "997bc0440fbfdaea59b58b223ce44517", "fusion_lat": 0.0, "is_reserved": 0, "lat": 38.892191, "fusion_lon": 0.0, "is_disabled": 0}, {"rental_uris": {"android": "https://dc.lft.to/lastmile_qr_scan", "ios": "https://dc.lft.to/lastmile_qr_scan"}, "type": "electric_scooter", "lon": -77.04346316666667, "name": "95d34e810dec8751fce08c3cda10dba3", "bike_id": "95d34e810dec8751fce08c3cda10dba3", "fusion_lat": 0.0, "is_reserved": 0, "lat": 38.903471, "fusion_lon": 0.0, "is_disabled": 0}, {"rental_uris": {"android": "https://dc.lft.to/lastmile_qr_scan", "ios": "https://dc.lft.to/lastmile_qr_scan"}, "type": "electric_scooter", "lon": -76.96505916666666, "name": "9293d4d3b7bd0ac91c830d2a4dfddecb", "bike_id": "9293d4d3b7bd0ac91c830d2a4dfddecb", "fusion_lat": 0.0, "is_reserved": 0, "lat": 38.876464666666664, "fusion_lon": 0.0, "is_disabled": 0}, {"rental_uris": {"android": "https://dc.lft.to/lastmile_qr_scan", "ios": "https://dc.lft.to/lastmile_qr_scan"}, "type": "electric_scooter", "lon": -77.01827566666667, "name": "1af90f790422fc19e2ce1f7cffdc029c", "bike_id": "1af90f790422fc19e2ce1f7cffdc029c", "fusion_lat": 0.0, "is_reserved": 0, "lat": 38.908166, "fusion_lon": 0.0, "is_disabled": 0}, {"rental_uris": {"android": "https://dc.lft.to/lastmile_qr_scan", "ios": "https://dc.lft.to/lastmile_qr_scan"}, "type": "electric_scooter", "lon": -77.043453, "name": "5238c4a3e8685a929aacd77467124567", "bike_id": "5238c4a3e8685a929aacd77467124567", "fusion_lat": 0.0, "is_reserved": 0, "lat": 38.905127, "fusion_lon": 0.0, "is_disabled": 0}, {"rental_uris": {"android": "https://dc.lft.to/lastmile_qr_scan", "ios": "https://dc.lft.to/lastmile_qr_scan"}, "type": "electric_scooter", "lon": -77.0080655, "name": "29ebb66ed379a8145676aac78d966a78", "bike_id": "29ebb66ed379a8145676aac78d966a78", "fusion_lat": 0.0, "is_reserved": 0, "lat": 38.87663516666667, "fusion_lon": 0.0, "is_disabled": 0}, {"rental_uris": {"android": "https://dc.lft.to/lastmile_qr_scan", "ios": "https://dc.lft.to/lastmile_qr_scan"}, "type": "electric_scooter", "lon": -77.00307566666666, "name": "3827a1f317f01441b34bb3b32d0ddef9", "bike_id": "3827a1f317f01441b34bb3b32d0ddef9", "fusion_lat": 0.0, "is_reserved": 0, "lat": 38.92336816666667, "fusion_lon": 0.0, "is_disabled": 0}, {"rental_uris": {"android": "https://dc.lft.to/lastmile_qr_scan", "ios": "https://dc.lft.to/lastmile_qr_scan"}, "type": "electric_scooter", "lon": -76.99033866666667, "name": "e31d2c158506d334d3e23486f57967cd", "bike_id": "e31d2c158506d334d3e23486f57967cd", "fusion_lat": 0.0, "is_reserved": 0, "lat": 38.858712833333335, "fusion_lon": 0.0, "is_disabled": 0}, {"rental_uris": {"android": "https://dc.lft.to/lastmile_qr_scan", "ios": "https://dc.lft.to/lastmile_qr_scan"}, "type": "electric_bike", "lon": -77.1091205, "name": "e5e378ab94f8c69f3c0d5988617c7cc7", "bike_id": "e5e378ab94f8c69f3c0d5988617c7cc7", "fusion_lat": 0.0, "is_reserved": 0, "lat": 39.052034, "fusion_lon": 0.0, "is_disabled": 0}, {"rental_uris": {"android": "https://dc.lft.to/lastmile_qr_scan", "ios": "https://dc.lft.to/lastmile_qr_scan"}, "type": "electric_scooter", "lon": -77.03198433333333, "name": "b69b1a9d6a703786b2aba2d7f19441b5", "bike_id": "b69b1a9d6a703786b2aba2d7f19441b5", "fusion_lat": 0.0, "is_reserved": 0, "lat": 38.912786833333335, "fusion_lon": 0.0, "is_disabled": 0}, {"rental_uris": {"android": "https://dc.lft.to/lastmile_qr_scan", "ios": "https://dc.lft.to/lastmile_qr_scan"}, "type": "electric_scooter", "lon": -77.03274966666666, "name": "8dfd495fa0cf900e592278b4324644a3", "bike_id": "8dfd495fa0cf900e592278b4324644a3", "fusion_lat": 0.0, "is_reserved": 0, "lat": 38.92951383333333, "fusion_lon": 0.0, "is_disabled": 0}, {"rental_uris": {"android": "https://dc.lft.to/lastmile_qr_scan", "ios": "https://dc.lft.to/lastmile_qr_scan"}, "type": "electric_scooter", "lon": -77.04706916666666, "name": "bcc02c0cca325d48e0282516f1aea152", "bike_id": "bcc02c0cca325d48e0282516f1aea152", "fusion_lat": 0.0, "is_reserved": 0, "lat": 38.9125965, "fusion_lon": 0.0, "is_disabled": 0}, {"rental_uris": {"android": "https://dc.lft.to/lastmile_qr_scan", "ios": "https://dc.lft.to/lastmile_qr_scan"}, "type": "electric_scooter", "lon": -76.91923083333333, "name": "2d5c259c8819edfed301969fe7ae56e4", "bike_id": "2d5c259c8819edfed301969fe7ae56e4", "fusion_lat": 0.0, "is_reserved": 0, "lat": 38.89073583333333, "fusion_lon": 0.0, "is_disabled": 0}, {"rental_uris": {"android": "https://dc.lft.to/lastmile_qr_scan", "ios": "https://dc.lft.to/lastmile_qr_scan"}, "type": "electric_scooter", "lon": -77.053002, "name": "7f1689556b601844808fbde7f4dc775b", "bike_id": "7f1689556b601844808fbde7f4dc775b", "fusion_lat": 0.0, "is_reserved": 0, "lat": 38.91687983333333, "fusion_lon": 0.0, "is_disabled": 0}, {"rental_uris": {"android": "https://dc.lft.to/lastmile_qr_scan", "ios": "https://dc.lft.to/lastmile_qr_scan"}, "type": "electric_scooter", "lon": -77.034396, "name": "2fd4dc50b468ac11ed6f151f3c8a2f2f", "bike_id": "2fd4dc50b468ac11ed6f151f3c8a2f2f", "fusion_lat": 0.0, "is_reserved": 0, "lat": 38.90436066666667, "fusion_lon": 0.0, "is_disabled": 0}, {"rental_uris": {"android": "https://dc.lft.to/lastmile_qr_scan", "ios": "https://dc.lft.to/lastmile_qr_scan"}, "type": "electric_scooter", "lon": -77.02830983333334, "name": "24a72f7998222b88a216c4378864139e", "bike_id": "24a72f7998222b88a216c4378864139e", "fusion_lat": 0.0, "is_reserved": 0, "lat": 38.95083483333333, "fusion_lon": 0.0, "is_disabled": 0}, {"rental_uris": {"android": "https://dc.lft.to/lastmile_qr_scan", "ios": "https://dc.lft.to/lastmile_qr_scan"}, "type": "electric_scooter", "lon": -77.016395, "name": "c1f2d602d85c29ebc8511053ac066da6", "bike_id": "c1f2d602d85c29ebc8511053ac066da6", "fusion_lat": 0.0, "is_reserved": 0, "lat": 38.87713083333333, "fusion_lon": 0.0, "is_disabled": 0}, {"rental_uris": {"android": "https://dc.lft.to/lastmile_qr_scan", "ios": "https://dc.lft.to/lastmile_qr_scan"}, "type": "electric_bike", "lon": -77.069804, "name": "a5f7d3142c2dcdf597a4e8276a3df348", "bike_id": "a5f7d3142c2dcdf597a4e8276a3df348", "fusion_lat": 0.0, "is_reserved": 0, "lat": 38.9527125, "fusion_lon": 0.0, "is_disabled": 0}, {"rental_uris": {"android": "https://dc.lft.to/lastmile_qr_scan", "ios": "https://dc.lft.to/lastmile_qr_scan"}, "type": "electric_scooter", "lon": -76.99656183333333, "name": "c905cc349c403a9ab4a28ec86a4893c7", "bike_id": "c905cc349c403a9ab4a28ec86a4893c7", "fusion_lat": 0.0, "is_reserved": 0, "lat": 38.898854666666665, "fusion_lon": 0.0, "is_disabled": 0}, {"rental_uris": {"android": "https://dc.lft.to/lastmile_qr_scan", "ios": "https://dc.lft.to/lastmile_qr_scan"}, "type": "electric_bike", "lon": -76.9905985, "name": "da1fc3d69e10a55415ec2d3084eb6ca9", "bike_id": "da1fc3d69e10a55415ec2d3084eb6ca9", "fusion_lat": 0.0, "is_reserved": 0, "lat": 38.936881, "fusion_lon": 0.0, "is_disabled": 0}, {"rental_uris": {"android": "https://dc.lft.to/lastmile_qr_scan", "ios": "https://dc.lft.to/lastmile_qr_scan"}, "type": "electric_scooter", "lon": -77.03428233333334, "name": "7abe55e0a4a64c5dac3edb0b0d569712", "bike_id": "7abe55e0a4a64c5dac3edb0b0d569712", "fusion_lat": 0.0, "is_reserved": 0, "lat": 38.906415833333334, "fusion_lon": 0.0, "is_disabled": 0}, {"rental_uris": {"android": "https://dc.lft.to/lastmile_qr_scan", "ios": "https://dc.lft.to/lastmile_qr_scan"}, "type": "electric_scooter", "lon": -77.02461766666667, "name": "f57d6cc7952cf593e2b8762b0403f2c0", "bike_id": "f57d6cc7952cf593e2b8762b0403f2c0", "fusion_lat": 0.0, "is_reserved": 0, "lat": 38.9386515, "fusion_lon": 0.0, "is_disabled": 0}, {"rental_uris": {"android": "https://dc.lft.to/lastmile_qr_scan", "ios": "https://dc.lft.to/lastmile_qr_scan"}, "type": "electric_scooter", "lon": -77.01755183333333, "name": "a945fe0ee1c00feb5862e72a7ca8fce8", "bike_id": "a945fe0ee1c00feb5862e72a7ca8fce8", "fusion_lat": 0.0, "is_reserved": 0, "lat": 38.91354333333334, "fusion_lon": 0.0, "is_disabled": 0}, {"rental_uris": {"android": "https://dc.lft.to/lastmile_qr_scan", "ios": "https://dc.lft.to/lastmile_qr_scan"}, "type": "electric_scooter", "lon": -77.045089, "name": "30cdfd4698132556d21835c89825a00e", "bike_id": "30cdfd4698132556d21835c89825a00e", "fusion_lat": 0.0, "is_reserved": 0, "lat": 38.892179666666664, "fusion_lon": 0.0, "is_disabled": 0}, {"rental_uris": {"android": "https://dc.lft.to/lastmile_qr_scan", "ios": "https://dc.lft.to/lastmile_qr_scan"}, "type": "electric_scooter", "lon": -77.0483655, "name": "7f9d90fa46310df1a3f271cacbb4c020", "bike_id": "7f9d90fa46310df1a3f271cacbb4c020", "fusion_lat": 0.0, "is_reserved": 0, "lat": 38.911402833333334, "fusion_lon": 0.0, "is_disabled": 0}, {"rental_uris": {"android": "https://dc.lft.to/lastmile_qr_scan", "ios": "https://dc.lft.to/lastmile_qr_scan"}, "type": "electric_scooter", "lon": -77.02695733333333, "name": "cec859f03a8180f1bfb7c54c793ee0c9", "bike_id": "cec859f03a8180f1bfb7c54c793ee0c9", "fusion_lat": 0.0, "is_reserved": 0, "lat": 38.918177666666665, "fusion_lon": 0.0, "is_disabled": 0}, {"rental_uris": {"android": "https://dc.lft.to/lastmile_qr_scan", "ios": "https://dc.lft.to/lastmile_qr_scan"}, "type": "electric_scooter", "lon": -77.008756, "name": "7390966d0154f3f7ea91f7727cd33945", "bike_id": "7390966d0154f3f7ea91f7727cd33945", "fusion_lat": 0.0, "is_reserved": 0, "lat": 38.87351433333333, "fusion_lon": 0.0, "is_disabled": 0}, {"rental_uris": {"android": "https://dc.lft.to/lastmile_qr_scan", "ios": "https://dc.lft.to/lastmile_qr_scan"}, "type": "electric_scooter", "lon": -77.0321135, "name": "21e99d8d2c2c5ad7dd3ab138bba06774", "bike_id": "21e99d8d2c2c5ad7dd3ab138bba06774", "fusion_lat": 0.0, "is_reserved": 0, "lat": 38.913848333333334, "fusion_lon": 0.0, "is_disabled": 0}, {"rental_uris": {"android": "https://dc.lft.to/lastmile_qr_scan", "ios": "https://dc.lft.to/lastmile_qr_scan"}, "type": "electric_scooter", "lon": -77.038212, "name": "5580e96384d6c1019248cdaf5ec667ac", "bike_id": "5580e96384d6c1019248cdaf5ec667ac", "fusion_lat": 0.0, "is_reserved": 0, "lat": 38.92064416666667, "fusion_lon": 0.0, "is_disabled": 0}, {"rental_uris": {"android": "https://dc.lft.to/lastmile_qr_scan", "ios": "https://dc.lft.to/lastmile_qr_scan"}, "type": "electric_scooter", "lon": -77.02806416666667, "name": "21c5a02f502f4ccb375dde5766945880", "bike_id": "21c5a02f502f4ccb375dde5766945880", "fusion_lat": 0.0, "is_reserved": 0, "lat": 38.93061016666667, "fusion_lon": 0.0, "is_disabled": 0}, {"rental_uris": {"android": "https://dc.lft.to/lastmile_qr_scan", "ios": "https://dc.lft.to/lastmile_qr_scan"}, "type": "electric_scooter", "lon": -77.03230316666667, "name": "a3fc9c8a03e083ad577cb6aff9517f79", "bike_id": "a3fc9c8a03e083ad577cb6aff9517f79", "fusion_lat": 0.0, "is_reserved": 0, "lat": 38.928866166666666, "fusion_lon": 0.0, "is_disabled": 0}, {"rental_uris": {"android": "https://dc.lft.to/lastmile_qr_scan", "ios": "https://dc.lft.to/lastmile_qr_scan"}, "type": "electric_scooter", "lon": -77.01206233333333, "name": "12938d72177c046fc4fe7351cf2d2f49", "bike_id": "12938d72177c046fc4fe7351cf2d2f49", "fusion_lat": 0.0, "is_reserved": 0, "lat": 38.89633883333333, "fusion_lon": 0.0, "is_disabled": 0}, {"rental_uris": {"android": "https://dc.lft.to/lastmile_qr_scan", "ios": "https://dc.lft.to/lastmile_qr_scan"}, "type": "electric_bike", "lon": -77.005984, "name": "5a4fc97ebf6f6a63502c717554320712", "bike_id": "5a4fc97ebf6f6a63502c717554320712", "fusion_lat": 0.0, "is_reserved": 0, "lat": 38.89800433333333, "fusion_lon": 0.0, "is_disabled": 0}, {"rental_uris": {"android": "https://dc.lft.to/lastmile_qr_scan", "ios": "https://dc.lft.to/lastmile_qr_scan"}, "type": "electric_scooter", "lon": -77.00219466666667, "name": "9e10dc5b2a7562f6ecbf795a75da050d", "bike_id": "9e10dc5b2a7562f6ecbf795a75da050d", "fusion_lat": 0.0, "is_reserved": 0, "lat": 38.877405833333334, "fusion_lon": 0.0, "is_disabled": 0}, {"rental_uris": {"android": "https://dc.lft.to/lastmile_qr_scan", "ios": "https://dc.lft.to/lastmile_qr_scan"}, "type": "electric_scooter", "lon": -77.024266, "name": "4cff80feeda060042d9137752974a07b", "bike_id": "4cff80feeda060042d9137752974a07b", "fusion_lat": 0.0, "is_reserved": 0, "lat": 38.89217983333333, "fusion_lon": 0.0, "is_disabled": 0}, {"rental_uris": {"android": "https://dc.lft.to/lastmile_qr_scan", "ios": "https://dc.lft.to/lastmile_qr_scan"}, "type": "electric_bike", "lon": -76.935222, "name": "8edaf411281214ac121b607336c4ff99", "bike_id": "8edaf411281214ac121b607336c4ff99", "fusion_lat": 0.0, "is_reserved": 0, "lat": 38.95541983333333, "fusion_lon": 0.0, "is_disabled": 0}, {"rental_uris": {"android": "https://dc.lft.to/lastmile_qr_scan", "ios": "https://dc.lft.to/lastmile_qr_scan"}, "type": "electric_scooter", "lon": -77.03465033333333, "name": "db9161990fd93cfdc9d4e7bbc4026d82", "bike_id": "db9161990fd93cfdc9d4e7bbc4026d82", "fusion_lat": 0.0, "is_reserved": 0, "lat": 38.9030055, "fusion_lon": 0.0, "is_disabled": 0}, {"rental_uris": {"android": "https://dc.lft.to/lastmile_qr_scan", "ios": "https://dc.lft.to/lastmile_qr_scan"}, "type": "electric_scooter", "lon": -76.99350866666667, "name": "9d7a3fc3b84c40c6841ba8752061ea94", "bike_id": "9d7a3fc3b84c40c6841ba8752061ea94", "fusion_lat": 0.0, "is_reserved": 0, "lat": 38.88289116666667, "fusion_lon": 0.0, "is_disabled": 0}, {"rental_uris": {"android": "https://dc.lft.to/lastmile_qr_scan", "ios": "https://dc.lft.to/lastmile_qr_scan"}, "type": "electric_scooter", "lon": -77.0218565, "name": "93c223224b2330b7745bef085e68afd4", "bike_id": "93c223224b2330b7745bef085e68afd4", "fusion_lat": 0.0, "is_reserved": 0, "lat": 38.911215, "fusion_lon": 0.0, "is_disabled": 0}, {"rental_uris": {"android": "https://dc.lft.to/lastmile_qr_scan", "ios": "https://dc.lft.to/lastmile_qr_scan"}, "type": "electric_scooter", "lon": -77.04755833333333, "name": "849003570004cf3b71ed0f41939193fe", "bike_id": "849003570004cf3b71ed0f41939193fe", "fusion_lat": 0.0, "is_reserved": 0, "lat": 38.90215833333333, "fusion_lon": 0.0, "is_disabled": 0}, {"rental_uris": {"android": "https://dc.lft.to/lastmile_qr_scan", "ios": "https://dc.lft.to/lastmile_qr_scan"}, "type": "electric_scooter", "lon": -77.01100416666667, "name": "f7fb1b349c7718a82b9557a0b1bf9728", "bike_id": "f7fb1b349c7718a82b9557a0b1bf9728", "fusion_lat": 0.0, "is_reserved": 0, "lat": 38.905638, "fusion_lon": 0.0, "is_disabled": 0}, {"rental_uris": {"android": "https://dc.lft.to/lastmile_qr_scan", "ios": "https://dc.lft.to/lastmile_qr_scan"}, "type": "electric_scooter", "lon": -77.06982833333333, "name": "b0939aa957168876cf7b0a548cd7f722", "bike_id": "b0939aa957168876cf7b0a548cd7f722", "fusion_lat": 0.0, "is_reserved": 0, "lat": 38.9469205, "fusion_lon": 0.0, "is_disabled": 0}, {"rental_uris": {"android": "https://dc.lft.to/lastmile_qr_scan", "ios": "https://dc.lft.to/lastmile_qr_scan"}, "type": "electric_scooter", "lon": -77.047867, "name": "2c9912630c764ca4fa212ebffc91577a", "bike_id": "2c9912630c764ca4fa212ebffc91577a", "fusion_lat": 0.0, "is_reserved": 0, "lat": 38.902138666666666, "fusion_lon": 0.0, "is_disabled": 0}, {"rental_uris": {"android": "https://dc.lft.to/lastmile_qr_scan", "ios": "https://dc.lft.to/lastmile_qr_scan"}, "type": "electric_scooter", "lon": -77.02985883333334, "name": "72c2460dc361debc838471d169ed6754", "bike_id": "72c2460dc361debc838471d169ed6754", "fusion_lat": 0.0, "is_reserved": 0, "lat": 38.9072705, "fusion_lon": 0.0, "is_disabled": 0}, {"rental_uris": {"android": "https://dc.lft.to/lastmile_qr_scan", "ios": "https://dc.lft.to/lastmile_qr_scan"}, "type": "electric_bike", "lon": -77.11224816666666, "name": "6f8ad9bafc5fdb3daa4736da00d58a54", "bike_id": "6f8ad9bafc5fdb3daa4736da00d58a54", "fusion_lat": 0.0, "is_reserved": 0, "lat": 38.82866933333333, "fusion_lon": 0.0, "is_disabled": 0}, {"rental_uris": {"android": "https://dc.lft.to/lastmile_qr_scan", "ios": "https://dc.lft.to/lastmile_qr_scan"}, "type": "electric_scooter", "lon": -77.00105983333333, "name": "4690b1a82f1cc62f18512e62110cca6e", "bike_id": "4690b1a82f1cc62f18512e62110cca6e", "fusion_lat": 0.0, "is_reserved": 0, "lat": 38.9000665, "fusion_lon": 0.0, "is_disabled": 0}, {"rental_uris": {"android": "https://dc.lft.to/lastmile_qr_scan", "ios": "https://dc.lft.to/lastmile_qr_scan"}, "type": "electric_bike", "lon": -76.98734866666666, "name": "d3eb4495a9ea634353c25f03a1675b43", "bike_id": "d3eb4495a9ea634353c25f03a1675b43", "fusion_lat": 0.0, "is_reserved": 0, "lat": 38.944295, "fusion_lon": 0.0, "is_disabled": 0}, {"rental_uris": {"android": "https://dc.lft.to/lastmile_qr_scan", "ios": "https://dc.lft.to/lastmile_qr_scan"}, "type": "electric_scooter", "lon": -77.0321935, "name": "daa4a646364239d2e8c6daf34a5d7a37", "bike_id": "daa4a646364239d2e8c6daf34a5d7a37", "fusion_lat": 0.0, "is_reserved": 0, "lat": 38.928735333333336, "fusion_lon": 0.0, "is_disabled": 0}, {"rental_uris": {"android": "https://dc.lft.to/lastmile_qr_scan", "ios": "https://dc.lft.to/lastmile_qr_scan"}, "type": "electric_scooter", "lon": -77.01557583333333, "name": "7937f6a508793c3e384038050411979c", "bike_id": "7937f6a508793c3e384038050411979c", "fusion_lat": 0.0, "is_reserved": 0, "lat": 38.914616, "fusion_lon": 0.0, "is_disabled": 0}, {"rental_uris": {"android": "https://dc.lft.to/lastmile_qr_scan", "ios": "https://dc.lft.to/lastmile_qr_scan"}, "type": "electric_bike", "lon": -77.07684916666666, "name": "751a1052c982c74f1d9ad333cfa1fd51", "bike_id": "751a1052c982c74f1d9ad333cfa1fd51", "fusion_lat": 0.0, "is_reserved": 0, "lat": 38.831911833333336, "fusion_lon": 0.0, "is_disabled": 0}, {"rental_uris": {"android": "https://dc.lft.to/lastmile_qr_scan", "ios": "https://dc.lft.to/lastmile_qr_scan"}, "type": "electric_scooter", "lon": -77.05630366666666, "name": "aebba76d8585c2b34ec5805f0ed7cc1a", "bike_id": "aebba76d8585c2b34ec5805f0ed7cc1a", "fusion_lat": 0.0, "is_reserved": 0, "lat": 38.924211166666666, "fusion_lon": 0.0, "is_disabled": 0}, {"rental_uris": {"android": "https://dc.lft.to/lastmile_qr_scan", "ios": "https://dc.lft.to/lastmile_qr_scan"}, "type": "electric_bike", "lon": -77.1226505, "name": "aa0d16662e08eeaefc5b8bb169d2371d", "bike_id": "aa0d16662e08eeaefc5b8bb169d2371d", "fusion_lat": 0.0, "is_reserved": 0, "lat": 38.891884833333336, "fusion_lon": 0.0, "is_disabled": 0}, {"rental_uris": {"android": "https://dc.lft.to/lastmile_qr_scan", "ios": "https://dc.lft.to/lastmile_qr_scan"}, "type": "electric_scooter", "lon": -77.02814366666667, "name": "58fc657e48e7d62e420ca60e9e420d46", "bike_id": "58fc657e48e7d62e420ca60e9e420d46", "fusion_lat": 0.0, "is_reserved": 0, "lat": 38.95607833333333, "fusion_lon": 0.0, "is_disabled": 0}, {"rental_uris": {"android": "https://dc.lft.to/lastmile_qr_scan", "ios": "https://dc.lft.to/lastmile_qr_scan"},