{"data": {"bikes": [{"is_reserved": 0, "type": "electric_scooter", "fusion_lat": 0.0, "is_disabled": 0, "rental_uris": {"ios": "https://dc.lft.to/lastmile_qr_scan", "android": "https://dc.lft.to/lastmile_qr_scan"}, "bike_id": "ca7c26dcc5c725ad3c63d33c84d9f4b4", "lat": 38.935135333333335, "name": "ca7c26dcc5c725ad3c63d33c84d9f4b4", "lon": -77.03671016666667, "fusion_lon": 0.0}, {"is_reserved": 0, "type": "electric_scooter", "fusion_lat": 0.0, "is_disabled": 0, "rental_uris": {"ios": "https://dc.lft.to/lastmile_qr_scan", "android": "https://dc.lft.to/lastmile_qr_scan"}, "bike_id": "ff16e7f517a1eee2d956d85429840c31", "lat": 38.908176833333336, "name": "ff16e7f517a1eee2d956d85429840c31", "lon": -77.08425633333333, "fusion_lon": 0.0}, {"is_reserved": 0, "type": "electric_scooter", "fusion_lat": 0.0, "is_disabled": 0, "rental_uris": {"ios": "https://dc.lft.to/lastmile_qr_scan", "android": "https://dc.lft.to/lastmile_qr_scan"}, "bike_id": "e62988e8629cffd4616f422b153c685e", "lat": 38.91562583333334, "name": "e62988e8629cffd4616f422b153c685e", "lon": -77.03258083333333, "fusion_lon": 0.0}, {"is_reserved": 0, "type": "electric_scooter", "fusion_lat": 0.0, "is_disabled": 0, "rental_uris": {"ios": "https://dc.lft.to/lastmile_qr_scan", "android": "https://dc.lft.to/lastmile_qr_scan"}, "bike_id": "4ea4c3bcd88c158449d05f23f60cd190", "lat": 38.91557733333333, "name": "4ea4c3bcd88c158449d05f23f60cd190", "lon": -76.9850415, "fusion_lon": 0.0}, {"is_reserved": 0, "type": "electric_scooter", "fusion_lat": 0.0, "is_disabled": 0, "rental_uris": {"ios": "https://dc.lft.to/lastmile_qr_scan", "android": "https://dc.lft.to/lastmile_qr_scan"}, "bike_id": "a4e453d89601d8beda35f696d3e96270", "lat": 38.9195, "name": "a4e453d89601d8beda35f696d3e96270", "lon": -77.07978466666667, "fusion_lon": 0.0}, {"is_reserved": 0, "type": "electric_scooter", "fusion_lat": 0.0, "is_disabled": 0, "rental_uris": {"ios": "https://dc.lft.to/lastmile_qr_scan", "android": "https://dc.lft.to/lastmile_qr_scan"}, "bike_id": "4269219235a42abac58e062903b196e2", "lat": 38.93571633333333, "name": "4269219235a42abac58e062903b196e2", "lon": -77.0246195, "fusion_lon": 0.0}, {"is_reserved": 0, "type": "electric_scooter", "fusion_lat": 0.0, "is_disabled": 0, "rental_uris": {"ios": "https://dc.lft.to/lastmile_qr_scan", "android": "https://dc.lft.to/lastmile_qr_scan"}, "bike_id": "f05a7dde08055a50765266ee5a244580", "lat": 38.8871205, "name": "f05a7dde08055a50765266ee5a244580", "lon": -76.983475, "fusion_lon": 0.0}, {"is_reserved": 0, "type": "electric_scooter", "fusion_lat": 0.0, "is_disabled": 0, "rental_uris": {"ios": "https://dc.lft.to/lastmile_qr_scan", "android": "https://dc.lft.to/lastmile_qr_scan"}, "bike_id": "174f780ef9ab69df6d3cde1d638bc27a", "lat": 38.93225833333333, "name": "174f780ef9ab69df6d3cde1d638bc27a", "lon": -77.02967766666667, "fusion_lon": 0.0}, {"is_reserved": 0, "type": "electric_scooter", "fusion_lat": 0.0, "is_disabled": 0, "rental_uris": {"ios": "https://dc.lft.to/lastmile_qr_scan", "android": "https://dc.lft.to/lastmile_qr_scan"}, "bike_id": "7df40b94c492c3198ff683d8eae8d909", "lat": 38.924761333333336, "name": "7df40b94c492c3198ff683d8eae8d909", "lon": -77.022226, "fusion_lon": 0.0}, {"is_reserved": 0, "type": "electric_bike", "fusion_lat": 0.0, "is_disabled": 0, "rental_uris": {"ios": "https://dc.lft.to/lastmile_qr_scan", "android": "https://dc.lft.to/lastmile_qr_scan"}, "bike_id": "d5506978e0d1ca36d9c20cd908b0757d", "lat": 38.84619283333333, "name": "d5506978e0d1ca36d9c20cd908b0757d", "lon": -76.97845783333334, "fusion_lon": 0.0}, {"is_reserved": 0, "type": "electric_scooter", "fusion_lat": 0.0, "is_disabled": 0, "rental_uris": {"ios": "https://dc.lft.to/lastmile_qr_scan", "android": "https://dc.lft.to/lastmile_qr_scan"}, "bike_id": "29a54d67c0a422c4cc319dd37f871aaf", "lat": 38.90867466666667, "name": "29a54d67c0a422c4cc319dd37f871aaf", "lon": -77.02669566666667, "fusion_lon": 0.0}, {"is_reserved": 0, "type": "electric_scooter", "fusion_lat": 0.0, "is_disabled": 0, "rental_uris": {"ios": "https://dc.lft.to/lastmile_qr_scan", "android": "https://dc.lft.to/lastmile_qr_scan"}, "bike_id": "a214f0ae1586acce92a2811c70205c9d", "lat": 38.905064333333335, "name": "a214f0ae1586acce92a2811c70205c9d", "lon": -76.9917855, "fusion_lon": 0.0}, {"is_reserved": 0, "type": "electric_scooter", "fusion_lat": 0.0, "is_disabled": 0, "rental_uris": {"ios": "https://dc.lft.to/lastmile_qr_scan", "android": "https://dc.lft.to/lastmile_qr_scan"}, "bike_id": "1f1b5b3973096c923648192edecd9fcd", "lat": 38.926001666666664, "name": "1f1b5b3973096c923648192edecd9fcd", "lon": -77.02502783333334, "fusion_lon": 0.0}, {"is_reserved": 0, "type": "electric_scooter", "fusion_lat": 0.0, "is_disabled": 0, "rental_uris": {"ios": "https://dc.lft.to/lastmile_qr_scan", "android": "https://dc.lft.to/lastmile_qr_scan"}, "bike_id": "768fe896520b285ae115eecfdf6e0473", "lat": 38.90405066666667, "name": "768fe896520b285ae115eecfdf6e0473", "lon": -77.03986883333333, "fusion_lon": 0.0}, {"is_reserved": 0, "type": "electric_scooter", "fusion_lat": 0.0, "is_disabled": 0, "rental_uris": {"ios": "https://dc.lft.to/lastmile_qr_scan", "android": "https://dc.lft.to/lastmile_qr_scan"}, "bike_id": "42613ebb8391db4676d1cb98149e97b6", "lat": 38.88575783333334, "name": "42613ebb8391db4676d1cb98149e97b6", "lon": -77.01207366666667, "fusion_lon": 0.0}, {"is_reserved": 0, "type": "electric_scooter", "fusion_lat": 0.0, "is_disabled": 0, "rental_uris": {"ios": "https://dc.lft.to/lastmile_qr_scan", "android": "https://dc.lft.to/lastmile_qr_scan"}, "bike_id": "3df375c1d55d1c73745a10d1f1ec71c0", "lat": 38.912511, "name": "3df375c1d55d1c73745a10d1f1ec71c0", "lon": -77.04596883333333, "fusion_lon": 0.0}, {"is_reserved": 0, "type": "electric_scooter", "fusion_lat": 0.0, "is_disabled": 0, "rental_uris": {"ios": "https://dc.lft.to/lastmile_qr_scan", "android": "https://dc.lft.to/lastmile_qr_scan"}, "bike_id": "7113bfc6982173fcc07f08f46c6eb9dc", "lat": 38.918139833333335, "name": "7113bfc6982173fcc07f08f46c6eb9dc", "lon": -77.02474233333334, "fusion_lon": 0.0}, {"is_reserved": 0, "type": "electric_scooter", "fusion_lat": 0.0, "is_disabled": 0, "rental_uris": {"ios": "https://dc.lft.to/lastmile_qr_scan", "android": "https://dc.lft.to/lastmile_qr_scan"}, "bike_id": "093e7c7a102908277fea0e6d00911ac4", "lat": 38.9191365, "name": "093e7c7a102908277fea0e6d00911ac4", "lon": -77.03310866666666, "fusion_lon": 0.0}, {"is_reserved": 0, "type": "electric_scooter", "fusion_lat": 0.0, "is_disabled": 0, "rental_uris": {"ios": "https://dc.lft.to/lastmile_qr_scan", "android": "https://dc.lft.to/lastmile_qr_scan"}, "bike_id": "0cbd0407fa0a88213b6827ddbd6e5d1f", "lat": 38.905683833333335, "name": "0cbd0407fa0a88213b6827ddbd6e5d1f", "lon": -77.01720483333334, "fusion_lon": 0.0}, {"is_reserved": 0, "type": "electric_bike", "fusion_lat": 0.0, "is_disabled": 0, "rental_uris": {"ios": "https://dc.lft.to/lastmile_qr_scan", "android": "https://dc.lft.to/lastmile_qr_scan"}, "bike_id": "f6eaf5ccfa358e436daf7dea633c9492", "lat": 38.842992, "name": "f6eaf5ccfa358e436daf7dea633c9492", "lon": -76.98837466666667, "fusion_lon": 0.0}, {"is_reserved": 0, "type": "electric_scooter", "fusion_lat": 0.0, "is_disabled": 0, "rental_uris": {"ios": "https://dc.lft.to/lastmile_qr_scan", "android": "https://dc.lft.to/lastmile_qr_scan"}, "bike_id": "b7ba3b5c48845b1dca40bc1ef5afa1ba", "lat": 38.91236383333333, "name": "b7ba3b5c48845b1dca40bc1ef5afa1ba", "lon": -77.00915266666667, "fusion_lon": 0.0}, {"is_reserved": 0, "type": "electric_scooter", "fusion_lat": 0.0, "is_disabled": 0, "rental_uris": {"ios": "https://dc.lft.to/lastmile_qr_scan", "android": "https://dc.lft.to/lastmile_qr_scan"}, "bike_id": "41a7bedb2e25b48f9839417c17593a8e", "lat": 38.91592816666667, "name": "41a7bedb2e25b48f9839417c17593a8e", "lon": -77.03182033333333, "fusion_lon": 0.0}, {"is_reserved": 0, "type": "electric_scooter", "fusion_lat": 0.0, "is_disabled": 0, "rental_uris": {"ios": "https://dc.lft.to/lastmile_qr_scan", "android": "https://dc.lft.to/lastmile_qr_scan"}, "bike_id": "808f8eb88c6adbf81c13d287e09ab090", "lat": 38.91988883333333, "name": "808f8eb88c6adbf81c13d287e09ab090", "lon": -76.973041, "fusion_lon": 0.0}, {"is_reserved": 0, "type": "electric_scooter", "fusion_lat": 0.0, "is_disabled": 0, "rental_uris": {"ios": "https://dc.lft.to/lastmile_qr_scan", "android": "https://dc.lft.to/lastmile_qr_scan"}, "bike_id": "9984998db98cb226ba992feed267f2e8", "lat": 38.876523666666664, "name": "9984998db98cb226ba992feed267f2e8", "lon": -77.00083616666667, "fusion_lon": 0.0}, {"is_reserved": 0, "type": "electric_scooter", "fusion_lat": 0.0, "is_disabled": 0, "rental_uris": {"ios": "https://dc.lft.to/lastmile_qr_scan", "android": "https://dc.lft.to/lastmile_qr_scan"}, "bike_id": "c8f9e1a1ed1866533af0d29199773c49", "lat": 38.909549166666665, "name": "c8f9e1a1ed1866533af0d29199773c49", "lon": -76.98538783333333, "fusion_lon": 0.0}, {"is_reserved": 0, "type": "electric_scooter", "fusion_lat": 0.0, "is_disabled": 0, "rental_uris": {"ios": "https://dc.lft.to/lastmile_qr_scan", "android": "https://dc.lft.to/lastmile_qr_scan"}, "bike_id": "d5e7152549651340c12a27958448ef19", "lat": 38.945918166666665, "name": "d5e7152549651340c12a27958448ef19", "lon": -77.0203325, "fusion_lon": 0.0}, {"is_reserved": 0, "type": "electric_scooter", "fusion_lat": 0.0, "is_disabled": 0, "rental_uris": {"ios": "https://dc.lft.to/lastmile_qr_scan", "android": "https://dc.lft.to/lastmile_qr_scan"}, "bike_id": "7ac5895578941401653c4a319467f14e", "lat": 38.915837833333335, "name": "7ac5895578941401653c4a319467f14e", "lon": -76.98385483333334, "fusion_lon": 0.0}, {"is_reserved": 0, "type": "electric_scooter", "fusion_lat": 0.0, "is_disabled": 0, "rental_uris": {"ios": "https://dc.lft.to/lastmile_qr_scan", "android": "https://dc.lft.to/lastmile_qr_scan"}, "bike_id": "d12273e960596a5afd895e1a78bc5f55", "lat": 38.9020645, "name": "d12273e960596a5afd895e1a78bc5f55", "lon": -76.986971, "fusion_lon": 0.0}, {"is_reserved": 0, "type": "electric_scooter", "fusion_lat": 0.0, "is_disabled": 0, "rental_uris": {"ios": "https://dc.lft.to/lastmile_qr_scan", "android": "https://dc.lft.to/lastmile_qr_scan"}, "bike_id": "c81d5fecb5746090d83eb89771b54f03", "lat": 38.89760733333333, "name": "c81d5fecb5746090d83eb89771b54f03", "lon": -77.05123416666666, "fusion_lon": 0.0}, {"is_reserved": 0, "type": "electric_scooter", "fusion_lat": 0.0, "is_disabled": 0, "rental_uris": {"ios": "https://dc.lft.to/lastmile_qr_scan", "android": "https://dc.lft.to/lastmile_qr_scan"}, "bike_id": "b1fa211da285715c680ca26c73ab1de7", "lat": 38.9291525, "name": "b1fa211da285715c680ca26c73ab1de7", "lon": -77.02096, "fusion_lon": 0.0}, {"is_reserved": 0, "type": "electric_scooter", "fusion_lat": 0.0, "is_disabled": 0, "rental_uris": {"ios": "https://dc.lft.to/lastmile_qr_scan", "android": "https://dc.lft.to/lastmile_qr_scan"}, "bike_id": "f7e2f05f405ea9dfe5946fb545ad3362", "lat": 38.85560816666667, "name": "f7e2f05f405ea9dfe5946fb545ad3362", "lon": -76.99082333333334, "fusion_lon": 0.0}, {"is_reserved": 0, "type": "electric_scooter", "fusion_lat": 0.0, "is_disabled": 0, "rental_uris": {"ios": "https://dc.lft.to/lastmile_qr_scan", "android": "https://dc.lft.to/lastmile_qr_scan"}, "bike_id": "19c9470358aae8d5f52e0db547fcfdde", "lat": 38.931205, "name": "19c9470358aae8d5f52e0db547fcfdde", "lon": -77.02098, "fusion_lon": 0.0}, {"is_reserved": 0, "type": "electric_scooter", "fusion_lat": 0.0, "is_disabled": 0, "rental_uris": {"ios": "https://dc.lft.to/lastmile_qr_scan", "android": "https://dc.lft.to/lastmile_qr_scan"}, "bike_id": "ac0df4d05568c7a3aeb11b756aae233d", "lat": 38.917852, "name": "ac0df4d05568c7a3aeb11b756aae233d", "lon": -77.02315783333333, "fusion_lon": 0.0}, {"is_reserved": 0, "type": "electric_scooter", "fusion_lat": 0.0, "is_disabled": 0, "rental_uris": {"ios": "https://dc.lft.to/lastmile_qr_scan", "android": "https://dc.lft.to/lastmile_qr_scan"}, "bike_id": "8f3a21614a11f1b9f53df6b2817a99da", "lat": 38.8823805, "name": "8f3a21614a11f1b9f53df6b2817a99da", "lon": -76.9333675, "fusion_lon": 0.0}, {"is_reserved": 0, "type": "electric_scooter", "fusion_lat": 0.0, "is_disabled": 0, "rental_uris": {"ios": "https://dc.lft.to/lastmile_qr_scan", "android": "https://dc.lft.to/lastmile_qr_scan"}, "bike_id": "66101a7fbe1f0f7185decb9f53231c50", "lat": 38.93604233333333, "name": "66101a7fbe1f0f7185decb9f53231c50", "lon": -77.02416266666667, "fusion_lon": 0.0}, {"is_reserved": 0, "type": "electric_scooter", "fusion_lat": 0.0, "is_disabled": 0, "rental_uris": {"ios": "https://dc.lft.to/lastmile_qr_scan", "android": "https://dc.lft.to/lastmile_qr_scan"}, "bike_id": "aaadec0b324ad0e470915bff53137660", "lat": 38.90335916666667, "name": "aaadec0b324ad0e470915bff53137660", "lon": -77.0261095, "fusion_lon": 0.0}, {"is_reserved": 0, "type": "electric_scooter", "fusion_lat": 0.0, "is_disabled": 0, "rental_uris": {"ios": "https://dc.lft.to/lastmile_qr_scan", "android": "https://dc.lft.to/lastmile_qr_scan"}, "bike_id": "d378c8b400acfeb93b13c3f5be4152a3", "lat": 38.911135333333334, "name": "d378c8b400acfeb93b13c3f5be4152a3", "lon": -77.003726, "fusion_lon": 0.0}, {"is_reserved": 0, "type": "electric_scooter", "fusion_lat": 0.0, "is_disabled": 0, "rental_uris": {"ios": "https://dc.lft.to/lastmile_qr_scan", "android": "https://dc.lft.to/lastmile_qr_scan"}, "bike_id": "1202a368d9779bc68378c07a115acd11", "lat": 38.89373966666667, "name": "1202a368d9779bc68378c07a115acd11", "lon": -77.02062566666666, "fusion_lon": 0.0}, {"is_reserved": 0, "type": "electric_scooter", "fusion_lat": 0.0, "is_disabled": 0, "rental_uris": {"ios": "https://dc.lft.to/lastmile_qr_scan", "android": "https://dc.lft.to/lastmile_qr_scan"}, "bike_id": "ac6e4174a22b87add1b1da9277292e38", "lat": 38.944916, "name": "ac6e4174a22b87add1b1da9277292e38", "lon": -77.00738716666666, "fusion_lon": 0.0}, {"is_reserved": 0, "type": "electric_scooter", "fusion_lat": 0.0, "is_disabled": 0, "rental_uris": {"ios": "https://dc.lft.to/lastmile_qr_scan", "android": "https://dc.lft.to/lastmile_qr_scan"}, "bike_id": "f058905281910b76e3af8265ae2aa0d6", "lat": 38.90174733333333, "name": "f058905281910b76e3af8265ae2aa0d6", "lon": -76.929456, "fusion_lon": 0.0}, {"is_reserved": 0, "type": "electric_scooter", "fusion_lat": 0.0, "is_disabled": 0, "rental_uris": {"ios": "https://dc.lft.to/lastmile_qr_scan", "android": "https://dc.lft.to/lastmile_qr_scan"}, "bike_id": "432a49e4d1f9fde81ec63a4062dcafd3", "lat": 38.922084, "name": "432a49e4d1f9fde81ec63a4062dcafd3", "lon": -77.01845933333334, "fusion_lon": 0.0}, {"is_reserved": 0, "type": "electric_scooter", "fusion_lat": 0.0, "is_disabled": 0, "rental_uris": {"ios": "https://dc.lft.to/lastmile_qr_scan", "android": "https://dc.lft.to/lastmile_qr_scan"}, "bike_id": "1ed60f80144f847456d028280872b2ca", "lat": 38.9026615, "name": "1ed60f80144f847456d028280872b2ca", "lon": -77.03923383333333, "fusion_lon": 0.0}, {"is_reserved": 0, "type": "electric_scooter", "fusion_lat": 0.0, "is_disabled": 0, "rental_uris": {"ios": "https://dc.lft.to/lastmile_qr_scan", "android": "https://dc.lft.to/lastmile_qr_scan"}, "bike_id": "93508d466835ba6c6f351a96189d0a97", "lat": 38.901136, "name": "93508d466835ba6c6f351a96189d0a97", "lon": -77.03431233333333, "fusion_lon": 0.0}, {"is_reserved": 0, "type": "electric_scooter", "fusion_lat": 0.0, "is_disabled": 0, "rental_uris": {"ios": "https://dc.lft.to/lastmile_qr_scan", "android": "https://dc.lft.to/lastmile_qr_scan"}, "bike_id": "7af5a574a34a77f87b62dd53b9c96eea", "lat": 38.93322, "name": "7af5a574a34a77f87b62dd53b9c96eea", "lon": -77.02395616666666, "fusion_lon": 0.0}, {"is_reserved": 0, "type": "electric_scooter", "fusion_lat": 0.0, "is_disabled": 0, "rental_uris": {"ios": "https://dc.lft.to/lastmile_qr_scan", "android": "https://dc.lft.to/lastmile_qr_scan"}, "bike_id": "e76232f7d7d68ee91a0beb9cbac9c57d", "lat": 38.90557416666667, "name": "e76232f7d7d68ee91a0beb9cbac9c57d", "lon": -77.026539, "fusion_lon": 0.0}, {"is_reserved": 0, "type": "electric_scooter", "fusion_lat": 0.0, "is_disabled": 0, "rental_uris": {"ios": "https://dc.lft.to/lastmile_qr_scan", "android": "https://dc.lft.to/lastmile_qr_scan"}, "bike_id": "73bcdc4cef8371871618d2761d25ba7d", "lat": 38.91552133333333, "name": "73bcdc4cef8371871618d2761d25ba7d", "lon": -77.02136266666666, "fusion_lon": 0.0}, {"is_reserved": 0, "type": "electric_scooter", "fusion_lat": 0.0, "is_disabled": 0, "rental_uris": {"ios": "https://dc.lft.to/lastmile_qr_scan", "android": "https://dc.lft.to/lastmile_qr_scan"}, "bike_id": "b74e6642e2dba5adc3b8415a5610645c", "lat": 38.895543333333336, "name": "b74e6642e2dba5adc3b8415a5610645c", "lon": -77.00912816666667, "fusion_lon": 0.0}, {"is_reserved": 0, "type": "electric_scooter", "fusion_lat": 0.0, "is_disabled": 0, "rental_uris": {"ios": "https://dc.lft.to/lastmile_qr_scan", "android": "https://dc.lft.to/lastmile_qr_scan"}, "bike_id": "6fa50b614719180819a0d86da82ac74b", "lat": 38.884332, "name": "6fa50b614719180819a0d86da82ac74b", "lon": -77.03033116666667, "fusion_lon": 0.0}, {"is_reserved": 0, "type": "electric_scooter", "fusion_lat": 0.0, "is_disabled": 0, "rental_uris": {"ios": "https://dc.lft.to/lastmile_qr_scan", "android": "https://dc.lft.to/lastmile_qr_scan"}, "bike_id": "ff12d14ce15c3e5fa8b877ca37155ddc", "lat": 38.8877295, "name": "ff12d14ce15c3e5fa8b877ca37155ddc", "lon": -76.932626, "fusion_lon": 0.0}, {"is_reserved": 0, "type": "electric_scooter", "fusion_lat": 0.0, "is_disabled": 0, "rental_uris": {"ios": "https://dc.lft.to/lastmile_qr_scan", "android": "https://dc.lft.to/lastmile_qr_scan"}, "bike_id": "4164f3e5802bc85ddad9152ac3dc2539", "lat": 38.92166783333333, "name": "4164f3e5802bc85ddad9152ac3dc2539", "lon": -77.04014766666667, "fusion_lon": 0.0}, {"is_reserved": 0, "type": "electric_scooter", "fusion_lat": 0.0, "is_disabled": 0, "rental_uris": {"ios": "https://dc.lft.to/lastmile_qr_scan", "android": "https://dc.lft.to/lastmile_qr_scan"}, "bike_id": "0b9f3211acb8688b96345489b26c3bb2", "lat": 38.914019, "name": "0b9f3211acb8688b96345489b26c3bb2", "lon": -77.03742683333333, "fusion_lon": 0.0}, {"is_reserved": 0, "type": "electric_scooter", "fusion_lat": 0.0, "is_disabled": 0, "rental_uris": {"ios": "https://dc.lft.to/lastmile_qr_scan", "android": "https://dc.lft.to/lastmile_qr_scan"}, "bike_id": "f98a1d9d3ca8a62a483a273971ff95cf", "lat": 38.925117666666665, "name": "f98a1d9d3ca8a62a483a273971ff95cf", "lon": -77.03231183333334, "fusion_lon": 0.0}, {"is_reserved": 0, "type": "electric_scooter", "fusion_lat": 0.0, "is_disabled": 0, "rental_uris": {"ios": "https://dc.lft.to/lastmile_qr_scan", "android": "https://dc.lft.to/lastmile_qr_scan"}, "bike_id": "eb71bc504d4eac43088efd2dd7e2af93", "lat": 38.89617466666667, "name": "eb71bc504d4eac43088efd2dd7e2af93", "lon": -77.02668066666666, "fusion_lon": 0.0}, {"is_reserved": 0, "type": "electric_scooter", "fusion_lat": 0.0, "is_disabled": 0, "rental_uris": {"ios": "https://dc.lft.to/lastmile_qr_scan", "android": "https://dc.lft.to/lastmile_qr_scan"}, "bike_id": "2c627dc4b01284b495fa007e9512ac8c", "lat": 38.954314, "name": "2c627dc4b01284b495fa007e9512ac8c", "lon": -77.01852583333333, "fusion_lon": 0.0}, {"is_reserved": 0, "type": "electric_bike", "fusion_lat": 0.0, "is_disabled": 0, "rental_uris": {"ios": "https://dc.lft.to/lastmile_qr_scan", "android": "https://dc.lft.to/lastmile_qr_scan"}, "bike_id": "ce0a132b98211319d2cefe6f8f3435a0", "lat": 38.98361516666667, "name": "ce0a132b98211319d2cefe6f8f3435a0", "lon": -76.9884895, "fusion_lon": 0.0}, {"is_reserved": 0, "type": "electric_bike", "fusion_lat": 0.0, "is_disabled": 0, "rental_uris": {"ios": "https://dc.lft.to/lastmile_qr_scan", "android": "https://dc.lft.to/lastmile_qr_scan"}, "bike_id": "34a9bf58aa2c6bfe4f90858286b3262e", "lat": 38.8674905, "name": "34a9bf58aa2c6bfe4f90858286b3262e", "lon": -76.94535333333333, "fusion_lon": 0.0}, {"is_reserved": 0, "type": "electric_scooter", "fusion_lat": 0.0, "is_disabled": 0, "rental_uris": {"ios": "https://dc.lft.to/lastmile_qr_scan", "android": "https://dc.lft.to/lastmile_qr_scan"}, "bike_id": "3bf1cc5f4ddc4e97d485107915661745", "lat": 38.921288833333335, "name": "3bf1cc5f4ddc4e97d485107915661745", "lon": -77.04425033333334, "fusion_lon": 0.0}, {"is_reserved": 0, "type": "electric_scooter", "fusion_lat": 0.0, "is_disabled": 0, "rental_uris": {"ios": "https://dc.lft.to/lastmile_qr_scan", "android": "https://dc.lft.to/lastmile_qr_scan"}, "bike_id": "3a91aaa10d951e468a4735c4a7b323e1", "lat": 38.9140425, "name": "3a91aaa10d951e468a4735c4a7b323e1", "lon": -77.03333966666666, "fusion_lon": 0.0}, {"is_reserved": 0, "type": "electric_scooter", "fusion_lat": 0.0, "is_disabled": 0, "rental_uris": {"ios": "https://dc.lft.to/lastmile_qr_scan", "android": "https://dc.lft.to/lastmile_qr_scan"}, "bike_id": "c9b64874058d312fc90bd0972bf2c870", "lat": 38.88988916666667, "name": "c9b64874058d312fc90bd0972bf2c870", "lon": -76.98812633333333, "fusion_lon": 0.0}, {"is_reserved": 0, "type": "electric_scooter", "fusion_lat": 0.0, "is_disabled": 0, "rental_uris": {"ios": "https://dc.lft.to/lastmile_qr_scan", "android": "https://dc.lft.to/lastmile_qr_scan"}, "bike_id": "3541a24b30c7a724520fe2e8e2b512d4", "lat": 38.89370533333334, "name": "3541a24b30c7a724520fe2e8e2b512d4", "lon": -77.0197775, "fusion_lon": 0.0}, {"is_reserved": 0, "type": "electric_scooter", "fusion_lat": 0.0, "is_disabled": 0, "rental_uris": {"ios": "https://dc.lft.to/lastmile_qr_scan", "android": "https://dc.lft.to/lastmile_qr_scan"}, "bike_id": "80b74326b378f52d10e35bdbbfeee8a8", "lat": 38.91947166666667, "name": "80b74326b378f52d10e35bdbbfeee8a8", "lon": -77.02503466666667, "fusion_lon": 0.0}, {"is_reserved": 0, "type": "electric_scooter", "fusion_lat": 0.0, "is_disabled": 0, "rental_uris": {"ios": "https://dc.lft.to/lastmile_qr_scan", "android": "https://dc.lft.to/lastmile_qr_scan"}, "bike_id": "eb59d986c36c3a60b833a9444c1c7f27", "lat": 38.90754166666667, "name": "eb59d986c36c3a60b833a9444c1c7f27", "lon": -77.01702733333333, "fusion_lon": 0.0}, {"is_reserved": 0, "type": "electric_scooter", "fusion_lat": 0.0, "is_disabled": 0, "rental_uris": {"ios": "https://dc.lft.to/lastmile_qr_scan", "android": "https://dc.lft.to/lastmile_qr_scan"}, "bike_id": "b713087a3cee02cccc75ba635713ee4c", "lat": 38.87846066666667, "name": "b713087a3cee02cccc75ba635713ee4c", "lon": -77.00873483333334, "fusion_lon": 0.0}, {"is_reserved": 0, "type": "electric_bike", "fusion_lat": 0.0, "is_disabled": 0, "rental_uris": {"ios": "https://dc.lft.to/lastmile_qr_scan", "android": "https://dc.lft.to/lastmile_qr_scan"}, "bike_id": "fb0df1ceebf337314b0e7c18dd644759", "lat": 39.005336166666666, "name": "fb0df1ceebf337314b0e7c18dd644759", "lon": -77.1040415, "fusion_lon": 0.0}, {"is_reserved": 0, "type": "electric_scooter", "fusion_lat": 0.0, "is_disabled": 0, "rental_uris": {"ios": "https://dc.lft.to/lastmile_qr_scan", "android": "https://dc.lft.to/lastmile_qr_scan"}, "bike_id": "4a7fc18693e4193ea3058adabf3d492f", "lat": 38.885269666666666, "name": "4a7fc18693e4193ea3058adabf3d492f", "lon": -76.99623816666667, "fusion_lon": 0.0}, {"is_reserved": 0, "type": "electric_scooter", "fusion_lat": 0.0, "is_disabled": 0, "rental_uris": {"ios": "https://dc.lft.to/lastmile_qr_scan", "android": "https://dc.lft.to/lastmile_qr_scan"}, "bike_id": "f7f75eff79e2534a0c3d6683147bff48", "lat": 38.90569033333333, "name": "f7f75eff79e2534a0c3d6683147bff48", "lon": -77.03117, "fusion_lon": 0.0}, {"is_reserved": 0, "type": "electric_bike", "fusion_lat": 0.0, "is_disabled": 0, "rental_uris": {"ios": "https://dc.lft.to/lastmile_qr_scan", "android": "https://dc.lft.to/lastmile_qr_scan"}, "bike_id": "3ff2d057ef9f905c82d189b4015c208c", "lat": 38.865085, "name": "3ff2d057ef9f905c82d189b4015c208c", "lon": -76.97343216666667, "fusion_lon": 0.0}, {"is_reserved": 0, "type": "electric_scooter", "fusion_lat": 0.0, "is_disabled": 0, "rental_uris": {"ios": "https://dc.lft.to/lastmile_qr_scan", "android": "https://dc.lft.to/lastmile_qr_scan"}, "bike_id": "bf7761c529596328f58cdd86f984205e", "lat": 38.92969566666667, "name": "bf7761c529596328f58cdd86f984205e", "lon": -77.02336716666667, "fusion_lon": 0.0}, {"is_reserved": 0, "type": "electric_scooter", "fusion_lat": 0.0, "is_disabled": 0, "rental_uris": {"ios": "https://dc.lft.to/lastmile_qr_scan", "android": "https://dc.lft.to/lastmile_qr_scan"}, "bike_id": "3bd29774692683c49b3e935416769b1f", "lat": 38.914718, "name": "3bd29774692683c49b3e935416769b1f", "lon": -77.0092465, "fusion_lon": 0.0}, {"is_reserved": 0, "type": "electric_scooter", "fusion_lat": 0.0, "is_disabled": 0, "rental_uris": {"ios": "https://dc.lft.to/lastmile_qr_scan", "android": "https://dc.lft.to/lastmile_qr_scan"}, "bike_id": "526590b259926b08e97ee9aea2260dc3", "lat": 38.8985195, "name": "526590b259926b08e97ee9aea2260dc3", "lon": -76.99486016666667, "fusion_lon": 0.0}, {"is_reserved": 0, "type": "electric_bike", "fusion_lat": 0.0, "is_disabled": 0, "rental_uris": {"ios": "https://dc.lft.to/lastmile_qr_scan", "android": "https://dc.lft.to/lastmile_qr_scan"}, "bike_id": "3bfbe2125100967deed9ed848df74482", "lat": 38.87739283333333, "name": "3bfbe2125100967deed9ed848df74482", "lon": -77.14870483333333, "fusion_lon": 0.0}, {"is_reserved": 0, "type": "electric_scooter", "fusion_lat": 0.0, "is_disabled": 0, "rental_uris": {"ios": "https://dc.lft.to/lastmile_qr_scan", "android": "https://dc.lft.to/lastmile_qr_scan"}, "bike_id": "1f6311befbbfddb89cca85d097cf3be9", "lat": 38.89760583333333, "name": "1f6311befbbfddb89cca85d097cf3be9", "lon": -77.011979, "fusion_lon": 0.0}, {"is_reserved": 0, "type": "electric_scooter", "fusion_lat": 0.0, "is_disabled": 0, "rental_uris": {"ios": "https://dc.lft.to/lastmile_qr_scan", "android": "https://dc.lft.to/lastmile_qr_scan"}, "bike_id": "13777ad304d66e7ba968a4edb31d53e1", "lat": 38.91461616666667, "name": "13777ad304d66e7ba968a4edb31d53e1", "lon": -77.02288066666667, "fusion_lon": 0.0}, {"is_reserved": 0, "type": "electric_scooter", "fusion_lat": 0.0, "is_disabled": 0, "rental_uris": {"ios": "https://dc.lft.to/lastmile_qr_scan", "android": "https://dc.lft.to/lastmile_qr_scan"}, "bike_id": "98d69fcffb261cdbebc7c9e8758d95b3", "lat": 38.893669, "name": "98d69fcffb261cdbebc7c9e8758d95b3", "lon": -77.04473466666667, "fusion_lon": 0.0}, {"is_reserved": 0, "type": "electric_scooter", "fusion_lat": 0.0, "is_disabled": 0, "rental_uris": {"ios": "https://dc.lft.to/lastmile_qr_scan", "android": "https://dc.lft.to/lastmile_qr_scan"}, "bike_id": "c7676ef516d072b6fbba3b8bfd58070b", "lat": 38.905399333333335, "name": "c7676ef516d072b6fbba3b8bfd58070b", "lon": -76.97547033333333, "fusion_lon": 0.0}, {"is_reserved": 0, "type": "electric_scooter", "fusion_lat": 0.0, "is_disabled": 0, "rental_uris": {"ios": "https://dc.lft.to/lastmile_qr_scan", "android": "https://dc.lft.to/lastmile_qr_scan"}, "bike_id": "3383378a5a036ef776a3ed0bf1eb954b", "lat": 38.95616583333333, "name": "3383378a5a036ef776a3ed0bf1eb954b", "lon": -77.0330905, "fusion_lon": 0.0}, {"is_reserved": 0, "type": "electric_scooter", "fusion_lat": 0.0, "is_disabled": 0, "rental_uris": {"ios": "https://dc.lft.to/lastmile_qr_scan", "android": "https://dc.lft.to/lastmile_qr_scan"}, "bike_id": "8f157b20e8365306503f8a146e32335c", "lat": 38.93969216666667, "name": "8f157b20e8365306503f8a146e32335c", "lon": -77.03249833333334, "fusion_lon": 0.0}, {"is_reserved": 0, "type": "electric_scooter", "fusion_lat": 0.0, "is_disabled": 0, "rental_uris": {"ios": "https://dc.lft.to/lastmile_qr_scan", "android": "https://dc.lft.to/lastmile_qr_scan"}, "bike_id": "7e458d5f34dd5336d4690bd77e60454d", "lat": 38.918175, "name": "7e458d5f34dd5336d4690bd77e60454d", "lon": -77.03252783333333, "fusion_lon": 0.0}, {"is_reserved": 0, "type": "electric_scooter", "fusion_lat": 0.0, "is_disabled": 0, "rental_uris": {"ios": "https://dc.lft.to/lastmile_qr_scan", "android": "https://dc.lft.to/lastmile_qr_scan"}, "bike_id": "d8837ac077dd8ab7824a8779d129c3cd", "lat": 38.915453166666666, "name": "d8837ac077dd8ab7824a8779d129c3cd", "lon": -77.07549366666667, "fusion_lon": 0.0}, {"is_reserved": 0, "type": "electric_scooter", "fusion_lat": 0.0, "is_disabled": 0, "rental_uris": {"ios": "https://dc.lft.to/lastmile_qr_scan", "android": "https://dc.lft.to/lastmile_qr_scan"}, "bike_id": "6b05bf063cbe64680bbb9657ccb411bc", "lat": 38.87662733333333, "name": "6b05bf063cbe64680bbb9657ccb411bc", "lon": -77.000885, "fusion_lon": 0.0}, {"is_reserved": 0, "type": "electric_scooter", "fusion_lat": 0.0, "is_disabled": 0, "rental_uris": {"ios": "https://dc.lft.to/lastmile_qr_scan", "android": "https://dc.lft.to/lastmile_qr_scan"}, "bike_id": "ce499ae35e2d9b6dc9a885746bd92f62", "lat": 38.920948, "name": "ce499ae35e2d9b6dc9a885746bd92f62", "lon": -77.02507366666667, "fusion_lon": 0.0}, {"is_reserved": 0, "type": "electric_scooter", "fusion_lat": 0.0, "is_disabled": 0, "rental_uris": {"ios": "https://dc.lft.to/lastmile_qr_scan", "android": "https://dc.lft.to/lastmile_qr_scan"}, "bike_id": "79a33e28006fcb6363ddabaf76516fe4", "lat": 38.93323016666667, "name": "79a33e28006fcb6363ddabaf76516fe4", "lon": -77.0239165, "fusion_lon": 0.0}, {"is_reserved": 0, "type": "electric_scooter", "fusion_lat": 0.0, "is_disabled": 0, "rental_uris": {"ios": "https://dc.lft.to/lastmile_qr_scan", "android": "https://dc.lft.to/lastmile_qr_scan"}, "bike_id": "d738bcd7fa9f097c9f0d48da0026099d", "lat": 38.912586, "name": "d738bcd7fa9f097c9f0d48da0026099d", "lon": -77.04793433333333, "fusion_lon": 0.0}, {"is_reserved": 0, "type": "electric_bike", "fusion_lat": 0.0, "is_disabled": 0, "rental_uris": {"ios": "https://dc.lft.to/lastmile_qr_scan", "android": "https://dc.lft.to/lastmile_qr_scan"}, "bike_id": "6ea03f9d60e08b2ee931b402a4e4ed83", "lat": 39.0044885, "name": "6ea03f9d60e08b2ee931b402a4e4ed83", "lon": -76.90115316666666, "fusion_lon": 0.0}, {"is_reserved": 0, "type": "electric_scooter", "fusion_lat": 0.0, "is_disabled": 0, "rental_uris": {"ios": "https://dc.lft.to/lastmile_qr_scan", "android": "https://dc.lft.to/lastmile_qr_scan"}, "bike_id": "acd4938239ab6728b0c39604bc985615", "lat": 38.93457266666667, "name": "acd4938239ab6728b0c39604bc985615", "lon": -77.0280755, "fusion_lon": 0.0}, {"is_reserved": 0, "type": "electric_scooter", "fusion_lat": 0.0, "is_disabled": 0, "rental_uris": {"ios": "https://dc.lft.to/lastmile_qr_scan", "android": "https://dc.lft.to/lastmile_qr_scan"}, "bike_id": "61235a0af3cbd79f400e2fe7d761aef9", "lat": 38.89543533333333, "name": "61235a0af3cbd79f400e2fe7d761aef9", "lon": -76.98337966666666, "fusion_lon": 0.0}, {"is_reserved": 0, "type": "electric_scooter", "fusion_lat": 0.0, "is_disabled": 0, "rental_uris": {"ios": "https://dc.lft.to/lastmile_qr_scan", "android": "https://dc.lft.to/lastmile_qr_scan"}, "bike_id": "fd81f7f5cb5ecac2295b61a1a0906e84", "lat": 38.884514333333335, "name": "fd81f7f5cb5ecac2295b61a1a0906e84", "lon": -77.02506316666667, "fusion_lon": 0.0}, {"is_reserved": 0, "type": "electric_bike", "fusion_lat": 0.0, "is_disabled": 0, "rental_uris": {"ios": "https://dc.lft.to/lastmile_qr_scan", "android": "https://dc.lft.to/lastmile_qr_scan"}, "bike_id": "d7070d9ad9f47b52f82cd13553a1d9ad", "lat": 38.95185083333333, "name": "d7070d9ad9f47b52f82cd13553a1d9ad", "lon": -76.93544716666666, "fusion_lon": 0.0}, {"is_reserved": 0, "type": "electric_scooter", "fusion_lat": 0.0, "is_disabled": 0, "rental_uris": {"ios": "https://dc.lft.to/lastmile_qr_scan", "android": "https://dc.lft.to/lastmile_qr_scan"}, "bike_id": "06a3f816c826b141ca9cd8af036581b6", "lat": 38.928506166666665, "name": "06a3f816c826b141ca9cd8af036581b6", "lon": -77.01380816666666, "fusion_lon": 0.0}, {"is_reserved": 0, "type": "electric_scooter", "fusion_lat": 0.0, "is_disabled": 0, "rental_uris": {"ios": "https://dc.lft.to/lastmile_qr_scan", "android": "https://dc.lft.to/lastmile_qr_scan"}, "bike_id": "77952697e111eb9e6ca4439713a321f1", "lat": 38.92054866666667, "name": "77952697e111eb9e6ca4439713a321f1", "lon": -77.01798916666667, "fusion_lon": 0.0}, {"is_reserved": 0, "type": "electric_scooter", "fusion_lat": 0.0, "is_disabled": 0, "rental_uris": {"ios": "https://dc.lft.to/lastmile_qr_scan", "android": "https://dc.lft.to/lastmile_qr_scan"}, "bike_id": "3f5dbfbb3090730fc4179a5d57156db3", "lat": 38.93335033333334, "name": "3f5dbfbb3090730fc4179a5d57156db3", "lon": -77.03874366666666, "fusion_lon": 0.0}, {"is_reserved": 0, "type": "electric_scooter", "fusion_lat": 0.0, "is_disabled": 0, "rental_uris": {"ios": "https://dc.lft.to/lastmile_qr_scan", "android": "https://dc.lft.to/lastmile_qr_scan"}, "bike_id": "4f796507fd13b597b2062bda7d4dadf2", "lat": 38.9234695, "name": "4f796507fd13b597b2062bda7d4dadf2", "lon": -77.04031033333334, "fusion_lon": 0.0}, {"is_reserved": 0, "type": "electric_bike", "fusion_lat": 0.0, "is_disabled": 0, "rental_uris": {"ios": "https://dc.lft.to/lastmile_qr_scan", "android": "https://dc.lft.to/lastmile_qr_scan"}, "bike_id": "564eabad9e09c66eba2d6a8df14bb4a5", "lat": 38.963808, "name": "564eabad9e09c66eba2d6a8df14bb4a5", "lon": -77.01979083333333, "fusion_lon": 0.0}, {"is_reserved": 0, "type": "electric_scooter", "fusion_lat": 0.0, "is_disabled": 0, "rental_uris": {"ios": "https://dc.lft.to/lastmile_qr_scan", "android": "https://dc.lft.to/lastmile_qr_scan"}, "bike_id": "8c7ed795f72f2afe83fbd1b492726fb7", "lat": 38.924763, "name": "8c7ed795f72f2afe83fbd1b492726fb7", "lon": -77.02848233333333, "fusion_lon": 0.0}, {"is_reserved": 0, "type": "electric_scooter", "fusion_lat": 0.0, "is_disabled": 0, "rental_uris": {"ios": "https://dc.lft.to/lastmile_qr_scan", "android": "https://dc.lft.to/lastmile_qr_scan"}, "bike_id": "1ca504c87647109f311200256f842b08", "lat": 38.925643666666666, "name": "1ca504c87647109f311200256f842b08", "lon": -77.05254616666667, "fusion_lon": 0.0}, {"is_reserved": 0, "type": "electric_scooter", "fusion_lat": 0.0, "is_disabled": 0, "rental_uris": {"ios": "https://dc.lft.to/lastmile_qr_scan", "android": "https://dc.lft.to/lastmile_qr_scan"}, "bike_id": "94934c517aa144d37195adcd0690390a", "lat": 38.9151625, "name": "94934c517aa144d37195adcd0690390a", "lon": -77.07273833333333, "fusion_lon": 0.0}, {"is_reserved": 0, "type": "electric_scooter", "fusion_lat": 0.0, "is_disabled": 0, "rental_uris": {"ios": "https://dc.lft.to/lastmile_qr_scan", "android": "https://dc.lft.to/lastmile_qr_scan"}, "bike_id": "aeae281fe7b6a0613ee4689c55351b24", "lat": 38.9077945, "name": "aeae281fe7b6a0613ee4689c55351b24", "lon": -76.98330733333333, "fusion_lon": 0.0}, {"is_reserved": 0, "type": "electric_scooter", "fusion_lat": 0.0, "is_disabled": 0, "rental_uris": {"ios": "https://dc.lft.to/lastmile_qr_scan", "android": "https://dc.lft.to/lastmile_qr_scan"}, "bike_id": "28ca572fdc618b4f55359b4af9e1592b", "lat": 38.907807, "name": "28ca572fdc618b4f55359b4af9e1592b", "lon": -77.04340383333333, "fusion_lon": 0.0}, {"is_reserved": 0, "type": "electric_scooter", "fusion_lat": 0.0, "is_disabled": 0, "rental_uris": {"ios": "https://dc.lft.to/lastmile_qr_scan", "android": "https://dc.lft.to/lastmile_qr_scan"}, "bike_id": "dfd259d8399c606fe8c129a09d5979ac", "lat": 38.923748, "name": "dfd259d8399c606fe8c129a09d5979ac", "lon": -77.0432895, "fusion_lon": 0.0}, {"is_reserved": 0, "type": "electric_scooter", "fusion_lat": 0.0, "is_disabled": 0, "rental_uris": {"ios": "https://dc.lft.to/lastmile_qr_scan", "android": "https://dc.lft.to/lastmile_qr_scan"}, "bike_id": "f911a79e11af4ae01058493d65bee659", "lat": 38.92094, "name": "f911a79e11af4ae01058493d65bee659", "lon": -77.03709216666667, "fusion_lon": 0.0}, {"is_reserved": 0, "type": "electric_bike", "fusion_lat": 0.0, "is_disabled": 0, "rental_uris": {"ios": "https://dc.lft.to/lastmile_qr_scan", "android": "https://dc.lft.to/lastmile_qr_scan"}, "bike_id": "b9f153d300632816e4f8f8b65ae6b517", "lat": 38.88873183333333, "name": "b9f153d300632816e4f8f8b65ae6b517", "lon": -76.957056, "fusion_lon": 0.0}, {"is_reserved": 0, "type": "electric_bike", "fusion_lat": 0.0, "is_disabled": 0, "rental_uris": {"ios": "https://dc.lft.to/lastmile_qr_scan", "android": "https://dc.lft.to/lastmile_qr_scan"}, "bike_id": "ce422ce0bdc3dee817b09725582ff6df", "lat": 38.8795425, "name": "ce422ce0bdc3dee817b09725582ff6df", "lon": -76.93195216666666, "fusion_lon": 0.0}, {"is_reserved": 0, "type": "electric_scooter", "fusion_lat": 0.0, "is_disabled": 0, "rental_uris": {"ios": "https://dc.lft.to/lastmile_qr_scan", "android": "https://dc.lft.to/lastmile_qr_scan"}, "bike_id": "63d0eb4b786dfd4edfb2eed3bd8e32f2", "lat": 38.90764633333333, "name": "63d0eb4b786dfd4edfb2eed3bd8e32f2", "lon": -77.01902383333334, "fusion_lon": 0.0}, {"is_reserved": 0, "type": "electric_scooter", "fusion_lat": 0.0, "is_disabled": 0, "rental_uris": {"ios": "https://dc.lft.to/lastmile_qr_scan", "android": "https://dc.lft.to/lastmile_qr_scan"}, "bike_id": "caf591a012e6f1c899b56d7ab2bc090b", "lat": 38.903675, "name": "caf591a012e6f1c899b56d7ab2bc090b", "lon": -77.017752, "fusion_lon": 0.0}, {"is_reserved": 0, "type": "electric_scooter", "fusion_lat": 0.0, "is_disabled": 0, "rental_uris": {"ios": "https://dc.lft.to/lastmile_qr_scan", "android": "https://dc.lft.to/lastmile_qr_scan"}, "bike_id": "8f8ba90b55f6e1427a82f53fd2aa86ca", "lat": 38.90272016666667, "name": "8f8ba90b55f6e1427a82f53fd2aa86ca", "lon": -77.0616, "fusion_lon": 0.0}, {"is_reserved": 0, "type": "electric_scooter", "fusion_lat": 0.0, "is_disabled": 0, "rental_uris": {"ios": "https://dc.lft.to/lastmile_qr_scan", "android": "https://dc.lft.to/lastmile_qr_scan"}, "bike_id": "f2912f4fd77ff8eee1bb9ca1fbe20d1e", "lat": 38.92040316666667, "name": "f2912f4fd77ff8eee1bb9ca1fbe20d1e", "lon": -77.04085983333333, "fusion_lon": 0.0}, {"is_reserved": 0, "type": "electric_scooter", "fusion_lat": 0.0, "is_disabled": 0, "rental_uris": {"ios": "https://dc.lft.to/lastmile_qr_scan", "android": "https://dc.lft.to/lastmile_qr_scan"}, "bike_id": "d2019c69e429c8b39961e0f052e748d9", "lat": 38.9278505, "name": "d2019c69e429c8b39961e0f052e748d9", "lon": -76.97628216666666, "fusion_lon": 0.0}, {"is_reserved": 0, "type": "electric_scooter", "fusion_lat": 0.0, "is_disabled": 0, "rental_uris": {"ios": "https://dc.lft.to/lastmile_qr_scan", "android": "https://dc.lft.to/lastmile_qr_scan"}, "bike_id": "ae7632c04009082e899ced274123fc83", "lat": 38.9254455, "name": "ae7632c04009082e899ced274123fc83", "lon": -77.03329783333334, "fusion_lon": 0.0}, {"is_reserved": 0, "type": "electric_scooter", "fusion_lat": 0.0, "is_disabled": 0, "rental_uris": {"ios": "https://dc.lft.to/lastmile_qr_scan", "android": "https://dc.lft.to/lastmile_qr_scan"}, "bike_id": "d1528f8f1dc6a25f0277773085c64190", "lat": 38.906052333333335, "name": "d1528f8f1dc6a25f0277773085c64190", "lon": -77.05653983333333, "fusion_lon": 0.0}, {"is_reserved": 0, "type": "electric_scooter", "fusion_lat": 0.0, "is_disabled": 0, "rental_uris": {"ios": "https://dc.lft.to/lastmile_qr_scan", "android": "https://dc.lft.to/lastmile_qr_scan"}, "bike_id": "a78d8fd43a9277a7d2ec6456fb3d92b9", "lat": 38.92326966666667, "name": "a78d8fd43a9277a7d2ec6456fb3d92b9", "lon": -77.036156, "fusion_lon": 0.0}, {"is_reserved": 0, "type": "electric_scooter", "fusion_lat": 0.0, "is_disabled": 0, "rental_uris": {"ios": "https://dc.lft.to/lastmile_qr_scan", "android": "https://dc.lft.to/lastmile_qr_scan"}, "bike_id": "146eea78eb14d62212cf057998e33d72", "lat": 38.920067333333336, "name": "146eea78eb14d62212cf057998e33d72", "lon": -77.03174816666667, "fusion_lon": 0.0}, {"is_reserved": 0, "type": "electric_scooter", "fusion_lat": 0.0, "is_disabled": 0, "rental_uris": {"ios": "https://dc.lft.to/lastmile_qr_scan", "android": "https://dc.lft.to/lastmile_qr_scan"}, "bike_id": "a5304c0215464f6ebb8c0d1e5c513f42", "lat": 38.9171345, "name": "a5304c0215464f6ebb8c0d1e5c513f42", "lon": -77.008862, "fusion_lon": 0.0}, {"is_reserved": 0, "type": "electric_scooter", "fusion_lat": 0.0, "is_disabled": 0, "rental_uris": {"ios": "https://dc.lft.to/lastmile_qr_scan", "android": "https://dc.lft.to/lastmile_qr_scan"}, "bike_id": "88863bc59f63f54c02677eeba4ce2bc8", "lat": 38.95267233333333, "name": "88863bc59f63f54c02677eeba4ce2bc8", "lon": -76.99885216666667, "fusion_lon": 0.0}, {"is_reserved": 0, "type": "electric_scooter", "fusion_lat": 0.0, "is_disabled": 0, "rental_uris": {"ios": "https://dc.lft.to/lastmile_qr_scan", "android": "https://dc.lft.to/lastmile_qr_scan"}, "bike_id": "42d67601bdfb28ed7f3363910865b506", "lat": 38.908831666666664, "name": "42d67601bdfb28ed7f3363910865b506", "lon": -77.044124, "fusion_lon": 0.0}, {"is_reserved": 0, "type": "electric_scooter", "fusion_lat": 0.0, "is_disabled": 0, "rental_uris": {"ios": "https://dc.lft.to/lastmile_qr_scan", "android": "https://dc.lft.to/lastmile_qr_scan"}, "bike_id": "a57492a0bb490cf834d7f084166ab573", "lat": 38.921266833333334, "name": "a57492a0bb490cf834d7f084166ab573", "lon": -77.01821566666666, "fusion_lon": 0.0}, {"is_reserved": 0, "type": "electric_scooter", "fusion_lat": 0.0, "is_disabled": 0, "rental_uris": {"ios": "https://dc.lft.to/lastmile_qr_scan", "android": "https://dc.lft.to/lastmile_qr_scan"}, "bike_id": "db84c079900bfff764bd9e77efc23d28", "lat": 38.902202833333334, "name": "db84c079900bfff764bd9e77efc23d28", "lon": -77.01391183333334, "fusion_lon": 0.0}, {"is_reserved": 0, "type": "electric_scooter", "fusion_lat": 0.0, "is_disabled": 0, "rental_uris": {"ios": "https://dc.lft.to/lastmile_qr_scan", "android": "https://dc.lft.to/lastmile_qr_scan"}, "bike_id": "a16dfa97083b504b5603ef26a7a0009b", "lat": 38.917375166666666, "name": "a16dfa97083b504b5603ef26a7a0009b", "lon": -77.02275383333334, "fusion_lon": 0.0}, {"is_reserved": 0, "type": "electric_scooter", "fusion_lat": 0.0, "is_disabled": 0, "rental_uris": {"ios": "https://dc.lft.to/lastmile_qr_scan", "android": "https://dc.lft.to/lastmile_qr_scan"}, "bike_id": "60be09eab4161399a7872b25d7e723cf", "lat": 38.92176883333333, "name": "60be09eab4161399a7872b25d7e723cf", "lon": -77.02117916666667, "fusion_lon": 0.0}, {"is_reserved": 0, "type": "electric_scooter", "fusion_lat": 0.0, "is_disabled": 0, "rental_uris": {"ios": "https://dc.lft.to/lastmile_qr_scan", "android": "https://dc.lft.to/lastmile_qr_scan"}, "bike_id": "05c6ac35f0e04627e54144f23e133fd2", "lat": 38.90016816666667, "name": "05c6ac35f0e04627e54144f23e133fd2", "lon": -77.04336183333334, "fusion_lon": 0.0}, {"is_reserved": 0, "type": "electric_scooter", "fusion_lat": 0.0, "is_disabled": 0, "rental_uris": {"ios": "https://dc.lft.to/lastmile_qr_scan", "android": "https://dc.lft.to/lastmile_qr_scan"}, "bike_id": "ecbfbc4d1655d58ec862b8c8964c5c93", "lat": 38.89878383333333, "name": "ecbfbc4d1655d58ec862b8c8964c5c93", "lon": -76.93172616666666, "fusion_lon": 0.0}, {"is_reserved": 0, "type": "electric_scooter", "fusion_lat": 0.0, "is_disabled": 0, "rental_uris": {"ios": "https://dc.lft.to/lastmile_qr_scan", "android": "https://dc.lft.to/lastmile_qr_scan"}, "bike_id": "cec810216bdb4b93a9e83ba3eb16db4b", "lat": 38.910176166666666, "name": "cec810216bdb4b93a9e83ba3eb16db4b", "lon": -77.01994266666667, "fusion_lon": 0.0}, {"is_reserved": 0, "type": "electric_scooter", "fusion_lat": 0.0, "is_disabled": 0, "rental_uris": {"ios": "https://dc.lft.to/lastmile_qr_scan", "android": "https://dc.lft.to/lastmile_qr_scan"}, "bike_id": "1f66707b8fe6ce858f8636acb4607bd1", "lat": 38.90197166666667, "name": "1f66707b8fe6ce858f8636acb4607bd1", "lon": -77.02201066666667, "fusion_lon": 0.0}, {"is_reserved": 0, "type": "electric_scooter", "fusion_lat": 0.0, "is_disabled": 0, "rental_uris": {"ios": "https://dc.lft.to/lastmile_qr_scan", "android": "https://dc.lft.to/lastmile_qr_scan"}, "bike_id": "31397de735a967a5e75506d5c7a91d6c", "lat": 38.964266333333335, "name": "31397de735a967a5e75506d5c7a91d6c", "lon": -77.07427383333334, "fusion_lon": 0.0}, {"is_reserved": 0, "type": "electric_scooter", "fusion_lat": 0.0, "is_disabled": 0, "rental_uris": {"ios": "https://dc.lft.to/lastmile_qr_scan", "android": "https://dc.lft.to/lastmile_qr_scan"}, "bike_id": "8408283d31e727b8593374943ef184b2", "lat": 38.85718716666667, "name": "8408283d31e727b8593374943ef184b2", "lon": -76.981016, "fusion_lon": 0.0}, {"is_reserved": 0, "type": "electric_bike", "fusion_lat": 0.0, "is_disabled": 0, "rental_uris": {"ios": "https://dc.lft.to/lastmile_qr_scan", "android": "https://dc.lft.to/lastmile_qr_scan"}, "bike_id": "3a9aeb5fe8dd068f9a9cdf7884da1719", "lat": 38.927936833333334, "name": "3a9aeb5fe8dd068f9a9cdf7884da1719", "lon": -77.22933533333334, "fusion_lon": 0.0}, {"is_reserved": 0, "type": "electric_scooter", "fusion_lat": 0.0, "is_disabled": 0, "rental_uris": {"ios": "https://dc.lft.to/lastmile_qr_scan", "android": "https://dc.lft.to/lastmile_qr_scan"}, "bike_id": "b7a8563cfbecc90a1824aaa04e831522", "lat": 38.935588333333335, "name": "b7a8563cfbecc90a1824aaa04e831522", "lon": -77.0734895, "fusion_lon": 0.0}, {"is_reserved": 0, "type": "electric_scooter", "fusion_lat": 0.0, "is_disabled": 0, "rental_uris": {"ios": "https://dc.lft.to/lastmile_qr_scan", "android": "https://dc.lft.to/lastmile_qr_scan"}, "bike_id": "1c603aeadb8983f85fedc2b2a879333d", "lat": 38.927594166666665, "name": "1c603aeadb8983f85fedc2b2a879333d", "lon": -77.0326765, "fusion_lon": 0.0}, {"is_reserved": 0, "type": "electric_bike", "fusion_lat": 0.0, "is_disabled": 0, "rental_uris": {"ios": "https://dc.lft.to/lastmile_qr_scan", "android": "https://dc.lft.to/lastmile_qr_scan"}, "bike_id": "e92bea49cf9a99cc27362364515284b5", "lat": 38.834051, "name": "e92bea49cf9a99cc27362364515284b5", "lon": -77.0499655, "fusion_lon": 0.0}, {"is_reserved": 0, "type": "electric_scooter", "fusion_lat": 0.0, "is_disabled": 0, "rental_uris": {"ios": "https://dc.lft.to/lastmile_qr_scan", "android": "https://dc.lft.to/lastmile_qr_scan"}, "bike_id": "4d44209a7d179af38003fc3d0f6a4d64", "lat": 38.885420333333336, "name": "4d44209a7d179af38003fc3d0f6a4d64", "lon": -76.985363, "fusion_lon": 0.0}, {"is_reserved": 0, "type": "electric_scooter", "fusion_lat": 0.0, "is_disabled": 0, "rental_uris": {"ios": "https://dc.lft.to/lastmile_qr_scan", "android": "https://dc.lft.to/lastmile_qr_scan"}, "bike_id": "aedcb2f92eaa9998751ddd68ae3e7468", "lat": 38.928973166666665, "name": "aedcb2f92eaa9998751ddd68ae3e7468", "lon": -77.0321595, "fusion_lon": 0.0}, {"is_reserved": 0, "type": "electric_scooter", "fusion_lat": 0.0, "is_disabled": 0, "rental_uris": {"ios": "https://dc.lft.to/lastmile_qr_scan", "android": "https://dc.lft.to/lastmile_qr_scan"}, "bike_id": "0fc80785d0a4052aa65914881fafb982", "lat": 38.9472745, "name": "0fc80785d0a4052aa65914881fafb982", "lon": -77.02667916666667, "fusion_lon": 0.0}, {"is_reserved": 0, "type": "electric_scooter", "fusion_lat": 0.0, "is_disabled": 0, "rental_uris": {"ios": "https://dc.lft.to/lastmile_qr_scan", "android": "https://dc.lft.to/lastmile_qr_scan"}, "bike_id": "da9196f6271251e104e53718c2c522e3", "lat": 38.916952333333334, "name": "da9196f6271251e104e53718c2c522e3", "lon": -77.05296783333333, "fusion_lon": 0.0}, {"is_reserved": 0, "type": "electric_scooter", "fusion_lat": 0.0, "is_disabled": 0, "rental_uris": {"ios": "https://dc.lft.to/lastmile_qr_scan", "android": "https://dc.lft.to/lastmile_qr_scan"}, "bike_id": "a56404149fdf63c503683f45cf49d480", "lat": 38.917721666666665, "name": "a56404149fdf63c503683f45cf49d480", "lon": -77.015022, "fusion_lon": 0.0}, {"is_reserved": 0, "type": "electric_scooter", "fusion_lat": 0.0, "is_disabled": 0, "rental_uris": {"ios": "https://dc.lft.to/lastmile_qr_scan", "android": "https://dc.lft.to/lastmile_qr_scan"}, "bike_id": "50f109ead9ea517adc8334b24652ca40", "lat": 38.89663483333333, "name": "50f109ead9ea517adc8334b24652ca40", "lon": -77.011876, "fusion_lon": 0.0}, {"is_reserved": 0, "type": "electric_scooter", "fusion_lat": 0.0, "is_disabled": 0, "rental_uris": {"ios": "https://dc.lft.to/lastmile_qr_scan", "android": "https://dc.lft.to/lastmile_qr_scan"}, "bike_id": "602e0e8b693a801086497246caca5c9c", "lat": 38.91184366666667, "name": "602e0e8b693a801086497246caca5c9c", "lon": -77.00196183333334, "fusion_lon": 0.0}, {"is_reserved": 0, "type": "electric_scooter", "fusion_lat": 0.0, "is_disabled": 0, "rental_uris": {"ios": "https://dc.lft.to/lastmile_qr_scan", "android": "https://dc.lft.to/lastmile_qr_scan"}, "bike_id": "5f2a92af3e7ae45f9759753b4eafc4c9", "lat": 38.8826865, "name": "5f2a92af3e7ae45f9759753b4eafc4c9", "lon": -76.99526233333333, "fusion_lon": 0.0}, {"is_reserved": 0, "type": "electric_scooter", "fusion_lat": 0.0, "is_disabled": 0, "rental_uris": {"ios": "https://dc.lft.to/lastmile_qr_scan", "android": "https://dc.lft.to/lastmile_qr_scan"}, "bike_id": "601e466d4f808e87108ba637cacedcae", "lat": 38.903360166666666, "name": "601e466d4f808e87108ba637cacedcae", "lon": -76.9758965, "fusion_lon": 0.0}, {"is_reserved": 0, "type": "electric_scooter", "fusion_lat": 0.0, "is_disabled": 0, "rental_uris": {"ios": "https://dc.lft.to/lastmile_qr_scan", "android": "https://dc.lft.to/lastmile_qr_scan"}, "bike_id": "29b752f7a4807179085e5bba01aa4423", "lat": 38.92382533333333, "name": "29b752f7a4807179085e5bba01aa4423", "lon": -77.05182916666666, "fusion_lon": 0.0}, {"is_reserved": 0, "type": "electric_scooter", "fusion_lat": 0.0, "is_disabled": 0, "rental_uris": {"ios": "https://dc.lft.to/lastmile_qr_scan", "android": "https://dc.lft.to/lastmile_qr_scan"}, "bike_id": "35d89c619046255bbc4af8e2b86a89d6", "lat": 38.924063, "name": "35d89c619046255bbc4af8e2b86a89d6", "lon": -77.02979516666667, "fusion_lon": 0.0}, {"is_reserved": 0, "type": "electric_scooter", "fusion_lat": 0.0, "is_disabled": 0, "rental_uris": {"ios": "https://dc.lft.to/lastmile_qr_scan", "android": "https://dc.lft.to/lastmile_qr_scan"}, "bike_id": "e07c4671c3b99b12a22623f84ed49ed1", "lat": 38.9096045, "name": "e07c4671c3b99b12a22623f84ed49ed1", "lon": -77.0237445, "fusion_lon": 0.0}, {"is_reserved": 0, "type": "electric_scooter", "fusion_lat": 0.0, "is_disabled": 0, "rental_uris": {"ios": "https://dc.lft.to/lastmile_qr_scan", "android": "https://dc.lft.to/lastmile_qr_scan"}, "bike_id": "1f2f73be02bcb24eba415a9b175cc12b", "lat": 38.9206735, "name": "1f2f73be02bcb24eba415a9b175cc12b", "lon": -77.028232, "fusion_lon": 0.0}, {"is_reserved": 0, "type": "electric_scooter", "fusion_lat": 0.0, "is_disabled": 0, "rental_uris": {"ios": "https://dc.lft.to/lastmile_qr_scan", "android": "https://dc.lft.to/lastmile_qr_scan"}, "bike_id": "04d600fd9af7c8aaf50035ed10e36f2e", "lat": 38.90468766666667, "name": "04d600fd9af7c8aaf50035ed10e36f2e", "lon": -77.01690333333333, "fusion_lon": 0.0}, {"is_reserved": 0, "type": "electric_scooter", "fusion_lat": 0.0, "is_disabled": 0, "rental_uris": {"ios": "https://dc.lft.to/lastmile_qr_scan", "android": "https://dc.lft.to/lastmile_qr_scan"}, "bike_id": "8fd37fc7e948c2225c7a91569b3f353a", "lat": 38.9025505, "name": "8fd37fc7e948c2225c7a91569b3f353a", "lon": -77.0168735, "fusion_lon": 0.0}, {"is_reserved": 0, "type": "electric_scooter", "fusion_lat": 0.0, "is_disabled": 0, "rental_uris": {"ios": "https://dc.lft.to/lastmile_qr_scan", "android": "https://dc.lft.to/lastmile_qr_scan"}, "bike_id": "e5ac9fc16ad3946656c1741be2d150a3", "lat": 38.9377905, "name": "e5ac9fc16ad3946656c1741be2d150a3", "lon": -76.99369533333333, "fusion_lon": 0.0}, {"is_reserved": 0, "type": "electric_scooter", "fusion_lat": 0.0, "is_disabled": 0, "rental_uris": {"ios": "https://dc.lft.to/lastmile_qr_scan", "android": "https://dc.lft.to/lastmile_qr_scan"}, "bike_id": "c366b51a6bb16b82e76177002b5ba124", "lat": 38.90784816666667, "name": "c366b51a6bb16b82e76177002b5ba124", "lon": -77.045125, "fusion_lon": 0.0}, {"is_reserved": 0, "type": "electric_scooter", "fusion_lat": 0.0, "is_disabled": 0, "rental_uris": {"ios": "https://dc.lft.to/lastmile_qr_scan", "android": "https://dc.lft.to/lastmile_qr_scan"}, "bike_id": "231266c3e45a066674623fe5cb7aab0c", "lat": 38.921497, "name": "231266c3e45a066674623fe5cb7aab0c", "lon": -77.035097, "fusion_lon": 0.0}, {"is_reserved": 0, "type": "electric_scooter", "fusion_lat": 0.0, "is_disabled": 0, "rental_uris": {"ios": "https://dc.lft.to/lastmile_qr_scan", "android": "https://dc.lft.to/lastmile_qr_scan"}, "bike_id": "bb941b7d27f4b621b9dd7d5d98e25466", "lat": 38.881774, "name": "bb941b7d27f4b621b9dd7d5d98e25466", "lon": -77.00880683333334, "fusion_lon": 0.0}, {"is_reserved": 0, "type": "electric_scooter", "fusion_lat": 0.0, "is_disabled": 0, "rental_uris": {"ios": "https://dc.lft.to/lastmile_qr_scan", "android": "https://dc.lft.to/lastmile_qr_scan"}, "bike_id": "4daa9886e0bb274ab7fad710ac681ce7", "lat": 38.92209033333334, "name": "4daa9886e0bb274ab7fad710ac681ce7", "lon": -77.01875366666667, "fusion_lon": 0.0}, {"is_reserved": 0, "type": "electric_scooter", "fusion_lat": 0.0, "is_disabled": 0, "rental_uris": {"ios": "https://dc.lft.to/lastmile_qr_scan", "android": "https://dc.lft.to/lastmile_qr_scan"}, "bike_id": "07f0ce251b123d8203c4e1da2b8493c1", "lat": 38.88858966666667, "name": "07f0ce251b123d8203c4e1da2b8493c1", "lon": -76.979105, "fusion_lon": 0.0}, {"is_reserved": 0, "type": "electric_scooter", "fusion_lat": 0.0, "is_disabled": 0, "rental_uris": {"ios": "https://dc.lft.to/lastmile_qr_scan", "android": "https://dc.lft.to/lastmile_qr_scan"}, "bike_id": "61e4c9f89486ea0709d9261ff49e1f51", "lat": 38.87469733333333, "name": "61e4c9f89486ea0709d9261ff49e1f51", "lon": -77.0051285, "fusion_lon": 0.0}, {"is_reserved": 0, "type": "electric_scooter", "fusion_lat": 0.0, "is_disabled": 0, "rental_uris": {"ios": "https://dc.lft.to/lastmile_qr_scan", "android": "https://dc.lft.to/lastmile_qr_scan"}, "bike_id": "bc35f16791d3b99f26049b6278eb62b9", "lat": 38.9444985, "name": "bc35f16791d3b99f26049b6278eb62b9", "lon": -77.0290825, "fusion_lon": 0.0}, {"is_reserved": 0, "type": "electric_scooter", "fusion_lat": 0.0, "is_disabled": 0, "rental_uris": {"ios": "https://dc.lft.to/lastmile_qr_scan", "android": "https://dc.lft.to/lastmile_qr_scan"}, "bike_id": "2161dd4dab43000f38c5bd66d3a58c9c", "lat": 38.87184083333333, "name": "2161dd4dab43000f38c5bd66d3a58c9c", "lon": -77.01228316666666, "fusion_lon": 0.0}, {"is_reserved": 0, "type": "electric_scooter", "fusion_lat": 0.0, "is_disabled": 0, "rental_uris": {"ios": "https://dc.lft.to/lastmile_qr_scan", "android": "https://dc.lft.to/lastmile_qr_scan"}, "bike_id": "8ba234a7103ae60d290bbf2a57bbf7d4", "lat": 38.911031333333334, "name": "8ba234a7103ae60d290bbf2a57bbf7d4", "lon": -77.00214666666666, "fusion_lon": 0.0}, {"is_reserved": 0, "type": "electric_scooter", "fusion_lat": 0.0, "is_disabled": 0, "rental_uris": {"ios": "https://dc.lft.to/lastmile_qr_scan", "android": "https://dc.lft.to/lastmile_qr_scan"}, "bike_id": "49a2bc51b9e6b59a3047aea2e7805008", "lat": 38.92346, "name": "49a2bc51b9e6b59a3047aea2e7805008", "lon": -76.99870633333333, "fusion_lon": 0.0}, {"is_reserved": 0, "type": "electric_bike", "fusion_lat": 0.0, "is_disabled": 0, "rental_uris": {"ios": "https://dc.lft.to/lastmile_qr_scan", "android": "https://dc.lft.to/lastmile_qr_scan"}, "bike_id": "9be634fe9347bf8405b12ffd25a88300", "lat": 38.842945666666665, "name": "9be634fe9347bf8405b12ffd25a88300", "lon": -77.0637905, "fusion_lon": 0.0}, {"is_reserved": 0, "type": "electric_bike", "fusion_lat": 0.0, "is_disabled": 0, "rental_uris": {"ios": "https://dc.lft.to/lastmile_qr_scan", "android": "https://dc.lft.to/lastmile_qr_scan"}, "bike_id": "5b92a18752ea4143916ce49e094b61fe", "lat": 38.95245466666667, "name": "5b92a18752ea4143916ce49e094b61fe", "lon": -77.096247, "fusion_lon": 0.0}, {"is_reserved": 0, "type": "electric_scooter", "fusion_lat": 0.0, "is_disabled": 0, "rental_uris": {"ios": "https://dc.lft.to/lastmile_qr_scan", "android": "https://dc.lft.to/lastmile_qr_scan"}, "bike_id": "fabff9fcd339239f6e94afb668b3a788", "lat": 38.89463416666667, "name": "fabff9fcd339239f6e94afb668b3a788", "lon": -77.0273515, "fusion_lon": 0.0}, {"is_reserved": 0, "type": "electric_scooter", "fusion_lat": 0.0, "is_disabled": 0, "rental_uris": {"ios": "https://dc.lft.to/lastmile_qr_scan", "android": "https://dc.lft.to/lastmile_qr_scan"}, "bike_id": "ab64934ce59f0c772e3ffebdd589e274", "lat": 38.87845866666667, "name": "ab64934ce59f0c772e3ffebdd589e274", "lon": -77.00876416666667, "fusion_lon": 0.0}, {"is_reserved": 0, "type": "electric_scooter", "fusion_lat": 0.0, "is_disabled": 0, "rental_uris": {"ios": "https://dc.lft.to/lastmile_qr_scan", "android": "https://dc.lft.to/lastmile_qr_scan"}, "bike_id": "6c1679d2be9ac06bab6880c1fe2214c6", "lat": 38.92093116666667, "name": "6c1679d2be9ac06bab6880c1fe2214c6", "lon": -77.02514866666667, "fusion_lon": 0.0}, {"is_reserved": 0, "type": "electric_scooter", "fusion_lat": 0.0, "is_disabled": 0, "rental_uris": {"ios": "https://dc.lft.to/lastmile_qr_scan", "android": "https://dc.lft.to/lastmile_qr_scan"}, "bike_id": "6216235a8827bf2fa13ba5d6bf7e1210", "lat": 38.92333083333333, "name": "6216235a8827bf2fa13ba5d6bf7e1210", "lon": -77.0377515, "fusion_lon": 0.0}, {"is_reserved": 0, "type": "electric_bike", "fusion_lat": 0.0, "is_disabled": 0, "rental_uris": {"ios": "https://dc.lft.to/lastmile_qr_scan", "android": "https://dc.lft.to/lastmile_qr_scan"}, "bike_id": "a28c19ed7e24c3d3fe096996fa4ebc69", "lat": 38.9295845, "name": "a28c19ed7e24c3d3fe096996fa4ebc69", "lon": -77.0201715, "fusion_lon": 0.0}, {"is_reserved": 0, "type": "electric_scooter", "fusion_lat": 0.0, "is_disabled": 0, "rental_uris": {"ios": "https://dc.lft.to/lastmile_qr_scan", "android": "https://dc.lft.to/lastmile_qr_scan"}, "bike_id": "f1a3ccf51d969c7967a9fa6553c48d4f", "lat": 38.906843, "name": "f1a3ccf51d969c7967a9fa6553c48d4f", "lon": -77.02718916666667, "fusion_lon": 0.0}, {"is_reserved": 0, "type": "electric_bike", "fusion_lat": 0.0, "is_disabled": 0, "rental_uris": {"ios": "https://dc.lft.to/lastmile_qr_scan", "android": "https://dc.lft.to/lastmile_qr_scan"}, "bike_id": "a84fef5b3427f2cc403eaa03669d1166", "lat": 38.97155633333333, "name": "a84fef5b3427f2cc403eaa03669d1166", "lon": -77.02721716666667, "fusion_lon": 0.0}, {"is_reserved": 0, "type": "electric_scooter", "fusion_lat": 0.0, "is_disabled": 0, "rental_uris": {"ios": "https://dc.lft.to/lastmile_qr_scan", "android": "https://dc.lft.to/lastmile_qr_scan"}, "bike_id": "60d3a76a2ba9f2d6008e444948e8419b", "lat": 38.920922166666664, "name": "60d3a76a2ba9f2d6008e444948e8419b", "lon": -76.99488883333333, "fusion_lon": 0.0}, {"is_reserved": 0, "type": "electric_scooter", "fusion_lat": 0.0, "is_disabled": 0, "rental_uris": {"ios": "https://dc.lft.to/lastmile_qr_scan", "android": "https://dc.lft.to/lastmile_qr_scan"}, "bike_id": "1e54850d37eb973b2f1cda187239546b", "lat": 38.91830083333333, "name": "1e54850d37eb973b2f1cda187239546b", "lon": -77.02713383333334, "fusion_lon": 0.0}, {"is_reserved": 0, "type": "electric_scooter", "fusion_lat": 0.0, "is_disabled": 0, "rental_uris": {"ios": "https://dc.lft.to/lastmile_qr_scan", "android": "https://dc.lft.to/lastmile_qr_scan"}, "bike_id": "2f5cf2fcd432d96511fefa24296ae5cc", "lat": 38.924996166666666, "name": "2f5cf2fcd432d96511fefa24296ae5cc", "lon": -77.051133, "fusion_lon": 0.0}, {"is_reserved": 0, "type": "electric_scooter", "fusion_lat": 0.0, "is_disabled": 0, "rental_uris": {"ios": "https://dc.lft.to/lastmile_qr_scan", "android": "https://dc.lft.to/lastmile_qr_scan"}, "bike_id": "3531958c90af34b45c7bf4af15b6d441", "lat": 38.902833333333334, "name": "3531958c90af34b45c7bf4af15b6d441", "lon": -77.04551, "fusion_lon": 0.0}, {"is_reserved": 0, "type": "electric_scooter", "fusion_lat": 0.0, "is_disabled": 0, "rental_uris": {"ios": "https://dc.lft.to/lastmile_qr_scan", "android": "https://dc.lft.to/lastmile_qr_scan"}, "bike_id": "3b23ca1054ddcd1461f1953a9fbb0f0f", "lat": 38.95754516666667, "name": "3b23ca1054ddcd1461f1953a9fbb0f0f", "lon": -77.02209383333333, "fusion_lon": 0.0}, {"is_reserved": 0, "type": "electric_scooter", "fusion_lat": 0.0, "is_disabled": 0, "rental_uris": {"ios": "https://dc.lft.to/lastmile_qr_scan", "android": "https://dc.lft.to/lastmile_qr_scan"}, "bike_id": "a5d1bdc4ac5b90949ca20dbc206fb0f5", "lat": 38.885293, "name": "a5d1bdc4ac5b90949ca20dbc206fb0f5", "lon": -76.9805885, "fusion_lon": 0.0}, {"is_reserved": 0, "type": "electric_scooter", "fusion_lat": 0.0, "is_disabled": 0, "rental_uris": {"ios": "https://dc.lft.to/lastmile_qr_scan", "android": "https://dc.lft.to/lastmile_qr_scan"}, "bike_id": "0acfb2bb38321cc216a4ff0e08b9f1f3", "lat": 38.921662, "name": "0acfb2bb38321cc216a4ff0e08b9f1f3", "lon": -77.04012916666667, "fusion_lon": 0.0}, {"is_reserved": 0, "type": "electric_scooter", "fusion_lat": 0.0, "is_disabled": 0, "rental_uris": {"ios": "https://dc.lft.to/lastmile_qr_scan", "android": "https://dc.lft.to/lastmile_qr_scan"}, "bike_id": "3df62f43393b2bae500175fca5abbbd0", "lat": 38.904626, "name": "3df62f43393b2bae500175fca5abbbd0", "lon": -77.05324583333334, "fusion_lon": 0.0}, {"is_reserved": 0, "type": "electric_scooter", "fusion_lat": 0.0, "is_disabled": 0, "rental_uris": {"ios": "https://dc.lft.to/lastmile_qr_scan", "android": "https://dc.lft.to/lastmile_qr_scan"}, "bike_id": "9cb8eb07fb821fb83ea7a5e5f34833ff", "lat": 38.898520833333336, "name": "9cb8eb07fb821fb83ea7a5e5f34833ff", "lon": -77.03958133333333, "fusion_lon": 0.0}, {"is_reserved": 0, "type": "electric_scooter", "fusion_lat": 0.0, "is_disabled": 0, "rental_uris": {"ios": "https://dc.lft.to/lastmile_qr_scan", "android": "https://dc.lft.to/lastmile_qr_scan"}, "bike_id": "3d0a7e6a6d3d97bbee6de4ae7be64842", "lat": 38.924159833333334, "name": "3d0a7e6a6d3d97bbee6de4ae7be64842", "lon": -77.02008816666667, "fusion_lon": 0.0}, {"is_reserved": 0, "type": "electric_scooter", "fusion_lat": 0.0, "is_disabled": 0, "rental_uris": {"ios": "https://dc.lft.to/lastmile_qr_scan", "android": "https://dc.lft.to/lastmile_qr_scan"}, "bike_id": "3756be99b7e397936fc2193b2b20f597", "lat": 38.885133333333336, "name": "3756be99b7e397936fc2193b2b20f597", "lon": -76.924465, "fusion_lon": 0.0}, {"is_reserved": 0, "type": "electric_scooter", "fusion_lat": 0.0, "is_disabled": 0, "rental_uris": {"ios": "https://dc.lft.to/lastmile_qr_scan", "android": "https://dc.lft.to/lastmile_qr_scan"}, "bike_id": "857508eb5ee67bd1de97c5b2682ca20e", "lat": 38.8921995, "name": "857508eb5ee67bd1de97c5b2682ca20e", "lon": -77.04635866666666, "fusion_lon": 0.0}, {"is_reserved": 0, "type": "electric_scooter", "fusion_lat": 0.0, "is_disabled": 0, "rental_uris": {"ios": "https://dc.lft.to/lastmile_qr_scan", "android": "https://dc.lft.to/lastmile_qr_scan"}, "bike_id": "7923165b91de5ee906c91442ad3ee3a9", "lat": 38.90246633333334, "name": "7923165b91de5ee906c91442ad3ee3a9", "lon": -76.97699416666667, "fusion_lon": 0.0}, {"is_reserved": 0, "type": "electric_scooter", "fusion_lat": 0.0, "is_disabled": 0, "rental_uris": {"ios": "https://dc.lft.to/lastmile_qr_scan", "android": "https://dc.lft.to/lastmile_qr_scan"}, "bike_id": "4278f200122e5a4181c1808636b3d88b", "lat": 38.91111566666667, "name": "4278f200122e5a4181c1808636b3d88b", "lon": -77.03841566666667, "fusion_lon": 0.0}, {"is_reserved": 0, "type": "electric_scooter", "fusion_lat": 0.0, "is_disabled": 0, "rental_uris": {"ios": "https://dc.lft.to/lastmile_qr_scan", "android": "https://dc.lft.to/lastmile_qr_scan"}, "bike_id": "ec096e127b2191a85ac47dc9e6294ce1", "lat": 38.90269583333333, "name": "ec096e127b2191a85ac47dc9e6294ce1", "lon": -77.03444483333334, "fusion_lon": 0.0}, {"is_reserved": 0, "type": "electric_bike", "fusion_lat": 0.0, "is_disabled": 0, "rental_uris": {"ios": "https://dc.lft.to/lastmile_qr_scan", "android": "https://dc.lft.to/lastmile_qr_scan"}, "bike_id": "8f44465d9c17167818821f5fdb198831", "lat": 38.89617116666667, "name": "8f44465d9c17167818821f5fdb198831", "lon": -76.90748683333334, "fusion_lon": 0.0}, {"is_reserved": 0, "type": "electric_scooter", "fusion_lat": 0.0, "is_disabled": 0, "rental_uris": {"ios": "https://dc.lft.to/lastmile_qr_scan", "android": "https://dc.lft.to/lastmile_qr_scan"}, "bike_id": "7879edcaacbee8cfaed6562709b24125", "lat": 38.90152066666667, "name": "7879edcaacbee8cfaed6562709b24125", "lon": -77.02224766666667, "fusion_lon": 0.0}, {"is_reserved": 0, "type": "electric_scooter", "fusion_lat": 0.0, "is_disabled": 0, "rental_uris": {"ios": "https://dc.lft.to/lastmile_qr_scan", "android": "https://dc.lft.to/lastmile_qr_scan"}, "bike_id": "f8ccaa293c58fda794a5ce7c8b7cff65", "lat": 38.92665366666667, "name": "f8ccaa293c58fda794a5ce7c8b7cff65", "lon": -77.02717866666667, "fusion_lon": 0.0}, {"is_reserved": 0, "type": "electric_scooter", "fusion_lat": 0.0, "is_disabled": 0, "rental_uris": {"ios": "https://dc.lft.to/lastmile_qr_scan", "android": "https://dc.lft.to/lastmile_qr_scan"}, "bike_id": "8b9fab07ca2554af588396a439580cd4", "lat": 38.9007875, "name": "8b9fab07ca2554af588396a439580cd4", "lon": -77.04355316666667, "fusion_lon": 0.0}, {"is_reserved": 0, "type": "electric_scooter", "fusion_lat": 0.0, "is_disabled": 0, "rental_uris": {"ios": "https://dc.lft.to/lastmile_qr_scan", "android": "https://dc.lft.to/lastmile_qr_scan"}, "bike_id": "dad693e864aed3a7cccb0511eb6dfdf5", "lat": 38.9206025, "name": "dad693e864aed3a7cccb0511eb6dfdf5", "lon": -77.0346325, "fusion_lon": 0.0}, {"is_reserved": 0, "type": "electric_scooter", "fusion_lat": 0.0, "is_disabled": 0, "rental_uris": {"ios": "https://dc.lft.to/lastmile_qr_scan", "android": "https://dc.lft.to/lastmile_qr_scan"}, "bike_id": "8e9759f7644faec822daf5b771c4785a", "lat": 38.924754, "name": "8e9759f7644faec822daf5b771c4785a", "lon": -77.02223366666666, "fusion_lon": 0.0}, {"is_reserved": 0, "type": "electric_scooter", "fusion_lat": 0.0, "is_disabled": 0, "rental_uris": {"ios": "https://dc.lft.to/lastmile_qr_scan", "android": "https://dc.lft.to/lastmile_qr_scan"}, "bike_id": "32c11f3bc736ca4dd78fcce8a1dea4c3", "lat": 38.938584666666664, "name": "32c11f3bc736ca4dd78fcce8a1dea4c3", "lon": -77.0782255, "fusion_lon": 0.0}, {"is_reserved": 0, "type": "electric_scooter", "fusion_lat": 0.0, "is_disabled": 0, "rental_uris": {"ios": "https://dc.lft.to/lastmile_qr_scan", "android": "https://dc.lft.to/lastmile_qr_scan"}, "bike_id": "629b8d364844fa67f989114f986d8b26", "lat": 38.892190166666666, "name": "629b8d364844fa67f989114f986d8b26", "lon": -77.04366316666666, "fusion_lon": 0.0}, {"is_reserved": 0, "type": "electric_scooter", "fusion_lat": 0.0, "is_disabled": 0, "rental_uris": {"ios": "https://dc.lft.to/lastmile_qr_scan", "android": "https://dc.lft.to/lastmile_qr_scan"}, "bike_id": "f77f5b264f5ce23e4c6304dccdf8e17b", "lat": 38.92231016666667, "name": "f77f5b264f5ce23e4c6304dccdf8e17b", "lon": -76.97530116666667, "fusion_lon": 0.0}, {"is_reserved": 0, "type": "electric_scooter", "fusion_lat": 0.0, "is_disabled": 0, "rental_uris": {"ios": "https://dc.lft.to/lastmile_qr_scan", "android": "https://dc.lft.to/lastmile_qr_scan"}, "bike_id": "69252174133241eb01ee77d5f9ca0c67", "lat": 38.933946, "name": "69252174133241eb01ee77d5f9ca0c67", "lon": -77.07384483333334, "fusion_lon": 0.0}, {"is_reserved": 0, "type": "electric_scooter", "fusion_lat": 0.0, "is_disabled": 0, "rental_uris": {"ios": "https://dc.lft.to/lastmile_qr_scan", "android": "https://dc.lft.to/lastmile_qr_scan"}, "bike_id": "a2e5f71092d4922c1ae704106bf0d4e6", "lat": 38.9068145, "name": "a2e5f71092d4922c1ae704106bf0d4e6", "lon": -77.04875, "fusion_lon": 0.0}, {"is_reserved": 0, "type": "electric_scooter", "fusion_lat": 0.0, "is_disabled": 0, "rental_uris": {"ios": "https://dc.lft.to/lastmile_qr_scan", "android": "https://dc.lft.to/lastmile_qr_scan"}, "bike_id": "0b0fb28e9f41e2c54e9d085717c87e6d", "lat": 38.9076805, "name": "0b0fb28e9f41e2c54e9d085717c87e6d", "lon": -77.02402833333333, "fusion_lon": 0.0}, {"is_reserved": 0, "type": "electric_scooter", "fusion_lat": 0.0, "is_disabled": 0, "rental_uris": {"ios": "https://dc.lft.to/lastmile_qr_scan", "android": "https://dc.lft.to/lastmile_qr_scan"}, "bike_id": "d77b92ee00e9568a55786400d0c68fc9", "lat": 38.90303733333333, "name": "d77b92ee00e9568a55786400d0c68fc9", "lon": -76.99840533333334, "fusion_lon": 0.0}, {"is_reserved": 0, "type": "electric_scooter", "fusion_lat": 0.0, "is_disabled": 0, "rental_uris": {"ios": "https://dc.lft.to/lastmile_qr_scan", "android": "https://dc.lft.to/lastmile_qr_scan"}, "bike_id": "e6e31b46df4a1ec7451e87c9916c2330", "lat": 38.92068066666667, "name": "e6e31b46df4a1ec7451e87c9916c2330", "lon": -77.04379116666667, "fusion_lon": 0.0}, {"is_reserved": 0, "type": "electric_scooter", "fusion_lat": 0.0, "is_disabled": 0, "rental_uris": {"ios": "https://dc.lft.to/lastmile_qr_scan", "android": "https://dc.lft.to/lastmile_qr_scan"}, "bike_id": "73af24bfd9a5c3ab2036428f2e47c1ee", "lat": 38.9248785, "name": "73af24bfd9a5c3ab2036428f2e47c1ee", "lon": -77.02546783333334, "fusion_lon": 0.0}, {"is_reserved": 0, "type": "electric_scooter", "fusion_lat": 0.0, "is_disabled": 0, "rental_uris": {"ios": "https://dc.lft.to/lastmile_qr_scan", "android": "https://dc.lft.to/lastmile_qr_scan"}, "bike_id": "c5e94dc93836741b1eccf7a00733afbf", "lat": 38.90363716666667, "name": "c5e94dc93836741b1eccf7a00733afbf", "lon": -76.97819716666666, "fusion_lon": 0.0}, {"is_reserved": 0, "type": "electric_scooter", "fusion_lat": 0.0, "is_disabled": 0, "rental_uris": {"ios": "https://dc.lft.to/lastmile_qr_scan", "android": "https://dc.lft.to/lastmile_qr_scan"}, "bike_id": "d46fabdcb731f22b39197d79f9713210", "lat": 38.880061, "name": "d46fabdcb731f22b39197d79f9713210", "lon": -76.99833633333333, "fusion_lon": 0.0}, {"is_reserved": 0, "type": "electric_scooter", "fusion_lat": 0.0, "is_disabled": 0, "rental_uris": {"ios": "https://dc.lft.to/lastmile_qr_scan", "android": "https://dc.lft.to/lastmile_qr_scan"}, "bike_id": "129b4204b7891e02440c37822fb78d33", "lat": 38.895098833333336, "name": "129b4204b7891e02440c37822fb78d33", "lon": -76.94885383333333, "fusion_lon": 0.0}, {"is_reserved": 0, "type": "electric_scooter", "fusion_lat": 0.0, "is_disabled": 0, "rental_uris": {"ios": "https://dc.lft.to/lastmile_qr_scan", "android": "https://dc.lft.to/lastmile_qr_scan"}, "bike_id": "a79942ea85fd0e0cc05b04b07f6050b6", "lat": 38.95214633333333, "name": "a79942ea85fd0e0cc05b04b07f6050b6", "lon": -77.06887566666667, "fusion_lon": 0.0}, {"is_reserved": 0, "type": "electric_scooter", "fusion_lat": 0.0, "is_disabled": 0, "rental_uris": {"ios": "https://dc.lft.to/lastmile_qr_scan", "android": "https://dc.lft.to/lastmile_qr_scan"}, "bike_id": "c6778e833fb1433ed207165187576597", "lat": 38.94009616666666, "name": "c6778e833fb1433ed207165187576597", "lon": -77.0773475, "fusion_lon": 0.0}, {"is_reserved": 0, "type": "electric_scooter", "fusion_lat": 0.0, "is_disabled": 0, "rental_uris": {"ios": "https://dc.lft.to/lastmile_qr_scan", "android": "https://dc.lft.to/lastmile_qr_scan"}, "bike_id": "30403496f53d5290bcd0a89708d85942", "lat": 38.93006583333333, "name": "30403496f53d5290bcd0a89708d85942", "lon": -77.021169, "fusion_lon": 0.0}, {"is_reserved": 0, "type": "electric_scooter", "fusion_lat": 0.0, "is_disabled": 0, "rental_uris": {"ios": "https://dc.lft.to/lastmile_qr_scan", "android": "https://dc.lft.to/lastmile_qr_scan"}, "bike_id": "edf919b8e808654b07e818214aa51a13", "lat": 38.92860966666667, "name": "edf919b8e808654b07e818214aa51a13", "lon": -77.01393316666666, "fusion_lon": 0.0}, {"is_reserved": 0, "type": "electric_scooter", "fusion_lat": 0.0, "is_disabled": 0, "rental_uris": {"ios": "https://dc.lft.to/lastmile_qr_scan", "android": "https://dc.lft.to/lastmile_qr_scan"}, "bike_id": "9273011f5299321b7c054db94949a2e8", "lat": 38.90181966666667, "name": "9273011f5299321b7c054db94949a2e8", "lon": -76.97671966666667, "fusion_lon": 0.0}, {"is_reserved": 0, "type": "electric_scooter", "fusion_lat": 0.0, "is_disabled": 0, "rental_uris": {"ios": "https://dc.lft.to/lastmile_qr_scan", "android": "https://dc.lft.to/lastmile_qr_scan"}, "bike_id": "130c56a1c8ca40233df4a9916c3fdd41", "lat": 38.87886616666667, "name": "130c56a1c8ca40233df4a9916c3fdd41", "lon": -76.96543633333333, "fusion_lon": 0.0}, {"is_reserved": 0, "type": "electric_scooter", "fusion_lat": 0.0, "is_disabled": 0, "rental_uris": {"ios": "https://dc.lft.to/lastmile_qr_scan", "android": "https://dc.lft.to/lastmile_qr_scan"}, "bike_id": "23ad7d5ae0789e29038a8de8d7605880", "lat": 38.87403033333333, "name": "23ad7d5ae0789e29038a8de8d7605880", "lon": -76.99994833333334, "fusion_lon": 0.0}, {"is_reserved": 0, "type": "electric_scooter", "fusion_lat": 0.0, "is_disabled": 0, "rental_uris": {"ios": "https://dc.lft.to/lastmile_qr_scan", "android": "https://dc.lft.to/lastmile_qr_scan"}, "bike_id": "88de7ac0a74f2f31b86d80615b40ce88", "lat": 38.8994205, "name": "88de7ac0a74f2f31b86d80615b40ce88", "lon": -76.937632, "fusion_lon": 0.0}, {"is_reserved": 0, "type": "electric_bike", "fusion_lat": 0.0, "is_disabled": 0, "rental_uris": {"ios": "https://dc.lft.to/lastmile_qr_scan", "android": "https://dc.lft.to/lastmile_qr_scan"}, "bike_id": "bece7b91c09a172140f8c61d9c16f68b", "lat": 39.03475366666667, "name": "bece7b91c09a172140f8c61d9c16f68b", "lon": -77.040997, "fusion_lon": 0.0}, {"is_reserved": 0, "type": "electric_scooter", "fusion_lat": 0.0, "is_disabled": 0, "rental_uris": {"ios": "https://dc.lft.to/lastmile_qr_scan", "android": "https://dc.lft.to/lastmile_qr_scan"}, "bike_id": "36457d5d788be5fae3b560e1594ff9b7", "lat": 38.910053833333336, "name": "36457d5d788be5fae3b560e1594ff9b7", "lon": -77.04422583333333, "fusion_lon": 0.0}, {"is_reserved": 0, "type": "electric_scooter", "fusion_lat": 0.0, "is_disabled": 0, "rental_uris": {"ios": "https://dc.lft.to/lastmile_qr_scan", "android": "https://dc.lft.to/lastmile_qr_scan"}, "bike_id": "dcd3beac1c55f248d03c587e078779c2", "lat": 38.9167045, "name": "dcd3beac1c55f248d03c587e078779c2", "lon": -77.02685683333333, "fusion_lon": 0.0}, {"is_reserved": 0, "type": "electric_scooter", "fusion_lat": 0.0, "is_disabled": 0, "rental_uris": {"ios": "https://dc.lft.to/lastmile_qr_scan", "android": "https://dc.lft.to/lastmile_qr_scan"}, "bike_id": "8ab9de9e162557fb5eb2d2a7f442dff7", "lat": 38.94297316666667, "name": "8ab9de9e162557fb5eb2d2a7f442dff7", "lon": -77.02526516666667, "fusion_lon": 0.0}, {"is_reserved": 0, "type": "electric_scooter", "fusion_lat": 0.0, "is_disabled": 0, "rental_uris": {"ios": "https://dc.lft.to/lastmile_qr_scan", "android": "https://dc.lft.to/lastmile_qr_scan"}, "bike_id": "5e0e21e62af478b02fd6f7b6c35a2ec7", "lat": 38.90554516666667, "name": "5e0e21e62af478b02fd6f7b6c35a2ec7", "lon": -77.005962, "fusion_lon": 0.0}, {"is_reserved": 0, "type": "electric_scooter", "fusion_lat": 0.0, "is_disabled": 0, "rental_uris": {"ios": "https://dc.lft.to/lastmile_qr_scan", "android": "https://dc.lft.to/lastmile_qr_scan"}, "bike_id": "16d7241a7eede6ec189dffaba64b388d", "lat": 38.919586, "name": "16d7241a7eede6ec189dffaba64b388d", "lon": -77.02384066666667, "fusion_lon": 0.0}, {"is_reserved": 0, "type": "electric_scooter", "fusion_lat": 0.0, "is_disabled": 0, "rental_uris": {"ios": "https://dc.lft.to/lastmile_qr_scan", "android": "https://dc.lft.to/lastmile_qr_scan"}, "bike_id": "79487d8818a21c104ca2c737776ce3e6", "lat": 38.89665866666667, "name": "79487d8818a21c104ca2c737776ce3e6", "lon": -76.93206766666667, "fusion_lon": 0.0}, {"is_reserved": 0, "type": "electric_scooter", "fusion_lat": 0.0, "is_disabled": 0, "rental_uris": {"ios": "https://dc.lft.to/lastmile_qr_scan", "android": "https://dc.lft.to/lastmile_qr_scan"}, "bike_id": "77d1b6e063bc7ca5e61a189116ffeacd", "lat": 38.900119833333335, "name": "77d1b6e063bc7ca5e61a189116ffeacd", "lon": -77.00683666666667, "fusion_lon": 0.0}, {"is_reserved": 0, "type": "electric_scooter", "fusion_lat": 0.0, "is_disabled": 0, "rental_uris": {"ios": "https://dc.lft.to/lastmile_qr_scan", "android": "https://dc.lft.to/lastmile_qr_scan"}, "bike_id": "5117afb84179b3902c522d866d39bae7", "lat": 38.92636516666666, "name": "5117afb84179b3902c522d866d39bae7", "lon": -77.03832933333334, "fusion_lon": 0.0}, {"is_reserved": 0, "type": "electric_scooter", "fusion_lat": 0.0, "is_disabled": 0, "rental_uris": {"ios": "https://dc.lft.to/lastmile_qr_scan", "android": "https://dc.lft.to/lastmile_qr_scan"}, "bike_id": "6b9acf0f2011ae045445e5087c11bd57", "lat": 38.91899216666667, "name": "6b9acf0f2011ae045445e5087c11bd57", "lon": -77.000468, "fusion_lon": 0.0}, {"is_reserved": 0, "type": "electric_scooter", "fusion_lat": 0.0, "is_disabled": 0, "rental_uris": {"ios": "https://dc.lft.to/lastmile_qr_scan", "android": "https://dc.lft.to/lastmile_qr_scan"}, "bike_id": "33bd2d2256df99c5fa9eb57856b9e482", "lat": 38.90143316666666, "name": "33bd2d2256df99c5fa9eb57856b9e482", "lon": -77.04193583333333, "fusion_lon": 0.0}, {"is_reserved": 0, "type": "electric_bike", "fusion_lat": 0.0, "is_disabled": 0, "rental_uris": {"ios": "https://dc.lft.to/lastmile_qr_scan", "android": "https://dc.lft.to/lastmile_qr_scan"}, "bike_id": "8e2ded1494cc499c40e5c69a697037e0", "lat": 38.86813216666667, "name": "8e2ded1494cc499c40e5c69a697037e0", "lon": -76.98026683333333, "fusion_lon": 0.0}, {"is_reserved": 0, "type": "electric_scooter", "fusion_lat": 0.0, "is_disabled": 0, "rental_uris": {"ios": "https://dc.lft.to/lastmile_qr_scan", "android": "https://dc.lft.to/lastmile_qr_scan"}, "bike_id": "e3b2c1363ecdf793b233d63417d23bba", "lat": 38.9550055, "name": "e3b2c1363ecdf793b233d63417d23bba", "lon": -77.06997633333333, "fusion_lon": 0.0}, {"is_reserved": 0, "type": "electric_scooter", "fusion_lat": 0.0, "is_disabled": 0, "rental_uris": {"ios": "https://dc.lft.to/lastmile_qr_scan", "android": "https://dc.lft.to/lastmile_qr_scan"}, "bike_id": "9b8164958c937221fa1f1fe519a5ff22", "lat": 38.923345, "name": "9b8164958c937221fa1f1fe519a5ff22", "lon": -76.98488033333334, "fusion_lon": 0.0}, {"is_reserved": 0, "type": "electric_scooter", "fusion_lat": 0.0, "is_disabled": 0, "rental_uris": {"ios": "https://dc.lft.to/lastmile_qr_scan", "android": "https://dc.lft.to/lastmile_qr_scan"}, "bike_id": "30bb1d94a5e82db7ffb2003cca014562", "lat": 38.9087175, "name": "30bb1d94a5e82db7ffb2003cca014562", "lon": -77.04053183333333, "fusion_lon": 0.0}, {"is_reserved": 0, "type": "electric_scooter", "fusion_lat": 0.0, "is_disabled": 0, "rental_uris": {"ios": "https://dc.lft.to/lastmile_qr_scan", "android": "https://dc.lft.to/lastmile_qr_scan"}, "bike_id": "175590e121ad52835eec943ec1cbe450", "lat": 38.923575666666665, "name": "175590e121ad52835eec943ec1cbe450", "lon": -77.0364135, "fusion_lon": 0.0}, {"is_reserved": 0, "type": "electric_scooter", "fusion_lat": 0.0, "is_disabled": 0, "rental_uris": {"ios": "https://dc.lft.to/lastmile_qr_scan", "android": "https://dc.lft.to/lastmile_qr_scan"}, "bike_id": "c40d641bd0497f967c6ab73dbc38b951", "lat": 38.92180183333333, "name": "c40d641bd0497f967c6ab73dbc38b951", "lon": -77.04600916666666, "fusion_lon": 0.0}, {"is_reserved": 0, "type": "electric_scooter", "fusion_lat": 0.0, "is_disabled": 0, "rental_uris": {"ios": "https://dc.lft.to/lastmile_qr_scan", "android": "https://dc.lft.to/lastmile_qr_scan"}, "bike_id": "c68e1d93413e0c4629d48471baf9b55d", "lat": 38.901401, "name": "c68e1d93413e0c4629d48471baf9b55d", "lon": -76.93159366666667, "fusion_lon": 0.0}, {"is_reserved": 0, "type": "electric_bike", "fusion_lat": 0.0, "is_disabled": 0, "rental_uris": {"ios": "https://dc.lft.to/lastmile_qr_scan", "android": "https://dc.lft.to/lastmile_qr_scan"}, "bike_id": "63c661640f3525f8563abd090d8f7b60", "lat": 38.813333166666666, "name": "63c661640f3525f8563abd090d8f7b60", "lon": -77.05093933333333, "fusion_lon": 0.0}, {"is_reserved": 0, "type": "electric_scooter", "fusion_lat": 0.0, "is_disabled": 0, "rental_uris": {"ios": "https://dc.lft.to/lastmile_qr_scan", "android": "https://dc.lft.to/lastmile_qr_scan"}, "bike_id": "baadd3834974cc9551c8bd16e0bd218c", "lat": 38.921732166666665, "name": "baadd3834974cc9551c8bd16e0bd218c", "lon": -77.0382695, "fusion_lon": 0.0}, {"is_reserved": 0, "type": "electric_scooter", "fusion_lat": 0.0, "is_disabled": 0, "rental_uris": {"ios": "https://dc.lft.to/lastmile_qr_scan", "android": "https://dc.lft.to/lastmile_qr_scan"}, "bike_id": "5a53b200aed62cfcf445feedd6e1c253", "lat": 38.901071333333334, "name": "5a53b200aed62cfcf445feedd6e1c253", "lon": -77.018276, "fusion_lon": 0.0}, {"is_reserved": 0, "type": "electric_bike", "fusion_lat": 0.0, "is_disabled": 0, "rental_uris": {"ios": "https://dc.lft.to/lastmile_qr_scan", "android": "https://dc.lft.to/lastmile_qr_scan"}, "bike_id": "06ca267353868e3f4f618961fe5368ad", "lat": 38.9068985, "name": "06ca267353868e3f4f618961fe5368ad", "lon": -76.95250233333333, "fusion_lon": 0.0}, {"is_reserved": 0, "type": "electric_scooter", "fusion_lat": 0.0, "is_disabled": 0, "rental_uris": {"ios": "https://dc.lft.to/lastmile_qr_scan", "android": "https://dc.lft.to/lastmile_qr_scan"}, "bike_id": "5e076f0b179215ee35f891dd07746d52", "lat": 38.9661825, "name": "5e076f0b179215ee35f891dd07746d52", "lon": -77.02001316666667, "fusion_lon": 0.0}, {"is_reserved": 0, "type": "electric_scooter", "fusion_lat": 0.0, "is_disabled": 0, "rental_uris": {"ios": "https://dc.lft.to/lastmile_qr_scan", "android": "https://dc.lft.to/lastmile_qr_scan"}, "bike_id": "885e4d9d464264c22ebfc70960779035", "lat": 38.917362833333335, "name": "885e4d9d464264c22ebfc70960779035", "lon": -77.036116, "fusion_lon": 0.0}, {"is_reserved": 0, "type": "electric_scooter", "fusion_lat": 0.0, "is_disabled": 0, "rental_uris": {"ios": "https://dc.lft.to/lastmile_qr_scan", "android": "https://dc.lft.to/lastmile_qr_scan"}, "bike_id": "25405dc13ad4bbafeb5fdec93689178c", "lat": 38.89221366666666, "name": "25405dc13ad4bbafeb5fdec93689178c", "lon": -77.04639733333333, "fusion_lon": 0.0}, {"is_reserved": 0, "type": "electric_scooter", "fusion_lat": 0.0, "is_disabled": 0, "rental_uris": {"ios": "https://dc.lft.to/lastmile_qr_scan", "android": "https://dc.lft.to/lastmile_qr_scan"}, "bike_id": "0c532026eed55d2405e5d1d6c828d039", "lat": 38.92978883333333, "name": "0c532026eed55d2405e5d1d6c828d039", "lon": -77.031806, "fusion_lon": 0.0}, {"is_reserved": 0, "type": "electric_scooter", "fusion_lat": 0.0, "is_disabled": 0, "rental_uris": {"ios": "https://dc.lft.to/lastmile_qr_scan", "android": "https://dc.lft.to/lastmile_qr_scan"}, "bike_id": "f1028e3b6d650dfa9d854eec8d380b56", "lat": 38.912491833333334, "name": "f1028e3b6d650dfa9d854eec8d380b56", "lon": -76.98674533333333, "fusion_lon": 0.0}, {"is_reserved": 0, "type": "electric_scooter", "fusion_lat": 0.0, "is_disabled": 0, "rental_uris": {"ios": "https://dc.lft.to/lastmile_qr_scan", "android": "https://dc.lft.to/lastmile_qr_scan"}, "bike_id": "6558fb40ea2d7228fb39965204da154b", "lat": 38.897685, "name": "6558fb40ea2d7228fb39965204da154b", "lon": -77.04768833333333, "fusion_lon": 0.0}, {"is_reserved": 0, "type": "electric_bike", "fusion_lat": 0.0, "is_disabled": 0, "rental_uris": {"ios": "https://dc.lft.to/lastmile_qr_scan", "android": "https://dc.lft.to/lastmile_qr_scan"}, "bike_id": "05008a3240eb5cf34431da827287cf6d", "lat": 38.865513666666665, "name": "05008a3240eb5cf34431da827287cf6d", "lon": -76.94149383333334, "fusion_lon": 0.0}, {"is_reserved": 0, "type": "electric_scooter", "fusion_lat": 0.0, "is_disabled": 0, "rental_uris": {"ios": "https://dc.lft.to/lastmile_qr_scan", "android": "https://dc.lft.to/lastmile_qr_scan"}, "bike_id": "5c2186ddfb60f9cbce885bc6783987f3", "lat": 38.91069566666667, "name": "5c2186ddfb60f9cbce885bc6783987f3", "lon": -77.01612066666667, "fusion_lon": 0.0}, {"is_reserved": 0, "type": "electric_bike", "fusion_lat": 0.0, "is_disabled": 0, "rental_uris": {"ios": "https://dc.lft.to/lastmile_qr_scan", "android": "https://dc.lft.to/lastmile_qr_scan"}, "bike_id": "d86e84e57de99e176712a5b8537c3caa", "lat": 38.819391833333334, "name": "d86e84e57de99e176712a5b8537c3caa", "lon": -77.00206616666667, "fusion_lon": 0.0}, {"is_reserved": 0, "type": "electric_scooter", "fusion_lat": 0.0, "is_disabled": 0, "rental_uris": {"ios": "https://dc.lft.to/lastmile_qr_scan", "android": "https://dc.lft.to/lastmile_qr_scan"}, "bike_id": "6a2ba35aad3b3db64156dd8b89f0a589", "lat": 38.92446783333333, "name": "6a2ba35aad3b3db64156dd8b89f0a589", "lon": -77.02040816666667, "fusion_lon": 0.0}, {"is_reserved": 0, "type": "electric_scooter", "fusion_lat": 0.0, "is_disabled": 0, "rental_uris": {"ios": "https://dc.lft.to/lastmile_qr_scan", "android": "https://dc.lft.to/lastmile_qr_scan"}, "bike_id": "4f4ccdd6031d46f22c5d0968658349fd", "lat": 38.9446475, "name": "4f4ccdd6031d46f22c5d0968658349fd", "lon": -77.00658966666667, "fusion_lon": 0.0}, {"is_reserved": 0, "type": "electric_scooter", "fusion_lat": 0.0, "is_disabled": 0, "rental_uris": {"ios": "https://dc.lft.to/lastmile_qr_scan", "android": "https://dc.lft.to/lastmile_qr_scan"}, "bike_id": "0bacc59e4475c1850dc6c91ffb86bd97", "lat": 38.89713016666666, "name": "0bacc59e4475c1850dc6c91ffb86bd97", "lon": -77.01322583333334, "fusion_lon": 0.0}, {"is_reserved": 0, "type": "electric_scooter", "fusion_lat": 0.0, "is_disabled": 0, "rental_uris": {"ios": "https://dc.lft.to/lastmile_qr_scan", "android": "https://dc.lft.to/lastmile_qr_scan"}, "bike_id": "e2a7f4ce2bffd842140608af0e814129", "lat": 38.8981705, "name": "e2a7f4ce2bffd842140608af0e814129", "lon": -76.99835316666666, "fusion_lon": 0.0}, {"is_reserved": 0, "type": "electric_scooter", "fusion_lat": 0.0, "is_disabled": 0, "rental_uris": {"ios": "https://dc.lft.to/lastmile_qr_scan", "android": "https://dc.lft.to/lastmile_qr_scan"}, "bike_id": "8836e1b78d3e8c2597b90e5525218d8e", "lat": 38.87845383333333, "name": "8836e1b78d3e8c2597b90e5525218d8e", "lon": -77.008913, "fusion_lon": 0.0}, {"is_reserved": 0, "type": "electric_scooter", "fusion_lat": 0.0, "is_disabled": 0, "rental_uris": {"ios": "https://dc.lft.to/lastmile_qr_scan", "android": "https://dc.lft.to/lastmile_qr_scan"}, "bike_id": "03def3523d059cb329ddf2696dad8a26", "lat": 38.896009666666664, "name": "03def3523d059cb329ddf2696dad8a26", "lon": -77.010848, "fusion_lon": 0.0}, {"is_reserved": 0, "type": "electric_scooter", "fusion_lat": 0.0, "is_disabled": 0, "rental_uris": {"ios": "https://dc.lft.to/lastmile_qr_scan", "android": "https://dc.lft.to/lastmile_qr_scan"}, "bike_id": "48eb773b04a33712551f1d1c218fd805", "lat": 38.920620166666666, "name": "48eb773b04a33712551f1d1c218fd805", "lon": -77.00055366666666, "fusion_lon": 0.0}, {"is_reserved": 0, "type": "electric_scooter", "fusion_lat": 0.0, "is_disabled": 0, "rental_uris": {"ios": "https://dc.lft.to/lastmile_qr_scan", "android": "https://dc.lft.to/lastmile_qr_scan"}, "bike_id": "717d7fc366afd964111a796e7696e647", "lat": 38.93226883333333, "name": "717d7fc366afd964111a796e7696e647", "lon": -77.02961733333333, "fusion_lon": 0.0}, {"is_reserved": 0, "type": "electric_scooter", "fusion_lat": 0.0, "is_disabled": 0, "rental_uris": {"ios": "https://dc.lft.to/lastmile_qr_scan", "android": "https://dc.lft.to/lastmile_qr_scan"}, "bike_id": "7c6393ff4d63b7e6bf281b9016cb789e", "lat": 38.91961766666667, "name": "7c6393ff4d63b7e6bf281b9016cb789e", "lon": -77.03179466666667, "fusion_lon": 0.0}, {"is_reserved": 0, "type": "electric_scooter", "fusion_lat": 0.0, "is_disabled": 0, "rental_uris": {"ios": "https://dc.lft.to/lastmile_qr_scan", "android": "https://dc.lft.to/lastmile_qr_scan"}, "bike_id": "89a6c7eb6996b1e9464f70d7b29c04f5", "lat": 38.896913166666664, "name": "89a6c7eb6996b1e9464f70d7b29c04f5", "lon": -77.00493066666667, "fusion_lon": 0.0}, {"is_reserved": 0, "type": "electric_scooter", "fusion_lat": 0.0, "is_disabled": 0, "rental_uris": {"ios": "https://dc.lft.to/lastmile_qr_scan", "android": "https://dc.lft.to/lastmile_qr_scan"}, "bike_id": "38b15233d48fc9672743df69046c3885", "lat": 38.892017833333334, "name": "38b15233d48fc9672743df69046c3885", "lon": -76.9985165, "fusion_lon": 0.0}, {"is_reserved": 0, "type": "electric_scooter", "fusion_lat": 0.0, "is_disabled": 0, "rental_uris": {"ios": "https://dc.lft.to/lastmile_qr_scan", "android": "https://dc.lft.to/lastmile_qr_scan"}, "bike_id": "8e28c23252dc974b2941af9273bfe07b", "lat": 38.913381666666666, "name": "8e28c23252dc974b2941af9273bfe07b", "lon": -77.01068783333334, "fusion_lon": 0.0}, {"is_reserved": 0, "type": "electric_scooter", "fusion_lat": 0.0, "is_disabled": 0, "rental_uris": {"ios": "https://dc.lft.to/lastmile_qr_scan", "android": "https://dc.lft.to/lastmile_qr_scan"}, "bike_id": "ca68f3de7037bd283f0da28b36d33152", "lat": 38.91561333333333, "name": "ca68f3de7037bd283f0da28b36d33152", "lon": -77.03167916666666, "fusion_lon": 0.0}, {"is_reserved": 0, "type": "electric_scooter", "fusion_lat": 0.0, "is_disabled": 0, "rental_uris": {"ios": "https://dc.lft.to/lastmile_qr_scan", "android": "https://dc.lft.to/lastmile_qr_scan"}, "bike_id": "385774152d3fade7f330cd92789c55e6", "lat": 38.9467795, "name": "385774152d3fade7f330cd92789c55e6", "lon": -77.03278483333334, "fusion_lon": 0.0}, {"is_reserved": 0, "type": "electric_bike", "fusion_lat": 0.0, "is_disabled": 0, "rental_uris": {"ios": "https://dc.lft.to/lastmile_qr_scan", "android": "https://dc.lft.to/lastmile_qr_scan"}, "bike_id": "97ec2f6da478ec26738c469da872a234", "lat": 38.813317833333336, "name": "97ec2f6da478ec26738c469da872a234", "lon": -77.05090616666666, "fusion_lon": 0.0}, {"is_reserved": 0, "type": "electric_scooter", "fusion_lat": 0.0, "is_disabled": 0, "rental_uris": {"ios": "https://dc.lft.to/lastmile_qr_scan", "android": "https://dc.lft.to/lastmile_qr_scan"}, "bike_id": "718473711b27ce42e0f73a7d4c59d61a", "lat": 38.9390385, "name": "718473711b27ce42e0f73a7d4c59d61a", "lon": -77.032851, "fusion_lon": 0.0}, {"is_reserved": 0, "type": "electric_scooter", "fusion_lat": 0.0, "is_disabled": 0, "rental_uris": {"ios": "https://dc.lft.to/lastmile_qr_scan", "android": "https://dc.lft.to/lastmile_qr_scan"}, "bike_id": "f25613d2b1a0d23b417b403fce7df3ed", "lat": 38.895324, "name": "f25613d2b1a0d23b417b403fce7df3ed", "lon": -76.94892433333334, "fusion_lon": 0.0}, {"is_reserved": 0, "type": "electric_scooter", "fusion_lat": 0.0, "is_disabled": 0, "rental_uris": {"ios": "https://dc.lft.to/lastmile_qr_scan", "android": "https://dc.lft.to/lastmile_qr_scan"}, "bike_id": "2a38f055f0231618cc276071ef5f286b", "lat": 38.93194283333333, "name": "2a38f055f0231618cc276071ef5f286b", "lon": -77.03264466666667, "fusion_lon": 0.0}, {"is_reserved": 0, "type": "electric_scooter", "fusion_lat": 0.0, "is_disabled": 0, "rental_uris": {"ios": "https://dc.lft.to/lastmile_qr_scan", "android": "https://dc.lft.to/lastmile_qr_scan"}, "bike_id": "80a73a4f44e267f76158467d1a27d281", "lat": 38.877181666666665, "name": "80a73a4f44e267f76158467d1a27d281", "lon": -77.00557883333333, "fusion_lon": 0.0}, {"is_reserved": 0, "type": "electric_scooter", "fusion_lat": 0.0, "is_disabled": 0, "rental_uris": {"ios": "https://dc.lft.to/lastmile_qr_scan", "android": "https://dc.lft.to/lastmile_qr_scan"}, "bike_id": "95159c0a13a1e7ae3cc248ae73b676ee", "lat": 38.9228925, "name": "95159c0a13a1e7ae3cc248ae73b676ee", "lon": -77.02064866666667, "fusion_lon": 0.0}, {"is_reserved": 0, "type": "electric_bike", "fusion_lat": 0.0, "is_disabled": 0, "rental_uris": {"ios": "https://dc.lft.to/lastmile_qr_scan", "android": "https://dc.lft.to/lastmile_qr_scan"}, "bike_id": "705e876990106c7a11afd4ce17f7e9b8", "lat": 38.96126016666667, "name": "705e876990106c7a11afd4ce17f7e9b8", "lon": -77.03275383333333, "fusion_lon": 0.0}, {"is_reserved": 0, "type": "electric_scooter", "fusion_lat": 0.0, "is_disabled": 0, "rental_uris": {"ios": "https://dc.lft.to/lastmile_qr_scan", "android": "https://dc.lft.to/lastmile_qr_scan"}, "bike_id": "67344b62465904a94f4ef633de5b3c1b", "lat": 38.899534833333334, "name": "67344b62465904a94f4ef633de5b3c1b", "lon": -77.0474975, "fusion_lon": 0.0}, {"is_reserved": 0, "type": "electric_scooter", "fusion_lat": 0.0, "is_disabled": 0, "rental_uris": {"ios": "https://dc.lft.to/lastmile_qr_scan", "android": "https://dc.lft.to/lastmile_qr_scan"}, "bike_id": "1e2891836cb3635a14c207366614d3a5", "lat": 38.88367516666667, "name": "1e2891836cb3635a14c207366614d3a5", "lon": -76.9951535, "fusion_lon": 0.0}, {"is_reserved": 0, "type": "electric_bike", "fusion_lat": 0.0, "is_disabled": 0, "rental_uris": {"ios": "https://dc.lft.to/lastmile_qr_scan", "android": "https://dc.lft.to/lastmile_qr_scan"}, "bike_id": "be66f6b2431f521d077b49d9090e323c", "lat": 38.894232, "name": "be66f6b2431f521d077b49d9090e323c", "lon": -77.094447, "fusion_lon": 0.0}, {"is_reserved": 0, "type": "electric_scooter", "fusion_lat": 0.0, "is_disabled": 0, "rental_uris": {"ios": "https://dc.lft.to/lastmile_qr_scan", "android": "https://dc.lft.to/lastmile_qr_scan"}, "bike_id": "56cf25946f63d8fe49f278b54133587d", "lat": 38.90660466666667, "name": "56cf25946f63d8fe49f278b54133587d", "lon": -77.01626066666667, "fusion_lon": 0.0}, {"is_reserved": 0, "type": "electric_bike", "fusion_lat": 0.0, "is_disabled": 0, "rental_uris": {"ios": "https://dc.lft.to/lastmile_qr_scan", "android": "https://dc.lft.to/lastmile_qr_scan"}, "bike_id": "3c3c009348c83f517bc9a3e1cccb6445", "lat": 38.982319333333336, "name": "3c3c009348c83f517bc9a3e1cccb6445", "lon": -77.095639, "fusion_lon": 0.0}, {"is_reserved": 0, "type": "electric_bike", "fusion_lat": 0.0, "is_disabled": 0, "rental_uris": {"ios": "https://dc.lft.to/lastmile_qr_scan", "android": "https://dc.lft.to/lastmile_qr_scan"}, "bike_id": "f8dee3c6b2747beb1910db35f3a8850b", "lat": 38.840934833333336, "name": "f8dee3c6b2747beb1910db35f3a8850b", "lon": -76.9702505, "fusion_lon": 0.0}, {"is_reserved": 0, "type": "electric_scooter", "fusion_lat": 0.0, "is_disabled": 0, "rental_uris": {"ios": "https://dc.lft.to/lastmile_qr_scan", "android": "https://dc.lft.to/lastmile_qr_scan"}, "bike_id": "c79da76fd499d9dbdaf26ad051009f08", "lat": 38.898452, "name": "c79da76fd499d9dbdaf26ad051009f08", "lon": -77.01877483333334, "fusion_lon": 0.0}, {"is_reserved": 0, "type": "electric_scooter", "fusion_lat": 0.0, "is_disabled": 0, "rental_uris": {"ios": "https://dc.lft.to/lastmile_qr_scan", "android": "https://dc.lft.to/lastmile_qr_scan"}, "bike_id": "e62795b11fafbc2e4e3c4c76a3d473ca", "lat": 38.9079615, "name": "e62795b11fafbc2e4e3c4c76a3d473ca", "lon": -77.00199116666667, "fusion_lon": 0.0}, {"is_reserved": 0, "type": "electric_bike", "fusion_lat": 0.0, "is_disabled": 0, "rental_uris": {"ios": "https://dc.lft.to/lastmile_qr_scan", "android": "https://dc.lft.to/lastmile_qr_scan"}, "bike_id": "d795d5d98b42405fe6dc707839610692", "lat": 39.022972333333335, "name": "d795d5d98b42405fe6dc707839610692", "lon": -77.02104383333334, "fusion_lon": 0.0}, {"is_reserved": 0, "type": "electric_bike", "fusion_lat": 0.0, "is_disabled": 0, "rental_uris": {"ios": "https://dc.lft.to/lastmile_qr_scan", "android": "https://dc.lft.to/lastmile_qr_scan"}, "bike_id": "81141487505df1cd74b5e6d2908d4795", "lat": 38.974755333333334, "name": "81141487505df1cd74b5e6d2908d4795", "lon": -76.98672066666667, "fusion_lon": 0.0}, {"is_reserved": 0, "type": "electric_scooter", "fusion_lat": 0.0, "is_disabled": 0, "rental_uris": {"ios": "https://dc.lft.to/lastmile_qr_scan", "android": "https://dc.lft.to/lastmile_qr_scan"}, "bike_id": "021d714cbe740353b3f4b2e69c6d9561", "lat": 38.9121615, "name": "021d714cbe740353b3f4b2e69c6d9561", "lon": -77.03839316666667, "fusion_lon": 0.0}, {"is_reserved": 0, "type": "electric_scooter", "fusion_lat": 0.0, "is_disabled": 0, "rental_uris": {"ios": "https://dc.lft.to/lastmile_qr_scan", "android": "https://dc.lft.to/lastmile_qr_scan"}, "bike_id": "26bf04a7558456eace476f6d635b8584", "lat": 38.92033766666667, "name": "26bf04a7558456eace476f6d635b8584", "lon": -77.04182566666667, "fusion_lon": 0.0}, {"is_reserved": 0, "type": "electric_scooter", "fusion_lat": 0.0, "is_disabled": 0, "rental_uris": {"ios": "https://dc.lft.to/lastmile_qr_scan", "android": "https://dc.lft.to/lastmile_qr_scan"}, "bike_id": "e49800d3672f0e616ff5ac0db84e085c", "lat": 38.9247985, "name": "e49800d3672f0e616ff5ac0db84e085c", "lon": -77.02548033333333, "fusion_lon": 0.0}, {"is_reserved": 0, "type": "electric_scooter", "fusion_lat": 0.0, "is_disabled": 0, "rental_uris": {"ios": "https://dc.lft.to/lastmile_qr_scan", "android": "https://dc.lft.to/lastmile_qr_scan"}, "bike_id": "d16e6189f94dd98544c3f1fadd3d6107", "lat": 38.919735333333335, "name": "d16e6189f94dd98544c3f1fadd3d6107", "lon": -77.07100616666666, "fusion_lon": 0.0}, {"is_reserved": 0, "type": "electric_scooter", "fusion_lat": 0.0, "is_disabled": 0, "rental_uris": {"ios": "https://dc.lft.to/lastmile_qr_scan", "android": "https://dc.lft.to/lastmile_qr_scan"}, "bike_id": "aa88475ff82adad44bcbc1db7075f8ef", "lat": 38.92823533333333, "name": "aa88475ff82adad44bcbc1db7075f8ef", "lon": -77.02155216666667, "fusion_lon": 0.0}, {"is_reserved": 0, "type": "electric_scooter", "fusion_lat": 0.0, "is_disabled": 0, "rental_uris": {"ios": "https://dc.lft.to/lastmile_qr_scan", "android": "https://dc.lft.to/lastmile_qr_scan"}, "bike_id": "b64054872ce33e8a2d2346b4edf579ce", "lat": 38.912575333333336, "name": "b64054872ce33e8a2d2346b4edf579ce", "lon": -77.038818, "fusion_lon": 0.0}, {"is_reserved": 0, "type": "electric_scooter", "fusion_lat": 0.0, "is_disabled": 0, "rental_uris": {"ios": "https://dc.lft.to/lastmile_qr_scan", "android": "https://dc.lft.to/lastmile_qr_scan"}, "bike_id": "21b440f5dfabc76a21faf0806b7ee355", "lat": 38.91588766666667, "name": "21b440f5dfabc76a21faf0806b7ee355", "lon": -76.9838795, "fusion_lon": 0.0}, {"is_reserved": 0, "type": "electric_scooter", "fusion_lat": 0.0, "is_disabled": 0, "rental_uris": {"ios": "https://dc.lft.to/lastmile_qr_scan", "android": "https://dc.lft.to/lastmile_qr_scan"}, "bike_id": "404c4a79c5f05816d6fefe2a17436235", "lat": 38.939795833333335, "name": "404c4a79c5f05816d6fefe2a17436235", "lon": -77.02876316666666, "fusion_lon": 0.0}, {"is_reserved": 0, "type": "electric_bike", "fusion_lat": 0.0, "is_disabled": 0, "rental_uris": {"ios": "https://dc.lft.to/lastmile_qr_scan", "android": "https://dc.lft.to/lastmile_qr_scan"}, "bike_id": "3ea6e24badcc6d6ca6697190b778eefb", "lat": 38.882737, "name": "3ea6e24badcc6d6ca6697190b778eefb", "lon": -76.932389, "fusion_lon": 0.0}, {"is_reserved": 0, "type": "electric_scooter", "fusion_lat": 0.0, "is_disabled": 0, "rental_uris": {"ios": "https://dc.lft.to/lastmile_qr_scan", "android": "https://dc.lft.to/lastmile_qr_scan"}, "bike_id": "ef4a6e875c1efbb9322d670447226322", "lat": 38.89466183333333, "name": "ef4a6e875c1efbb9322d670447226322", "lon": -77.02725083333333, "fusion_lon": 0.0}, {"is_reserved": 0, "type": "electric_scooter", "fusion_lat": 0.0, "is_disabled": 0, "rental_uris": {"ios": "https://dc.lft.to/lastmile_qr_scan", "android": "https://dc.lft.to/lastmile_qr_scan"}, "bike_id": "b139b85d4655c7f1cec4b91c945afc81", "lat": 38.892244, "name": "b139b85d4655c7f1cec4b91c945afc81", "lon": -77.0448985, "fusion_lon": 0.0}, {"is_reserved": 0, "type": "electric_scooter", "fusion_lat": 0.0, "is_disabled": 0, "rental_uris": {"ios": "https://dc.lft.to/lastmile_qr_scan", "android": "https://dc.lft.to/lastmile_qr_scan"}, "bike_id": "34436f040755a1002c333c77d378d541", "lat": 38.9112485, "name": "34436f040755a1002c333c77d378d541", "lon": -77.00490266666667, "fusion_lon": 0.0}, {"is_reserved": 0, "type": "electric_scooter", "fusion_lat": 0.0, "is_disabled": 0, "rental_uris": {"ios": "https://dc.lft.to/lastmile_qr_scan", "android": "https://dc.lft.to/lastmile_qr_scan"}, "bike_id": "33404abb0602767771d3a7f981140848", "lat": 38.9272015, "name": "33404abb0602767771d3a7f981140848", "lon": -77.03151216666667, "fusion_lon": 0.0}, {"is_reserved": 0, "type": "electric_bike", "fusion_lat": 0.0, "is_disabled": 0, "rental_uris": {"ios": "https://dc.lft.to/lastmile_qr_scan", "android": "https://dc.lft.to/lastmile_qr_scan"}, "bike_id": "80dc030187be3784382323b6fec9eec3", "lat": 38.9364115, "name": "80dc030187be3784382323b6fec9eec3", "lon": -76.95457666666667, "fusion_lon": 0.0}, {"is_reserved": 0, "type": "electric_scooter", "fusion_lat": 0.0, "is_disabled": 0, "rental_uris": {"ios": "https://dc.lft.to/lastmile_qr_scan", "android": "https://dc.lft.to/lastmile_qr_scan"}, "bike_id": "273e3838e413a2807ec26ea2e97b599a", "lat": 38.89445283333333, "name": "273e3838e413a2807ec26ea2e97b599a", "lon": -76.9808695, "fusion_lon": 0.0}, {"is_reserved": 0, "type": "electric_scooter", "fusion_lat": 0.0, "is_disabled": 0, "rental_uris": {"ios": "https://dc.lft.to/lastmile_qr_scan", "android": "https://dc.lft.to/lastmile_qr_scan"}, "bike_id": "13a92513fec0e4c63ded613024e74cb3", "lat": 38.92667266666667, "name": "13a92513fec0e4c63ded613024e74cb3", "lon": -76.995385, "fusion_lon": 0.0},