{"data": {"bikes": [{"bike_id": "49fbbb67e049d2afc67c6f15a335878d", "type": "electric_scooter", "is_disabled": 0, "lat": 38.939523, "rental_uris": {"ios": "https://dc.lft.to/lastmile_qr_scan", "android": "https://dc.lft.to/lastmile_qr_scan"}, "is_reserved": 0, "fusion_lon": 0.0, "fusion_lat": 0.0, "lon": -77.07256316666667, "name": "49fbbb67e049d2afc67c6f15a335878d"}, {"bike_id": "c5328f0871614892e6034792aadfe223", "type": "electric_bike", "is_disabled": 0, "lat": 38.83609516666667, "rental_uris": {"ios": "https://dc.lft.to/lastmile_qr_scan", "android": "https://dc.lft.to/lastmile_qr_scan"}, "is_reserved": 0, "fusion_lon": 0.0, "fusion_lat": 0.0, "lon": -77.00380316666667, "name": "c5328f0871614892e6034792aadfe223"}, {"bike_id": "81bebe983cf2a8d53a8a5661e567d3b2", "type": "electric_scooter", "is_disabled": 0, "lat": 38.901063666666666, "rental_uris": {"ios": "https://dc.lft.to/lastmile_qr_scan", "android": "https://dc.lft.to/lastmile_qr_scan"}, "is_reserved": 0, "fusion_lon": 0.0, "fusion_lat": 0.0, "lon": -77.03833183333333, "name": "81bebe983cf2a8d53a8a5661e567d3b2"}, {"bike_id": "851fe977c178f3314c531c8cc9d86663", "type": "electric_scooter", "is_disabled": 0, "lat": 38.843142, "rental_uris": {"ios": "https://dc.lft.to/lastmile_qr_scan", "android": "https://dc.lft.to/lastmile_qr_scan"}, "is_reserved": 0, "fusion_lon": 0.0, "fusion_lat": 0.0, "lon": -76.99929133333333, "name": "851fe977c178f3314c531c8cc9d86663"}, {"bike_id": "aa90b515a3ce94fe54f9def1311195a8", "type": "electric_scooter", "is_disabled": 0, "lat": 38.91986216666667, "rental_uris": {"ios": "https://dc.lft.to/lastmile_qr_scan", "android": "https://dc.lft.to/lastmile_qr_scan"}, "is_reserved": 0, "fusion_lon": 0.0, "fusion_lat": 0.0, "lon": -77.01794216666667, "name": "aa90b515a3ce94fe54f9def1311195a8"}, {"bike_id": "d15b7f3784fb925b2c5a90e971d3379b", "type": "electric_scooter", "is_disabled": 0, "lat": 38.911160833333334, "rental_uris": {"ios": "https://dc.lft.to/lastmile_qr_scan", "android": "https://dc.lft.to/lastmile_qr_scan"}, "is_reserved": 0, "fusion_lon": 0.0, "fusion_lat": 0.0, "lon": -77.0451695, "name": "d15b7f3784fb925b2c5a90e971d3379b"}, {"bike_id": "27c29a6fb16dfc5da2a755994ccd0a29", "type": "electric_scooter", "is_disabled": 0, "lat": 38.91330333333333, "rental_uris": {"ios": "https://dc.lft.to/lastmile_qr_scan", "android": "https://dc.lft.to/lastmile_qr_scan"}, "is_reserved": 0, "fusion_lon": 0.0, "fusion_lat": 0.0, "lon": -77.039929, "name": "27c29a6fb16dfc5da2a755994ccd0a29"}, {"bike_id": "7df3dbcc9da614b966454d50f9f97e7f", "type": "electric_scooter", "is_disabled": 0, "lat": 38.91471216666667, "rental_uris": {"ios": "https://dc.lft.to/lastmile_qr_scan", "android": "https://dc.lft.to/lastmile_qr_scan"}, "is_reserved": 0, "fusion_lon": 0.0, "fusion_lat": 0.0, "lon": -77.00216983333334, "name": "7df3dbcc9da614b966454d50f9f97e7f"}, {"bike_id": "a585030635f59158f9ea7a26809bdb74", "type": "electric_scooter", "is_disabled": 0, "lat": 38.923595666666664, "rental_uris": {"ios": "https://dc.lft.to/lastmile_qr_scan", "android": "https://dc.lft.to/lastmile_qr_scan"}, "is_reserved": 0, "fusion_lon": 0.0, "fusion_lat": 0.0, "lon": -77.05131083333333, "name": "a585030635f59158f9ea7a26809bdb74"}, {"bike_id": "0edf5f698d386a0a09859b55edab3cde", "type": "electric_bike", "is_disabled": 0, "lat": 38.89565566666667, "rental_uris": {"ios": "https://dc.lft.to/lastmile_qr_scan", "android": "https://dc.lft.to/lastmile_qr_scan"}, "is_reserved": 0, "fusion_lon": 0.0, "fusion_lat": 0.0, "lon": -77.12737616666666, "name": "0edf5f698d386a0a09859b55edab3cde"}, {"bike_id": "1ee74413601c893d3c4d6cb1f8bddb9f", "type": "electric_scooter", "is_disabled": 0, "lat": 38.922735, "rental_uris": {"ios": "https://dc.lft.to/lastmile_qr_scan", "android": "https://dc.lft.to/lastmile_qr_scan"}, "is_reserved": 0, "fusion_lon": 0.0, "fusion_lat": 0.0, "lon": -77.0366605, "name": "1ee74413601c893d3c4d6cb1f8bddb9f"}, {"bike_id": "837cf62df5a7b2f2dbe018961e15eacc", "type": "electric_scooter", "is_disabled": 0, "lat": 38.90086483333333, "rental_uris": {"ios": "https://dc.lft.to/lastmile_qr_scan", "android": "https://dc.lft.to/lastmile_qr_scan"}, "is_reserved": 0, "fusion_lon": 0.0, "fusion_lat": 0.0, "lon": -76.98327783333333, "name": "837cf62df5a7b2f2dbe018961e15eacc"}, {"bike_id": "63c50895d44d12d8c8d277ea8fa25d5f", "type": "electric_scooter", "is_disabled": 0, "lat": 38.902734333333335, "rental_uris": {"ios": "https://dc.lft.to/lastmile_qr_scan", "android": "https://dc.lft.to/lastmile_qr_scan"}, "is_reserved": 0, "fusion_lon": 0.0, "fusion_lat": 0.0, "lon": -77.0337805, "name": "63c50895d44d12d8c8d277ea8fa25d5f"}, {"bike_id": "266333776f2528f7da3ce89c97b021d8", "type": "electric_scooter", "is_disabled": 0, "lat": 38.914057166666666, "rental_uris": {"ios": "https://dc.lft.to/lastmile_qr_scan", "android": "https://dc.lft.to/lastmile_qr_scan"}, "is_reserved": 0, "fusion_lon": 0.0, "fusion_lat": 0.0, "lon": -77.03224966666667, "name": "266333776f2528f7da3ce89c97b021d8"}, {"bike_id": "4e603f7fbdc3740b76c9069ec2e4a081", "type": "electric_scooter", "is_disabled": 0, "lat": 38.91815866666666, "rental_uris": {"ios": "https://dc.lft.to/lastmile_qr_scan", "android": "https://dc.lft.to/lastmile_qr_scan"}, "is_reserved": 0, "fusion_lon": 0.0, "fusion_lat": 0.0, "lon": -77.02703583333333, "name": "4e603f7fbdc3740b76c9069ec2e4a081"}, {"bike_id": "58ea191d45f7f9af4bcb0534c698618a", "type": "electric_scooter", "is_disabled": 0, "lat": 38.900401, "rental_uris": {"ios": "https://dc.lft.to/lastmile_qr_scan", "android": "https://dc.lft.to/lastmile_qr_scan"}, "is_reserved": 0, "fusion_lon": 0.0, "fusion_lat": 0.0, "lon": -77.03668566666667, "name": "58ea191d45f7f9af4bcb0534c698618a"}, {"bike_id": "5950a9052ca940cbc98a86425172eee7", "type": "electric_scooter", "is_disabled": 0, "lat": 38.924710166666664, "rental_uris": {"ios": "https://dc.lft.to/lastmile_qr_scan", "android": "https://dc.lft.to/lastmile_qr_scan"}, "is_reserved": 0, "fusion_lon": 0.0, "fusion_lat": 0.0, "lon": -77.05215983333333, "name": "5950a9052ca940cbc98a86425172eee7"}, {"bike_id": "027e2c9311e8c3ac2bbe1e1e736bcb1e", "type": "electric_scooter", "is_disabled": 0, "lat": 38.909795333333335, "rental_uris": {"ios": "https://dc.lft.to/lastmile_qr_scan", "android": "https://dc.lft.to/lastmile_qr_scan"}, "is_reserved": 0, "fusion_lon": 0.0, "fusion_lat": 0.0, "lon": -77.034315, "name": "027e2c9311e8c3ac2bbe1e1e736bcb1e"}, {"bike_id": "3e869f4647315883387fb8b4aab17436", "type": "electric_scooter", "is_disabled": 0, "lat": 38.873848833333334, "rental_uris": {"ios": "https://dc.lft.to/lastmile_qr_scan", "android": "https://dc.lft.to/lastmile_qr_scan"}, "is_reserved": 0, "fusion_lon": 0.0, "fusion_lat": 0.0, "lon": -77.043576, "name": "3e869f4647315883387fb8b4aab17436"}, {"bike_id": "0b2397382f271e16a9565bd6156ec6b4", "type": "electric_scooter", "is_disabled": 0, "lat": 38.936673, "rental_uris": {"ios": "https://dc.lft.to/lastmile_qr_scan", "android": "https://dc.lft.to/lastmile_qr_scan"}, "is_reserved": 0, "fusion_lon": 0.0, "fusion_lat": 0.0, "lon": -77.02402983333333, "name": "0b2397382f271e16a9565bd6156ec6b4"}, {"bike_id": "ca853adea074b62b35f057208ab3e9dd", "type": "electric_scooter", "is_disabled": 0, "lat": 38.916698833333335, "rental_uris": {"ios": "https://dc.lft.to/lastmile_qr_scan", "android": "https://dc.lft.to/lastmile_qr_scan"}, "is_reserved": 0, "fusion_lon": 0.0, "fusion_lat": 0.0, "lon": -77.04684683333333, "name": "ca853adea074b62b35f057208ab3e9dd"}, {"bike_id": "ba8dc8f0c6c571cdd3040cfb5b6ef29c", "type": "electric_scooter", "is_disabled": 0, "lat": 38.89336266666667, "rental_uris": {"ios": "https://dc.lft.to/lastmile_qr_scan", "android": "https://dc.lft.to/lastmile_qr_scan"}, "is_reserved": 0, "fusion_lon": 0.0, "fusion_lat": 0.0, "lon": -76.95058116666667, "name": "ba8dc8f0c6c571cdd3040cfb5b6ef29c"}, {"bike_id": "26cc5d9c6f7745cb8a5de0426f2e2b2f", "type": "electric_scooter", "is_disabled": 0, "lat": 38.93510033333333, "rental_uris": {"ios": "https://dc.lft.to/lastmile_qr_scan", "android": "https://dc.lft.to/lastmile_qr_scan"}, "is_reserved": 0, "fusion_lon": 0.0, "fusion_lat": 0.0, "lon": -77.03353533333333, "name": "26cc5d9c6f7745cb8a5de0426f2e2b2f"}, {"bike_id": "0926c7dc3eed3bdb2003d4d2944fb2fe", "type": "electric_scooter", "is_disabled": 0, "lat": 38.88606816666667, "rental_uris": {"ios": "https://dc.lft.to/lastmile_qr_scan", "android": "https://dc.lft.to/lastmile_qr_scan"}, "is_reserved": 0, "fusion_lon": 0.0, "fusion_lat": 0.0, "lon": -77.02830433333334, "name": "0926c7dc3eed3bdb2003d4d2944fb2fe"}, {"bike_id": "8088b79f402142018b57614e9db8e203", "type": "electric_scooter", "is_disabled": 0, "lat": 38.83826833333333, "rental_uris": {"ios": "https://dc.lft.to/lastmile_qr_scan", "android": "https://dc.lft.to/lastmile_qr_scan"}, "is_reserved": 0, "fusion_lon": 0.0, "fusion_lat": 0.0, "lon": -77.00267, "name": "8088b79f402142018b57614e9db8e203"}, {"bike_id": "d10970a3f56428b92f2c62849022ba7b", "type": "electric_scooter", "is_disabled": 0, "lat": 38.90418433333333, "rental_uris": {"ios": "https://dc.lft.to/lastmile_qr_scan", "android": "https://dc.lft.to/lastmile_qr_scan"}, "is_reserved": 0, "fusion_lon": 0.0, "fusion_lat": 0.0, "lon": -77.0273595, "name": "d10970a3f56428b92f2c62849022ba7b"}, {"bike_id": "e2966cb35f673a3c2927d6f1d8a45a83", "type": "electric_scooter", "is_disabled": 0, "lat": 38.914819, "rental_uris": {"ios": "https://dc.lft.to/lastmile_qr_scan", "android": "https://dc.lft.to/lastmile_qr_scan"}, "is_reserved": 0, "fusion_lon": 0.0, "fusion_lat": 0.0, "lon": -76.98561566666666, "name": "e2966cb35f673a3c2927d6f1d8a45a83"}, {"bike_id": "c6247eb17ce07327950b49eea02bcec1", "type": "electric_scooter", "is_disabled": 0, "lat": 38.90470716666667, "rental_uris": {"ios": "https://dc.lft.to/lastmile_qr_scan", "android": "https://dc.lft.to/lastmile_qr_scan"}, "is_reserved": 0, "fusion_lon": 0.0, "fusion_lat": 0.0, "lon": -77.00742416666667, "name": "c6247eb17ce07327950b49eea02bcec1"}, {"bike_id": "3b8e52f37699ffbc7df6a9289364c8bf", "type": "electric_scooter", "is_disabled": 0, "lat": 38.92250216666667, "rental_uris": {"ios": "https://dc.lft.to/lastmile_qr_scan", "android": "https://dc.lft.to/lastmile_qr_scan"}, "is_reserved": 0, "fusion_lon": 0.0, "fusion_lat": 0.0, "lon": -77.02837733333334, "name": "3b8e52f37699ffbc7df6a9289364c8bf"}, {"bike_id": "e4283e4affb4b291d04f7fff2a77fc7e", "type": "electric_scooter", "is_disabled": 0, "lat": 38.92155116666667, "rental_uris": {"ios": "https://dc.lft.to/lastmile_qr_scan", "android": "https://dc.lft.to/lastmile_qr_scan"}, "is_reserved": 0, "fusion_lon": 0.0, "fusion_lat": 0.0, "lon": -77.03309366666667, "name": "e4283e4affb4b291d04f7fff2a77fc7e"}, {"bike_id": "b2232e0122d002f8b5cd91c9dd163c3b", "type": "electric_scooter", "is_disabled": 0, "lat": 38.89989683333334, "rental_uris": {"ios": "https://dc.lft.to/lastmile_qr_scan", "android": "https://dc.lft.to/lastmile_qr_scan"}, "is_reserved": 0, "fusion_lon": 0.0, "fusion_lat": 0.0, "lon": -77.01023466666666, "name": "b2232e0122d002f8b5cd91c9dd163c3b"}, {"bike_id": "f41d5a34f4264dd0b99e70260a3f4f36", "type": "electric_scooter", "is_disabled": 0, "lat": 38.90251633333333, "rental_uris": {"ios": "https://dc.lft.to/lastmile_qr_scan", "android": "https://dc.lft.to/lastmile_qr_scan"}, "is_reserved": 0, "fusion_lon": 0.0, "fusion_lat": 0.0, "lon": -76.98668633333334, "name": "f41d5a34f4264dd0b99e70260a3f4f36"}, {"bike_id": "a64dbf6f7d94ad8b229bc9ba5603b120", "type": "electric_scooter", "is_disabled": 0, "lat": 38.91563683333333, "rental_uris": {"ios": "https://dc.lft.to/lastmile_qr_scan", "android": "https://dc.lft.to/lastmile_qr_scan"}, "is_reserved": 0, "fusion_lon": 0.0, "fusion_lat": 0.0, "lon": -77.020217, "name": "a64dbf6f7d94ad8b229bc9ba5603b120"}, {"bike_id": "b20861147224be95aeb97c08c106d565", "type": "electric_scooter", "is_disabled": 0, "lat": 38.896727, "rental_uris": {"ios": "https://dc.lft.to/lastmile_qr_scan", "android": "https://dc.lft.to/lastmile_qr_scan"}, "is_reserved": 0, "fusion_lon": 0.0, "fusion_lat": 0.0, "lon": -77.0237415, "name": "b20861147224be95aeb97c08c106d565"}, {"bike_id": "068513606d3e668dc75428b3e87894b0", "type": "electric_scooter", "is_disabled": 0, "lat": 38.91107, "rental_uris": {"ios": "https://dc.lft.to/lastmile_qr_scan", "android": "https://dc.lft.to/lastmile_qr_scan"}, "is_reserved": 0, "fusion_lon": 0.0, "fusion_lat": 0.0, "lon": -77.03246266666666, "name": "068513606d3e668dc75428b3e87894b0"}, {"bike_id": "d0e70c23be6481719ddef5cb1d8656a7", "type": "electric_scooter", "is_disabled": 0, "lat": 38.942122166666664, "rental_uris": {"ios": "https://dc.lft.to/lastmile_qr_scan", "android": "https://dc.lft.to/lastmile_qr_scan"}, "is_reserved": 0, "fusion_lon": 0.0, "fusion_lat": 0.0, "lon": -77.02585866666666, "name": "d0e70c23be6481719ddef5cb1d8656a7"}, {"bike_id": "ab513d32582c896c280461d5b9d262a9", "type": "electric_scooter", "is_disabled": 0, "lat": 38.91068116666667, "rental_uris": {"ios": "https://dc.lft.to/lastmile_qr_scan", "android": "https://dc.lft.to/lastmile_qr_scan"}, "is_reserved": 0, "fusion_lon": 0.0, "fusion_lat": 0.0, "lon": -77.02601616666666, "name": "ab513d32582c896c280461d5b9d262a9"}, {"bike_id": "c412573c7a4edee971dda95016ba51b4", "type": "electric_scooter", "is_disabled": 0, "lat": 38.91771683333333, "rental_uris": {"ios": "https://dc.lft.to/lastmile_qr_scan", "android": "https://dc.lft.to/lastmile_qr_scan"}, "is_reserved": 0, "fusion_lon": 0.0, "fusion_lat": 0.0, "lon": -77.0231725, "name": "c412573c7a4edee971dda95016ba51b4"}, {"bike_id": "32252826bad8a1b7c607aa4f8408f4f1", "type": "electric_scooter", "is_disabled": 0, "lat": 38.94783066666667, "rental_uris": {"ios": "https://dc.lft.to/lastmile_qr_scan", "android": "https://dc.lft.to/lastmile_qr_scan"}, "is_reserved": 0, "fusion_lon": 0.0, "fusion_lat": 0.0, "lon": -77.07936266666667, "name": "32252826bad8a1b7c607aa4f8408f4f1"}, {"bike_id": "236837d55cddcbb9dae03e7ada3dc3ae", "type": "electric_scooter", "is_disabled": 0, "lat": 38.9183315, "rental_uris": {"ios": "https://dc.lft.to/lastmile_qr_scan", "android": "https://dc.lft.to/lastmile_qr_scan"}, "is_reserved": 0, "fusion_lon": 0.0, "fusion_lat": 0.0, "lon": -77.02456333333333, "name": "236837d55cddcbb9dae03e7ada3dc3ae"}, {"bike_id": "e58c3fb3754dcd8353183510283c6626", "type": "electric_scooter", "is_disabled": 0, "lat": 38.92335816666667, "rental_uris": {"ios": "https://dc.lft.to/lastmile_qr_scan", "android": "https://dc.lft.to/lastmile_qr_scan"}, "is_reserved": 0, "fusion_lon": 0.0, "fusion_lat": 0.0, "lon": -77.053749, "name": "e58c3fb3754dcd8353183510283c6626"}, {"bike_id": "037c9999d26cbeb53b47d207c23f5cff", "type": "electric_scooter", "is_disabled": 0, "lat": 38.9073735, "rental_uris": {"ios": "https://dc.lft.to/lastmile_qr_scan", "android": "https://dc.lft.to/lastmile_qr_scan"}, "is_reserved": 0, "fusion_lon": 0.0, "fusion_lat": 0.0, "lon": -77.0094505, "name": "037c9999d26cbeb53b47d207c23f5cff"}, {"bike_id": "aaa7bb8bc794df5273ee47bd73daeb5e", "type": "electric_scooter", "is_disabled": 0, "lat": 38.892301, "rental_uris": {"ios": "https://dc.lft.to/lastmile_qr_scan", "android": "https://dc.lft.to/lastmile_qr_scan"}, "is_reserved": 0, "fusion_lon": 0.0, "fusion_lat": 0.0, "lon": -77.04998, "name": "aaa7bb8bc794df5273ee47bd73daeb5e"}, {"bike_id": "e0f1babd2d1665a34814544197f22a2c", "type": "electric_scooter", "is_disabled": 0, "lat": 38.93693433333333, "rental_uris": {"ios": "https://dc.lft.to/lastmile_qr_scan", "android": "https://dc.lft.to/lastmile_qr_scan"}, "is_reserved": 0, "fusion_lon": 0.0, "fusion_lat": 0.0, "lon": -77.0566735, "name": "e0f1babd2d1665a34814544197f22a2c"}, {"bike_id": "ffb8ac1187d75ca4b8f432f68be6a15c", "type": "electric_bike", "is_disabled": 0, "lat": 39.056352333333336, "rental_uris": {"ios": "https://dc.lft.to/lastmile_qr_scan", "android": "https://dc.lft.to/lastmile_qr_scan"}, "is_reserved": 0, "fusion_lon": 0.0, "fusion_lat": 0.0, "lon": -77.12525766666667, "name": "ffb8ac1187d75ca4b8f432f68be6a15c"}, {"bike_id": "ec2034f06dd1cca33e26f8d37caa6894", "type": "electric_scooter", "is_disabled": 0, "lat": 38.89497883333333, "rental_uris": {"ios": "https://dc.lft.to/lastmile_qr_scan", "android": "https://dc.lft.to/lastmile_qr_scan"}, "is_reserved": 0, "fusion_lon": 0.0, "fusion_lat": 0.0, "lon": -77.00214383333334, "name": "ec2034f06dd1cca33e26f8d37caa6894"}, {"bike_id": "0232fd0581812b3f86e23da74d997dda", "type": "electric_scooter", "is_disabled": 0, "lat": 38.9289835, "rental_uris": {"ios": "https://dc.lft.to/lastmile_qr_scan", "android": "https://dc.lft.to/lastmile_qr_scan"}, "is_reserved": 0, "fusion_lon": 0.0, "fusion_lat": 0.0, "lon": -77.03257483333333, "name": "0232fd0581812b3f86e23da74d997dda"}, {"bike_id": "e9ef9fd078751a407782ae538f827ffd", "type": "electric_scooter", "is_disabled": 0, "lat": 38.91869166666667, "rental_uris": {"ios": "https://dc.lft.to/lastmile_qr_scan", "android": "https://dc.lft.to/lastmile_qr_scan"}, "is_reserved": 0, "fusion_lon": 0.0, "fusion_lat": 0.0, "lon": -77.01508533333333, "name": "e9ef9fd078751a407782ae538f827ffd"}, {"bike_id": "597071c83302150497fb9559f89b605c", "type": "electric_scooter", "is_disabled": 0, "lat": 38.882642833333335, "rental_uris": {"ios": "https://dc.lft.to/lastmile_qr_scan", "android": "https://dc.lft.to/lastmile_qr_scan"}, "is_reserved": 0, "fusion_lon": 0.0, "fusion_lat": 0.0, "lon": -76.99251366666667, "name": "597071c83302150497fb9559f89b605c"}, {"bike_id": "68527e16296990eadbb19560e6ee6c7c", "type": "electric_scooter", "is_disabled": 0, "lat": 38.9432535, "rental_uris": {"ios": "https://dc.lft.to/lastmile_qr_scan", "android": "https://dc.lft.to/lastmile_qr_scan"}, "is_reserved": 0, "fusion_lon": 0.0, "fusion_lat": 0.0, "lon": -77.01480883333333, "name": "68527e16296990eadbb19560e6ee6c7c"}, {"bike_id": "8f57f150953132e904d6b4b584ebf22e", "type": "electric_scooter", "is_disabled": 0, "lat": 38.931486166666666, "rental_uris": {"ios": "https://dc.lft.to/lastmile_qr_scan", "android": "https://dc.lft.to/lastmile_qr_scan"}, "is_reserved": 0, "fusion_lon": 0.0, "fusion_lat": 0.0, "lon": -77.03348233333334, "name": "8f57f150953132e904d6b4b584ebf22e"}, {"bike_id": "b9d9905a2f62dc562f48a1c72fe5d28d", "type": "electric_scooter", "is_disabled": 0, "lat": 38.921572, "rental_uris": {"ios": "https://dc.lft.to/lastmile_qr_scan", "android": "https://dc.lft.to/lastmile_qr_scan"}, "is_reserved": 0, "fusion_lon": 0.0, "fusion_lat": 0.0, "lon": -77.03315616666667, "name": "b9d9905a2f62dc562f48a1c72fe5d28d"}, {"bike_id": "d57325145060f7af8eddf377d14da29e", "type": "electric_scooter", "is_disabled": 0, "lat": 38.91135033333333, "rental_uris": {"ios": "https://dc.lft.to/lastmile_qr_scan", "android": "https://dc.lft.to/lastmile_qr_scan"}, "is_reserved": 0, "fusion_lon": 0.0, "fusion_lat": 0.0, "lon": -77.065473, "name": "d57325145060f7af8eddf377d14da29e"}, {"bike_id": "393a42f3496969610047c1a6eabd244e", "type": "electric_scooter", "is_disabled": 0, "lat": 38.9096745, "rental_uris": {"ios": "https://dc.lft.to/lastmile_qr_scan", "android": "https://dc.lft.to/lastmile_qr_scan"}, "is_reserved": 0, "fusion_lon": 0.0, "fusion_lat": 0.0, "lon": -77.03233683333333, "name": "393a42f3496969610047c1a6eabd244e"}, {"bike_id": "a8609e5e633bbcf431979e0bac1c4038", "type": "electric_scooter", "is_disabled": 0, "lat": 38.903963166666664, "rental_uris": {"ios": "https://dc.lft.to/lastmile_qr_scan", "android": "https://dc.lft.to/lastmile_qr_scan"}, "is_reserved": 0, "fusion_lon": 0.0, "fusion_lat": 0.0, "lon": -77.06857166666667, "name": "a8609e5e633bbcf431979e0bac1c4038"}, {"bike_id": "7c15c8bec64cd23fca2cdfd49a95929b", "type": "electric_scooter", "is_disabled": 0, "lat": 38.904210666666664, "rental_uris": {"ios": "https://dc.lft.to/lastmile_qr_scan", "android": "https://dc.lft.to/lastmile_qr_scan"}, "is_reserved": 0, "fusion_lon": 0.0, "fusion_lat": 0.0, "lon": -77.0545435, "name": "7c15c8bec64cd23fca2cdfd49a95929b"}, {"bike_id": "673a797b923aefcc0690247e5beb115c", "type": "electric_scooter", "is_disabled": 0, "lat": 38.912804666666666, "rental_uris": {"ios": "https://dc.lft.to/lastmile_qr_scan", "android": "https://dc.lft.to/lastmile_qr_scan"}, "is_reserved": 0, "fusion_lon": 0.0, "fusion_lat": 0.0, "lon": -77.05159416666666, "name": "673a797b923aefcc0690247e5beb115c"}, {"bike_id": "49e0c6c92aacb2a358cc1f86695e4419", "type": "electric_scooter", "is_disabled": 0, "lat": 38.922627, "rental_uris": {"ios": "https://dc.lft.to/lastmile_qr_scan", "android": "https://dc.lft.to/lastmile_qr_scan"}, "is_reserved": 0, "fusion_lon": 0.0, "fusion_lat": 0.0, "lon": -76.9912815, "name": "49e0c6c92aacb2a358cc1f86695e4419"}, {"bike_id": "59cddf9a8268f8f5b4a9893db385408a", "type": "electric_scooter", "is_disabled": 0, "lat": 38.916958, "rental_uris": {"ios": "https://dc.lft.to/lastmile_qr_scan", "android": "https://dc.lft.to/lastmile_qr_scan"}, "is_reserved": 0, "fusion_lon": 0.0, "fusion_lat": 0.0, "lon": -77.0321395, "name": "59cddf9a8268f8f5b4a9893db385408a"}, {"bike_id": "bfced74e137d86e52f1c11f8f7178fb7", "type": "electric_scooter", "is_disabled": 0, "lat": 38.88737616666667, "rental_uris": {"ios": "https://dc.lft.to/lastmile_qr_scan", "android": "https://dc.lft.to/lastmile_qr_scan"}, "is_reserved": 0, "fusion_lon": 0.0, "fusion_lat": 0.0, "lon": -77.01532866666666, "name": "bfced74e137d86e52f1c11f8f7178fb7"}, {"bike_id": "a9e2548a0819217966321250dac10f47", "type": "electric_scooter", "is_disabled": 0, "lat": 38.907888166666666, "rental_uris": {"ios": "https://dc.lft.to/lastmile_qr_scan", "android": "https://dc.lft.to/lastmile_qr_scan"}, "is_reserved": 0, "fusion_lon": 0.0, "fusion_lat": 0.0, "lon": -77.03860166666666, "name": "a9e2548a0819217966321250dac10f47"}, {"bike_id": "cd481b89e9a9a24293a47c1fe1d89b84", "type": "electric_bike", "is_disabled": 0, "lat": 38.874751333333336, "rental_uris": {"ios": "https://dc.lft.to/lastmile_qr_scan", "android": "https://dc.lft.to/lastmile_qr_scan"}, "is_reserved": 0, "fusion_lon": 0.0, "fusion_lat": 0.0, "lon": -76.96525816666667, "name": "cd481b89e9a9a24293a47c1fe1d89b84"}, {"bike_id": "fcd5b9dc677426dbd04b70417e606739", "type": "electric_scooter", "is_disabled": 0, "lat": 38.9224165, "rental_uris": {"ios": "https://dc.lft.to/lastmile_qr_scan", "android": "https://dc.lft.to/lastmile_qr_scan"}, "is_reserved": 0, "fusion_lon": 0.0, "fusion_lat": 0.0, "lon": -77.0352035, "name": "fcd5b9dc677426dbd04b70417e606739"}, {"bike_id": "57bf475dd17d384297c6f470981b1fa7", "type": "electric_scooter", "is_disabled": 0, "lat": 38.91556533333333, "rental_uris": {"ios": "https://dc.lft.to/lastmile_qr_scan", "android": "https://dc.lft.to/lastmile_qr_scan"}, "is_reserved": 0, "fusion_lon": 0.0, "fusion_lat": 0.0, "lon": -77.04014883333333, "name": "57bf475dd17d384297c6f470981b1fa7"}, {"bike_id": "322af77bc76dfec1d63ea6db86e00192", "type": "electric_scooter", "is_disabled": 0, "lat": 38.95654, "rental_uris": {"ios": "https://dc.lft.to/lastmile_qr_scan", "android": "https://dc.lft.to/lastmile_qr_scan"}, "is_reserved": 0, "fusion_lon": 0.0, "fusion_lat": 0.0, "lon": -77.00999683333333, "name": "322af77bc76dfec1d63ea6db86e00192"}, {"bike_id": "8a1b44a3cd3bbe9e2edcc98902fffbff", "type": "electric_scooter", "is_disabled": 0, "lat": 38.9017, "rental_uris": {"ios": "https://dc.lft.to/lastmile_qr_scan", "android": "https://dc.lft.to/lastmile_qr_scan"}, "is_reserved": 0, "fusion_lon": 0.0, "fusion_lat": 0.0, "lon": -76.93026666666667, "name": "8a1b44a3cd3bbe9e2edcc98902fffbff"}, {"bike_id": "29c5301a3101a9909528fd2da73d8a77", "type": "electric_scooter", "is_disabled": 0, "lat": 38.916138833333335, "rental_uris": {"ios": "https://dc.lft.to/lastmile_qr_scan", "android": "https://dc.lft.to/lastmile_qr_scan"}, "is_reserved": 0, "fusion_lon": 0.0, "fusion_lat": 0.0, "lon": -77.0216415, "name": "29c5301a3101a9909528fd2da73d8a77"}, {"bike_id": "073792a38c4df5a13a19ee2640a0e24d", "type": "electric_scooter", "is_disabled": 0, "lat": 38.91106766666667, "rental_uris": {"ios": "https://dc.lft.to/lastmile_qr_scan", "android": "https://dc.lft.to/lastmile_qr_scan"}, "is_reserved": 0, "fusion_lon": 0.0, "fusion_lat": 0.0, "lon": -77.03833616666667, "name": "073792a38c4df5a13a19ee2640a0e24d"}, {"bike_id": "f08a5862f5bcecaf9753069c9dc89ea0", "type": "electric_scooter", "is_disabled": 0, "lat": 38.91503566666667, "rental_uris": {"ios": "https://dc.lft.to/lastmile_qr_scan", "android": "https://dc.lft.to/lastmile_qr_scan"}, "is_reserved": 0, "fusion_lon": 0.0, "fusion_lat": 0.0, "lon": -77.01772466666667, "name": "f08a5862f5bcecaf9753069c9dc89ea0"}, {"bike_id": "013a673655b41858f6fa6cebb8c8f1bb", "type": "electric_scooter", "is_disabled": 0, "lat": 38.88695716666667, "rental_uris": {"ios": "https://dc.lft.to/lastmile_qr_scan", "android": "https://dc.lft.to/lastmile_qr_scan"}, "is_reserved": 0, "fusion_lon": 0.0, "fusion_lat": 0.0, "lon": -76.996086, "name": "013a673655b41858f6fa6cebb8c8f1bb"}, {"bike_id": "708d2616fec554002effa2c77ffedcc5", "type": "electric_scooter", "is_disabled": 0, "lat": 38.932380333333334, "rental_uris": {"ios": "https://dc.lft.to/lastmile_qr_scan", "android": "https://dc.lft.to/lastmile_qr_scan"}, "is_reserved": 0, "fusion_lon": 0.0, "fusion_lat": 0.0, "lon": -77.0388845, "name": "708d2616fec554002effa2c77ffedcc5"}, {"bike_id": "99d4f64d972b37053924bc43e2695a24", "type": "electric_scooter", "is_disabled": 0, "lat": 38.95631783333333, "rental_uris": {"ios": "https://dc.lft.to/lastmile_qr_scan", "android": "https://dc.lft.to/lastmile_qr_scan"}, "is_reserved": 0, "fusion_lon": 0.0, "fusion_lat": 0.0, "lon": -77.01156616666667, "name": "99d4f64d972b37053924bc43e2695a24"}, {"bike_id": "c2a48d66f8e895ceb4ee05e06db76d63", "type": "electric_scooter", "is_disabled": 0, "lat": 38.92434333333333, "rental_uris": {"ios": "https://dc.lft.to/lastmile_qr_scan", "android": "https://dc.lft.to/lastmile_qr_scan"}, "is_reserved": 0, "fusion_lon": 0.0, "fusion_lat": 0.0, "lon": -77.04242, "name": "c2a48d66f8e895ceb4ee05e06db76d63"}, {"bike_id": "dd8dee6086eb5952555cf32e9b890f0f", "type": "electric_scooter", "is_disabled": 0, "lat": 38.88651733333333, "rental_uris": {"ios": "https://dc.lft.to/lastmile_qr_scan", "android": "https://dc.lft.to/lastmile_qr_scan"}, "is_reserved": 0, "fusion_lon": 0.0, "fusion_lat": 0.0, "lon": -77.00121083333333, "name": "dd8dee6086eb5952555cf32e9b890f0f"}, {"bike_id": "7dbfaf28cb2b587f9e75c757f20bb9aa", "type": "electric_bike", "is_disabled": 0, "lat": 38.81330033333333, "rental_uris": {"ios": "https://dc.lft.to/lastmile_qr_scan", "android": "https://dc.lft.to/lastmile_qr_scan"}, "is_reserved": 0, "fusion_lon": 0.0, "fusion_lat": 0.0, "lon": -77.05085983333333, "name": "7dbfaf28cb2b587f9e75c757f20bb9aa"}, {"bike_id": "3bd20b1846bbd521dfb2ce34e792ca0b", "type": "electric_scooter", "is_disabled": 0, "lat": 38.880413833333336, "rental_uris": {"ios": "https://dc.lft.to/lastmile_qr_scan", "android": "https://dc.lft.to/lastmile_qr_scan"}, "is_reserved": 0, "fusion_lon": 0.0, "fusion_lat": 0.0, "lon": -77.005387, "name": "3bd20b1846bbd521dfb2ce34e792ca0b"}, {"bike_id": "ba8dfb3b8c7f9abf769168f799b800f9", "type": "electric_scooter", "is_disabled": 0, "lat": 38.913157, "rental_uris": {"ios": "https://dc.lft.to/lastmile_qr_scan", "android": "https://dc.lft.to/lastmile_qr_scan"}, "is_reserved": 0, "fusion_lon": 0.0, "fusion_lat": 0.0, "lon": -77.0365855, "name": "ba8dfb3b8c7f9abf769168f799b800f9"}, {"bike_id": "5bcea270f470c163d48c19e9e528fe9d", "type": "electric_scooter", "is_disabled": 0, "lat": 38.93061683333333, "rental_uris": {"ios": "https://dc.lft.to/lastmile_qr_scan", "android": "https://dc.lft.to/lastmile_qr_scan"}, "is_reserved": 0, "fusion_lon": 0.0, "fusion_lat": 0.0, "lon": -77.01990016666667, "name": "5bcea270f470c163d48c19e9e528fe9d"}, {"bike_id": "adb31511720773aab208b296fda25233", "type": "electric_scooter", "is_disabled": 0, "lat": 38.942017166666666, "rental_uris": {"ios": "https://dc.lft.to/lastmile_qr_scan", "android": "https://dc.lft.to/lastmile_qr_scan"}, "is_reserved": 0, "fusion_lon": 0.0, "fusion_lat": 0.0, "lon": -77.02593683333333, "name": "adb31511720773aab208b296fda25233"}, {"bike_id": "b7f943ee3353da326be4ef01c5e3cf2b", "type": "electric_scooter", "is_disabled": 0, "lat": 38.90136833333333, "rental_uris": {"ios": "https://dc.lft.to/lastmile_qr_scan", "android": "https://dc.lft.to/lastmile_qr_scan"}, "is_reserved": 0, "fusion_lon": 0.0, "fusion_lat": 0.0, "lon": -77.01838916666667, "name": "b7f943ee3353da326be4ef01c5e3cf2b"}, {"bike_id": "2b6bd7cb192c9d62daaa554fddbc601b", "type": "electric_scooter", "is_disabled": 0, "lat": 38.8922935, "rental_uris": {"ios": "https://dc.lft.to/lastmile_qr_scan", "android": "https://dc.lft.to/lastmile_qr_scan"}, "is_reserved": 0, "fusion_lon": 0.0, "fusion_lat": 0.0, "lon": -77.04998783333333, "name": "2b6bd7cb192c9d62daaa554fddbc601b"}, {"bike_id": "83b3d683787a83fd5f1f02a7541cf666", "type": "electric_scooter", "is_disabled": 0, "lat": 38.91501516666667, "rental_uris": {"ios": "https://dc.lft.to/lastmile_qr_scan", "android": "https://dc.lft.to/lastmile_qr_scan"}, "is_reserved": 0, "fusion_lon": 0.0, "fusion_lat": 0.0, "lon": -77.0177325, "name": "83b3d683787a83fd5f1f02a7541cf666"}, {"bike_id": "d857464ece2767ea86de2431d53e2373", "type": "electric_scooter", "is_disabled": 0, "lat": 38.911123833333335, "rental_uris": {"ios": "https://dc.lft.to/lastmile_qr_scan", "android": "https://dc.lft.to/lastmile_qr_scan"}, "is_reserved": 0, "fusion_lon": 0.0, "fusion_lat": 0.0, "lon": -77.01137983333334, "name": "d857464ece2767ea86de2431d53e2373"}, {"bike_id": "426aa90322b2d80ed9a06aa5b40da0d3", "type": "electric_scooter", "is_disabled": 0, "lat": 38.91694866666667, "rental_uris": {"ios": "https://dc.lft.to/lastmile_qr_scan", "android": "https://dc.lft.to/lastmile_qr_scan"}, "is_reserved": 0, "fusion_lon": 0.0, "fusion_lat": 0.0, "lon": -77.02388283333333, "name": "426aa90322b2d80ed9a06aa5b40da0d3"}, {"bike_id": "12ffdedef3230fc1047e36d48c6c7e9e", "type": "electric_scooter", "is_disabled": 0, "lat": 38.904945, "rental_uris": {"ios": "https://dc.lft.to/lastmile_qr_scan", "android": "https://dc.lft.to/lastmile_qr_scan"}, "is_reserved": 0, "fusion_lon": 0.0, "fusion_lat": 0.0, "lon": -77.06914766666667, "name": "12ffdedef3230fc1047e36d48c6c7e9e"}, {"bike_id": "7882a80bcdb1f8b407ddc6257fc77833", "type": "electric_scooter", "is_disabled": 0, "lat": 38.88267033333333, "rental_uris": {"ios": "https://dc.lft.to/lastmile_qr_scan", "android": "https://dc.lft.to/lastmile_qr_scan"}, "is_reserved": 0, "fusion_lon": 0.0, "fusion_lat": 0.0, "lon": -76.99358483333333, "name": "7882a80bcdb1f8b407ddc6257fc77833"}, {"bike_id": "1c4d241183ef14532ea7a041fc591d3b", "type": "electric_scooter", "is_disabled": 0, "lat": 38.923306333333336, "rental_uris": {"ios": "https://dc.lft.to/lastmile_qr_scan", "android": "https://dc.lft.to/lastmile_qr_scan"}, "is_reserved": 0, "fusion_lon": 0.0, "fusion_lat": 0.0, "lon": -77.036186, "name": "1c4d241183ef14532ea7a041fc591d3b"}, {"bike_id": "74d54413a755b4510cd61c7889beb05e", "type": "electric_scooter", "is_disabled": 0, "lat": 38.9218475, "rental_uris": {"ios": "https://dc.lft.to/lastmile_qr_scan", "android": "https://dc.lft.to/lastmile_qr_scan"}, "is_reserved": 0, "fusion_lon": 0.0, "fusion_lat": 0.0, "lon": -77.0210095, "name": "74d54413a755b4510cd61c7889beb05e"}, {"bike_id": "48bbf42a716c60f2b007d39c11813577", "type": "electric_scooter", "is_disabled": 0, "lat": 38.90730683333334, "rental_uris": {"ios": "https://dc.lft.to/lastmile_qr_scan", "android": "https://dc.lft.to/lastmile_qr_scan"}, "is_reserved": 0, "fusion_lon": 0.0, "fusion_lat": 0.0, "lon": -77.03202783333333, "name": "48bbf42a716c60f2b007d39c11813577"}, {"bike_id": "501d7e5d9deaa42393019e0cd30f40db", "type": "electric_scooter", "is_disabled": 0, "lat": 38.922227666666664, "rental_uris": {"ios": "https://dc.lft.to/lastmile_qr_scan", "android": "https://dc.lft.to/lastmile_qr_scan"}, "is_reserved": 0, "fusion_lon": 0.0, "fusion_lat": 0.0, "lon": -77.026648, "name": "501d7e5d9deaa42393019e0cd30f40db"}, {"bike_id": "4b2c31118e8e7ebfb40bc4fa9fcce3bf", "type": "electric_scooter", "is_disabled": 0, "lat": 38.90933883333334, "rental_uris": {"ios": "https://dc.lft.to/lastmile_qr_scan", "android": "https://dc.lft.to/lastmile_qr_scan"}, "is_reserved": 0, "fusion_lon": 0.0, "fusion_lat": 0.0, "lon": -77.049376, "name": "4b2c31118e8e7ebfb40bc4fa9fcce3bf"}, {"bike_id": "34923f06384f7ad7ff72ac0a5556ca4e", "type": "electric_scooter", "is_disabled": 0, "lat": 38.93697683333333, "rental_uris": {"ios": "https://dc.lft.to/lastmile_qr_scan", "android": "https://dc.lft.to/lastmile_qr_scan"}, "is_reserved": 0, "fusion_lon": 0.0, "fusion_lat": 0.0, "lon": -77.03259983333334, "name": "34923f06384f7ad7ff72ac0a5556ca4e"}, {"bike_id": "87b1d89d5f750ca360cebac77ba9c1ef", "type": "electric_scooter", "is_disabled": 0, "lat": 38.911349, "rental_uris": {"ios": "https://dc.lft.to/lastmile_qr_scan", "android": "https://dc.lft.to/lastmile_qr_scan"}, "is_reserved": 0, "fusion_lon": 0.0, "fusion_lat": 0.0, "lon": -77.021981, "name": "87b1d89d5f750ca360cebac77ba9c1ef"}, {"bike_id": "79e9193691f189bca5670847aa8f989a", "type": "electric_scooter", "is_disabled": 0, "lat": 38.90550533333333, "rental_uris": {"ios": "https://dc.lft.to/lastmile_qr_scan", "android": "https://dc.lft.to/lastmile_qr_scan"}, "is_reserved": 0, "fusion_lon": 0.0, "fusion_lat": 0.0, "lon": -77.05147816666667, "name": "79e9193691f189bca5670847aa8f989a"}, {"bike_id": "eda8601305d70746d205995a5be64cfb", "type": "electric_scooter", "is_disabled": 0, "lat": 38.9216755, "rental_uris": {"ios": "https://dc.lft.to/lastmile_qr_scan", "android": "https://dc.lft.to/lastmile_qr_scan"}, "is_reserved": 0, "fusion_lon": 0.0, "fusion_lat": 0.0, "lon": -77.04018633333334, "name": "eda8601305d70746d205995a5be64cfb"}, {"bike_id": "ae68ef0889bd53aad8167835cb89dd2d", "type": "electric_bike", "is_disabled": 0, "lat": 38.974564, "rental_uris": {"ios": "https://dc.lft.to/lastmile_qr_scan", "android": "https://dc.lft.to/lastmile_qr_scan"}, "is_reserved": 0, "fusion_lon": 0.0, "fusion_lat": 0.0, "lon": -77.01214266666666, "name": "ae68ef0889bd53aad8167835cb89dd2d"}, {"bike_id": "0e68b7d56b769db57d90fc1163d3b0bc", "type": "electric_scooter", "is_disabled": 0, "lat": 38.9154245, "rental_uris": {"ios": "https://dc.lft.to/lastmile_qr_scan", "android": "https://dc.lft.to/lastmile_qr_scan"}, "is_reserved": 0, "fusion_lon": 0.0, "fusion_lat": 0.0, "lon": -77.01223683333333, "name": "0e68b7d56b769db57d90fc1163d3b0bc"}, {"bike_id": "7e4f9fa5eb4eaa808cd459ef0fff293f", "type": "electric_scooter", "is_disabled": 0, "lat": 38.91701283333333, "rental_uris": {"ios": "https://dc.lft.to/lastmile_qr_scan", "android": "https://dc.lft.to/lastmile_qr_scan"}, "is_reserved": 0, "fusion_lon": 0.0, "fusion_lat": 0.0, "lon": -77.01044033333334, "name": "7e4f9fa5eb4eaa808cd459ef0fff293f"}, {"bike_id": "ffd3fbe972b6e1d6a8c9b990a95c69a0", "type": "electric_scooter", "is_disabled": 0, "lat": 38.9180485, "rental_uris": {"ios": "https://dc.lft.to/lastmile_qr_scan", "android": "https://dc.lft.to/lastmile_qr_scan"}, "is_reserved": 0, "fusion_lon": 0.0, "fusion_lat": 0.0, "lon": -77.0343655, "name": "ffd3fbe972b6e1d6a8c9b990a95c69a0"}, {"bike_id": "8e21033ae2307e207d81eab367ee2058", "type": "electric_scooter", "is_disabled": 0, "lat": 38.914206, "rental_uris": {"ios": "https://dc.lft.to/lastmile_qr_scan", "android": "https://dc.lft.to/lastmile_qr_scan"}, "is_reserved": 0, "fusion_lon": 0.0, "fusion_lat": 0.0, "lon": -77.03253916666667, "name": "8e21033ae2307e207d81eab367ee2058"}, {"bike_id": "8546d94d077138600140b65a7a9b1d04", "type": "electric_scooter", "is_disabled": 0, "lat": 38.91902, "rental_uris": {"ios": "https://dc.lft.to/lastmile_qr_scan", "android": "https://dc.lft.to/lastmile_qr_scan"}, "is_reserved": 0, "fusion_lon": 0.0, "fusion_lat": 0.0, "lon": -77.04453, "name": "8546d94d077138600140b65a7a9b1d04"}, {"bike_id": "b3d642102df0b6060aa97996ea3b2330", "type": "electric_scooter", "is_disabled": 0, "lat": 38.8809275, "rental_uris": {"ios": "https://dc.lft.to/lastmile_qr_scan", "android": "https://dc.lft.to/lastmile_qr_scan"}, "is_reserved": 0, "fusion_lon": 0.0, "fusion_lat": 0.0, "lon": -77.01774266666666, "name": "b3d642102df0b6060aa97996ea3b2330"}, {"bike_id": "af2a9440e52b85c5f6d8f8389d70f04b", "type": "electric_scooter", "is_disabled": 0, "lat": 38.91552183333334, "rental_uris": {"ios": "https://dc.lft.to/lastmile_qr_scan", "android": "https://dc.lft.to/lastmile_qr_scan"}, "is_reserved": 0, "fusion_lon": 0.0, "fusion_lat": 0.0, "lon": -77.03175216666666, "name": "af2a9440e52b85c5f6d8f8389d70f04b"}, {"bike_id": "40039add9a8bacf4e5a55b8212ec4ab5", "type": "electric_scooter", "is_disabled": 0, "lat": 38.90390816666667, "rental_uris": {"ios": "https://dc.lft.to/lastmile_qr_scan", "android": "https://dc.lft.to/lastmile_qr_scan"}, "is_reserved": 0, "fusion_lon": 0.0, "fusion_lat": 0.0, "lon": -77.02487616666667, "name": "40039add9a8bacf4e5a55b8212ec4ab5"}, {"bike_id": "dff6f820735cc2bd04b10758e3f363b6", "type": "electric_scooter", "is_disabled": 0, "lat": 38.911714, "rental_uris": {"ios": "https://dc.lft.to/lastmile_qr_scan", "android": "https://dc.lft.to/lastmile_qr_scan"}, "is_reserved": 0, "fusion_lon": 0.0, "fusion_lat": 0.0, "lon": -77.00203616666667, "name": "dff6f820735cc2bd04b10758e3f363b6"}, {"bike_id": "2c51da888d9784113406aa755fb91fb4", "type": "electric_scooter", "is_disabled": 0, "lat": 38.90882933333334, "rental_uris": {"ios": "https://dc.lft.to/lastmile_qr_scan", "android": "https://dc.lft.to/lastmile_qr_scan"}, "is_reserved": 0, "fusion_lon": 0.0, "fusion_lat": 0.0, "lon": -77.04493333333333, "name": "2c51da888d9784113406aa755fb91fb4"}, {"bike_id": "5e3909d780fd743ccece2ceb21ceb96b", "type": "electric_bike", "is_disabled": 0, "lat": 38.89694216666667, "rental_uris": {"ios": "https://dc.lft.to/lastmile_qr_scan", "android": "https://dc.lft.to/lastmile_qr_scan"}, "is_reserved": 0, "fusion_lon": 0.0, "fusion_lat": 0.0, "lon": -77.08642866666666, "name": "5e3909d780fd743ccece2ceb21ceb96b"}, {"bike_id": "d6d2eb803c954824706d5bb4dd40692d", "type": "electric_scooter", "is_disabled": 0, "lat": 38.923067, "rental_uris": {"ios": "https://dc.lft.to/lastmile_qr_scan", "android": "https://dc.lft.to/lastmile_qr_scan"}, "is_reserved": 0, "fusion_lon": 0.0, "fusion_lat": 0.0, "lon": -77.07309183333334, "name": "d6d2eb803c954824706d5bb4dd40692d"}, {"bike_id": "a6965db7782fb4ec7c8a377093794fb4", "type": "electric_scooter", "is_disabled": 0, "lat": 38.90565616666667, "rental_uris": {"ios": "https://dc.lft.to/lastmile_qr_scan", "android": "https://dc.lft.to/lastmile_qr_scan"}, "is_reserved": 0, "fusion_lon": 0.0, "fusion_lat": 0.0, "lon": -77.04389333333333, "name": "a6965db7782fb4ec7c8a377093794fb4"}, {"bike_id": "6db9a0e5a30d2cbbf82264f9e3eff7b7", "type": "electric_scooter", "is_disabled": 0, "lat": 38.93093983333333, "rental_uris": {"ios": "https://dc.lft.to/lastmile_qr_scan", "android": "https://dc.lft.to/lastmile_qr_scan"}, "is_reserved": 0, "fusion_lon": 0.0, "fusion_lat": 0.0, "lon": -77.03469516666667, "name": "6db9a0e5a30d2cbbf82264f9e3eff7b7"}, {"bike_id": "54af1eef02ec007aace3e84c8a32ef5e", "type": "electric_scooter", "is_disabled": 0, "lat": 38.9158175, "rental_uris": {"ios": "https://dc.lft.to/lastmile_qr_scan", "android": "https://dc.lft.to/lastmile_qr_scan"}, "is_reserved": 0, "fusion_lon": 0.0, "fusion_lat": 0.0, "lon": -77.01139716666667, "name": "54af1eef02ec007aace3e84c8a32ef5e"}, {"bike_id": "a9a07018e326d8b180653b6da8e74fcd", "type": "electric_scooter", "is_disabled": 0, "lat": 38.932608, "rental_uris": {"ios": "https://dc.lft.to/lastmile_qr_scan", "android": "https://dc.lft.to/lastmile_qr_scan"}, "is_reserved": 0, "fusion_lon": 0.0, "fusion_lat": 0.0, "lon": -77.03903866666667, "name": "a9a07018e326d8b180653b6da8e74fcd"}, {"bike_id": "1d072fa082805c8bb5d882b6d4018f45", "type": "electric_scooter", "is_disabled": 0, "lat": 38.897694666666666, "rental_uris": {"ios": "https://dc.lft.to/lastmile_qr_scan", "android": "https://dc.lft.to/lastmile_qr_scan"}, "is_reserved": 0, "fusion_lon": 0.0, "fusion_lat": 0.0, "lon": -77.05113166666666, "name": "1d072fa082805c8bb5d882b6d4018f45"}, {"bike_id": "b35aae52432efdb0bf419b252f2d9d59", "type": "electric_scooter", "is_disabled": 0, "lat": 38.93685283333333, "rental_uris": {"ios": "https://dc.lft.to/lastmile_qr_scan", "android": "https://dc.lft.to/lastmile_qr_scan"}, "is_reserved": 0, "fusion_lon": 0.0, "fusion_lat": 0.0, "lon": -77.066213, "name": "b35aae52432efdb0bf419b252f2d9d59"}, {"bike_id": "312d94620e5f9fddb6b8a572e926ec2f", "type": "electric_scooter", "is_disabled": 0, "lat": 38.892915, "rental_uris": {"ios": "https://dc.lft.to/lastmile_qr_scan", "android": "https://dc.lft.to/lastmile_qr_scan"}, "is_reserved": 0, "fusion_lon": 0.0, "fusion_lat": 0.0, "lon": -77.0487355, "name": "312d94620e5f9fddb6b8a572e926ec2f"}, {"bike_id": "bd73cc65f447c43548086531edcd7797", "type": "electric_scooter", "is_disabled": 0, "lat": 38.91415583333333, "rental_uris": {"ios": "https://dc.lft.to/lastmile_qr_scan", "android": "https://dc.lft.to/lastmile_qr_scan"}, "is_reserved": 0, "fusion_lon": 0.0, "fusion_lat": 0.0, "lon": -77.039558, "name": "bd73cc65f447c43548086531edcd7797"}, {"bike_id": "48cedbeffa1291560355bc0365438fbe", "type": "electric_scooter", "is_disabled": 0, "lat": 38.92325866666667, "rental_uris": {"ios": "https://dc.lft.to/lastmile_qr_scan", "android": "https://dc.lft.to/lastmile_qr_scan"}, "is_reserved": 0, "fusion_lon": 0.0, "fusion_lat": 0.0, "lon": -77.0005225, "name": "48cedbeffa1291560355bc0365438fbe"}, {"bike_id": "4238f9dbe8e50725b7033421a9626219", "type": "electric_bike", "is_disabled": 0, "lat": 38.959655, "rental_uris": {"ios": "https://dc.lft.to/lastmile_qr_scan", "android": "https://dc.lft.to/lastmile_qr_scan"}, "is_reserved": 0, "fusion_lon": 0.0, "fusion_lat": 0.0, "lon": -76.98161416666667, "name": "4238f9dbe8e50725b7033421a9626219"}, {"bike_id": "3487203bdc2939af6defd4b8248504e5", "type": "electric_scooter", "is_disabled": 0, "lat": 38.85808316666667, "rental_uris": {"ios": "https://dc.lft.to/lastmile_qr_scan", "android": "https://dc.lft.to/lastmile_qr_scan"}, "is_reserved": 0, "fusion_lon": 0.0, "fusion_lat": 0.0, "lon": -76.98922866666666, "name": "3487203bdc2939af6defd4b8248504e5"}, {"bike_id": "1f996c5db79c65bc5459f91527a5c86e", "type": "electric_scooter", "is_disabled": 0, "lat": 38.924812, "rental_uris": {"ios": "https://dc.lft.to/lastmile_qr_scan", "android": "https://dc.lft.to/lastmile_qr_scan"}, "is_reserved": 0, "fusion_lon": 0.0, "fusion_lat": 0.0, "lon": -77.02962416666666, "name": "1f996c5db79c65bc5459f91527a5c86e"}, {"bike_id": "fa635e1877989b1ea2d82ad200cb43b1", "type": "electric_scooter", "is_disabled": 0, "lat": 38.916886, "rental_uris": {"ios": "https://dc.lft.to/lastmile_qr_scan", "android": "https://dc.lft.to/lastmile_qr_scan"}, "is_reserved": 0, "fusion_lon": 0.0, "fusion_lat": 0.0, "lon": -77.02889266666666, "name": "fa635e1877989b1ea2d82ad200cb43b1"}, {"bike_id": "4639b8485dde1a4ab38f7324337aca96", "type": "electric_scooter", "is_disabled": 0, "lat": 38.94195783333333, "rental_uris": {"ios": "https://dc.lft.to/lastmile_qr_scan", "android": "https://dc.lft.to/lastmile_qr_scan"}, "is_reserved": 0, "fusion_lon": 0.0, "fusion_lat": 0.0, "lon": -77.02551966666667, "name": "4639b8485dde1a4ab38f7324337aca96"}, {"bike_id": "32004338bef44b4325cd0036974fd43d", "type": "electric_scooter", "is_disabled": 0, "lat": 38.899695333333334, "rental_uris": {"ios": "https://dc.lft.to/lastmile_qr_scan", "android": "https://dc.lft.to/lastmile_qr_scan"}, "is_reserved": 0, "fusion_lon": 0.0, "fusion_lat": 0.0, "lon": -76.98306016666666, "name": "32004338bef44b4325cd0036974fd43d"}, {"bike_id": "2a05b563385cee4cbbeb09d3ac8ea7e0", "type": "electric_scooter", "is_disabled": 0, "lat": 38.907818, "rental_uris": {"ios": "https://dc.lft.to/lastmile_qr_scan", "android": "https://dc.lft.to/lastmile_qr_scan"}, "is_reserved": 0, "fusion_lon": 0.0, "fusion_lat": 0.0, "lon": -76.994333, "name": "2a05b563385cee4cbbeb09d3ac8ea7e0"}, {"bike_id": "0e07b7ecb8bd1f74d901ffa264c514dd", "type": "electric_scooter", "is_disabled": 0, "lat": 38.8662825, "rental_uris": {"ios": "https://dc.lft.to/lastmile_qr_scan", "android": "https://dc.lft.to/lastmile_qr_scan"}, "is_reserved": 0, "fusion_lon": 0.0, "fusion_lat": 0.0, "lon": -76.98717133333334, "name": "0e07b7ecb8bd1f74d901ffa264c514dd"}, {"bike_id": "b5f3e3012c8dbf7f70a14f75efb62b33", "type": "electric_scooter", "is_disabled": 0, "lat": 38.89480183333333, "rental_uris": {"ios": "https://dc.lft.to/lastmile_qr_scan", "android": "https://dc.lft.to/lastmile_qr_scan"}, "is_reserved": 0, "fusion_lon": 0.0, "fusion_lat": 0.0, "lon": -76.98787016666667, "name": "b5f3e3012c8dbf7f70a14f75efb62b33"}, {"bike_id": "7328118328464231d30ebece89530328", "type": "electric_scooter", "is_disabled": 0, "lat": 38.87072, "rental_uris": {"ios": "https://dc.lft.to/lastmile_qr_scan", "android": "https://dc.lft.to/lastmile_qr_scan"}, "is_reserved": 0, "fusion_lon": 0.0, "fusion_lat": 0.0, "lon": -76.9812675, "name": "7328118328464231d30ebece89530328"}, {"bike_id": "6339d33aca73c1b8299416d12f4ab487", "type": "electric_scooter", "is_disabled": 0, "lat": 38.9397575, "rental_uris": {"ios": "https://dc.lft.to/lastmile_qr_scan", "android": "https://dc.lft.to/lastmile_qr_scan"}, "is_reserved": 0, "fusion_lon": 0.0, "fusion_lat": 0.0, "lon": -77.02872333333333, "name": "6339d33aca73c1b8299416d12f4ab487"}, {"bike_id": "df12491e845fcd8646cfb3f2d40b5939", "type": "electric_bike", "is_disabled": 0, "lat": 38.8075245, "rental_uris": {"ios": "https://dc.lft.to/lastmile_qr_scan", "android": "https://dc.lft.to/lastmile_qr_scan"}, "is_reserved": 0, "fusion_lon": 0.0, "fusion_lat": 0.0, "lon": -77.0945105, "name": "df12491e845fcd8646cfb3f2d40b5939"}, {"bike_id": "14f8ddcdb21c4faeb5b6f23229ebdb33", "type": "electric_scooter", "is_disabled": 0, "lat": 38.892689833333336, "rental_uris": {"ios": "https://dc.lft.to/lastmile_qr_scan", "android": "https://dc.lft.to/lastmile_qr_scan"}, "is_reserved": 0, "fusion_lon": 0.0, "fusion_lat": 0.0, "lon": -77.020376, "name": "14f8ddcdb21c4faeb5b6f23229ebdb33"}, {"bike_id": "085b81297bff1c749dfb2aee47a3c687", "type": "electric_bike", "is_disabled": 0, "lat": 38.8648135, "rental_uris": {"ios": "https://dc.lft.to/lastmile_qr_scan", "android": "https://dc.lft.to/lastmile_qr_scan"}, "is_reserved": 0, "fusion_lon": 0.0, "fusion_lat": 0.0, "lon": -76.9774415, "name": "085b81297bff1c749dfb2aee47a3c687"}, {"bike_id": "534130c74105f7b0ffe4890628a88b3a", "type": "electric_scooter", "is_disabled": 0, "lat": 38.91730733333333, "rental_uris": {"ios": "https://dc.lft.to/lastmile_qr_scan", "android": "https://dc.lft.to/lastmile_qr_scan"}, "is_reserved": 0, "fusion_lon": 0.0, "fusion_lat": 0.0, "lon": -77.00818216666667, "name": "534130c74105f7b0ffe4890628a88b3a"}, {"bike_id": "7c146f9c0a1c446cfff7b71d8d1e550d", "type": "electric_scooter", "is_disabled": 0, "lat": 38.9389705, "rental_uris": {"ios": "https://dc.lft.to/lastmile_qr_scan", "android": "https://dc.lft.to/lastmile_qr_scan"}, "is_reserved": 0, "fusion_lon": 0.0, "fusion_lat": 0.0, "lon": -77.03317516666667, "name": "7c146f9c0a1c446cfff7b71d8d1e550d"}, {"bike_id": "c7493fb922a47e2927825f7567d59f68", "type": "electric_bike", "is_disabled": 0, "lat": 38.8315505, "rental_uris": {"ios": "https://dc.lft.to/lastmile_qr_scan", "android": "https://dc.lft.to/lastmile_qr_scan"}, "is_reserved": 0, "fusion_lon": 0.0, "fusion_lat": 0.0, "lon": -76.99546583333333, "name": "c7493fb922a47e2927825f7567d59f68"}, {"bike_id": "9e61a52d55c7d29b1852f56e2c5eb690", "type": "electric_scooter", "is_disabled": 0, "lat": 38.898445, "rental_uris": {"ios": "https://dc.lft.to/lastmile_qr_scan", "android": "https://dc.lft.to/lastmile_qr_scan"}, "is_reserved": 0, "fusion_lon": 0.0, "fusion_lat": 0.0, "lon": -77.02222933333333, "name": "9e61a52d55c7d29b1852f56e2c5eb690"}, {"bike_id": "8d294b57aca159498517a872e9e03001", "type": "electric_scooter", "is_disabled": 0, "lat": 38.900678166666665, "rental_uris": {"ios": "https://dc.lft.to/lastmile_qr_scan", "android": "https://dc.lft.to/lastmile_qr_scan"}, "is_reserved": 0, "fusion_lon": 0.0, "fusion_lat": 0.0, "lon": -77.03068483333334, "name": "8d294b57aca159498517a872e9e03001"}, {"bike_id": "44168424d1ba2321e7e5f73fa8a92865", "type": "electric_scooter", "is_disabled": 0, "lat": 38.8971785, "rental_uris": {"ios": "https://dc.lft.to/lastmile_qr_scan", "android": "https://dc.lft.to/lastmile_qr_scan"}, "is_reserved": 0, "fusion_lon": 0.0, "fusion_lat": 0.0, "lon": -77.02497433333333, "name": "44168424d1ba2321e7e5f73fa8a92865"}, {"bike_id": "8ef136356098c9daaee44a95a009933e", "type": "electric_scooter", "is_disabled": 0, "lat": 38.91346466666667, "rental_uris": {"ios": "https://dc.lft.to/lastmile_qr_scan", "android": "https://dc.lft.to/lastmile_qr_scan"}, "is_reserved": 0, "fusion_lon": 0.0, "fusion_lat": 0.0, "lon": -77.00893216666667, "name": "8ef136356098c9daaee44a95a009933e"}, {"bike_id": "91a1339f69d0435888fdbfd15717e552", "type": "electric_scooter", "is_disabled": 0, "lat": 38.915621333333334, "rental_uris": {"ios": "https://dc.lft.to/lastmile_qr_scan", "android": "https://dc.lft.to/lastmile_qr_scan"}, "is_reserved": 0, "fusion_lon": 0.0, "fusion_lat": 0.0, "lon": -77.03128083333333, "name": "91a1339f69d0435888fdbfd15717e552"}, {"bike_id": "218a5400679cff47f6efddf41a572a4d", "type": "electric_scooter", "is_disabled": 0, "lat": 38.90248033333334, "rental_uris": {"ios": "https://dc.lft.to/lastmile_qr_scan", "android": "https://dc.lft.to/lastmile_qr_scan"}, "is_reserved": 0, "fusion_lon": 0.0, "fusion_lat": 0.0, "lon": -77.01861333333333, "name": "218a5400679cff47f6efddf41a572a4d"}, {"bike_id": "7bccfc9dc3a56eb5aa2f06d98960e3e7", "type": "electric_scooter", "is_disabled": 0, "lat": 38.920387833333336, "rental_uris": {"ios": "https://dc.lft.to/lastmile_qr_scan", "android": "https://dc.lft.to/lastmile_qr_scan"}, "is_reserved": 0, "fusion_lon": 0.0, "fusion_lat": 0.0, "lon": -77.03400133333334, "name": "7bccfc9dc3a56eb5aa2f06d98960e3e7"}, {"bike_id": "31b5e95639b849937cce2d5e11c8afdb", "type": "electric_scooter", "is_disabled": 0, "lat": 38.9073075, "rental_uris": {"ios": "https://dc.lft.to/lastmile_qr_scan", "android": "https://dc.lft.to/lastmile_qr_scan"}, "is_reserved": 0, "fusion_lon": 0.0, "fusion_lat": 0.0, "lon": -77.04337633333333, "name": "31b5e95639b849937cce2d5e11c8afdb"}, {"bike_id": "b49cb253352cbb20645bd40107ea89a3", "type": "electric_scooter", "is_disabled": 0, "lat": 38.90965966666667, "rental_uris": {"ios": "https://dc.lft.to/lastmile_qr_scan", "android": "https://dc.lft.to/lastmile_qr_scan"}, "is_reserved": 0, "fusion_lon": 0.0, "fusion_lat": 0.0, "lon": -77.045369, "name": "b49cb253352cbb20645bd40107ea89a3"}, {"bike_id": "d8aaafdaa94e268da3763eb479d888fa", "type": "electric_scooter", "is_disabled": 0, "lat": 38.923727, "rental_uris": {"ios": "https://dc.lft.to/lastmile_qr_scan", "android": "https://dc.lft.to/lastmile_qr_scan"}, "is_reserved": 0, "fusion_lon": 0.0, "fusion_lat": 0.0, "lon": -77.05030866666667, "name": "d8aaafdaa94e268da3763eb479d888fa"}, {"bike_id": "0ff99478766b23743a6f8db254ace91d", "type": "electric_scooter", "is_disabled": 0, "lat": 38.911427333333336, "rental_uris": {"ios": "https://dc.lft.to/lastmile_qr_scan", "android": "https://dc.lft.to/lastmile_qr_scan"}, "is_reserved": 0, "fusion_lon": 0.0, "fusion_lat": 0.0, "lon": -77.02958616666666, "name": "0ff99478766b23743a6f8db254ace91d"}, {"bike_id": "6411f5e4b44752578290d209baea87a0", "type": "electric_scooter", "is_disabled": 0, "lat": 38.917847, "rental_uris": {"ios": "https://dc.lft.to/lastmile_qr_scan", "android": "https://dc.lft.to/lastmile_qr_scan"}, "is_reserved": 0, "fusion_lon": 0.0, "fusion_lat": 0.0, "lon": -77.023099, "name": "6411f5e4b44752578290d209baea87a0"}, {"bike_id": "553f063d152ebd3bf8963cdf2836a603", "type": "electric_scooter", "is_disabled": 0, "lat": 38.966023166666666, "rental_uris": {"ios": "https://dc.lft.to/lastmile_qr_scan", "android": "https://dc.lft.to/lastmile_qr_scan"}, "is_reserved": 0, "fusion_lon": 0.0, "fusion_lat": 0.0, "lon": -77.0197825, "name": "553f063d152ebd3bf8963cdf2836a603"}, {"bike_id": "561aab8fe33d17eb17ea57b56a3aaa89", "type": "electric_scooter", "is_disabled": 0, "lat": 38.869774666666665, "rental_uris": {"ios": "https://dc.lft.to/lastmile_qr_scan", "android": "https://dc.lft.to/lastmile_qr_scan"}, "is_reserved": 0, "fusion_lon": 0.0, "fusion_lat": 0.0, "lon": -76.98174116666667, "name": "561aab8fe33d17eb17ea57b56a3aaa89"}, {"bike_id": "795021c3e647c5f0075baab6f7082264", "type": "electric_scooter", "is_disabled": 0, "lat": 38.90950933333333, "rental_uris": {"ios": "https://dc.lft.to/lastmile_qr_scan", "android": "https://dc.lft.to/lastmile_qr_scan"}, "is_reserved": 0, "fusion_lon": 0.0, "fusion_lat": 0.0, "lon": -77.027131, "name": "795021c3e647c5f0075baab6f7082264"}, {"bike_id": "612d01d97e222a64ec92c9cc75591db4", "type": "electric_scooter", "is_disabled": 0, "lat": 38.900139833333334, "rental_uris": {"ios": "https://dc.lft.to/lastmile_qr_scan", "android": "https://dc.lft.to/lastmile_qr_scan"}, "is_reserved": 0, "fusion_lon": 0.0, "fusion_lat": 0.0, "lon": -77.00197066666667, "name": "612d01d97e222a64ec92c9cc75591db4"}, {"bike_id": "5ac3178f6ac66ccdfe14bfa79741566c", "type": "electric_scooter", "is_disabled": 0, "lat": 38.9238265, "rental_uris": {"ios": "https://dc.lft.to/lastmile_qr_scan", "android": "https://dc.lft.to/lastmile_qr_scan"}, "is_reserved": 0, "fusion_lon": 0.0, "fusion_lat": 0.0, "lon": -77.03043033333333, "name": "5ac3178f6ac66ccdfe14bfa79741566c"}, {"bike_id": "6f23fcbdf61aa83b0e4ddbf3b69d76c5", "type": "electric_scooter", "is_disabled": 0, "lat": 38.882167, "rental_uris": {"ios": "https://dc.lft.to/lastmile_qr_scan", "android": "https://dc.lft.to/lastmile_qr_scan"}, "is_reserved": 0, "fusion_lon": 0.0, "fusion_lat": 0.0, "lon": -76.926612, "name": "6f23fcbdf61aa83b0e4ddbf3b69d76c5"}, {"bike_id": "368a15c236503b66757195a277d4cd08", "type": "electric_scooter", "is_disabled": 0, "lat": 38.94789166666666, "rental_uris": {"ios": "https://dc.lft.to/lastmile_qr_scan", "android": "https://dc.lft.to/lastmile_qr_scan"}, "is_reserved": 0, "fusion_lon": 0.0, "fusion_lat": 0.0, "lon": -77.02132933333333, "name": "368a15c236503b66757195a277d4cd08"}, {"bike_id": "9198d0369c9141101879e91421eae458", "type": "electric_scooter", "is_disabled": 0, "lat": 38.934011, "rental_uris": {"ios": "https://dc.lft.to/lastmile_qr_scan", "android": "https://dc.lft.to/lastmile_qr_scan"}, "is_reserved": 0, "fusion_lon": 0.0, "fusion_lat": 0.0, "lon": -77.02212633333333, "name": "9198d0369c9141101879e91421eae458"}, {"bike_id": "68a26aa555b6ade22d8a782283d6020b", "type": "electric_bike", "is_disabled": 0, "lat": 38.880541666666666, "rental_uris": {"ios": "https://dc.lft.to/lastmile_qr_scan", "android": "https://dc.lft.to/lastmile_qr_scan"}, "is_reserved": 0, "fusion_lon": 0.0, "fusion_lat": 0.0, "lon": -76.962369, "name": "68a26aa555b6ade22d8a782283d6020b"}, {"bike_id": "79d7b9da80a51713ebabb03653dac29b", "type": "electric_bike", "is_disabled": 0, "lat": 38.87275983333333, "rental_uris": {"ios": "https://dc.lft.to/lastmile_qr_scan", "android": "https://dc.lft.to/lastmile_qr_scan"}, "is_reserved": 0, "fusion_lon": 0.0, "fusion_lat": 0.0, "lon": -77.23316933333334, "name": "79d7b9da80a51713ebabb03653dac29b"}, {"bike_id": "b23138a90bfae0c52e31501ebdf070c7", "type": "electric_scooter", "is_disabled": 0, "lat": 38.933437166666664, "rental_uris": {"ios": "https://dc.lft.to/lastmile_qr_scan", "android": "https://dc.lft.to/lastmile_qr_scan"}, "is_reserved": 0, "fusion_lon": 0.0, "fusion_lat": 0.0, "lon": -77.02623283333334, "name": "b23138a90bfae0c52e31501ebdf070c7"}, {"bike_id": "76f30a57abcdaab9d8313cbf8034c6f8", "type": "electric_scooter", "is_disabled": 0, "lat": 38.933057, "rental_uris": {"ios": "https://dc.lft.to/lastmile_qr_scan", "android": "https://dc.lft.to/lastmile_qr_scan"}, "is_reserved": 0, "fusion_lon": 0.0, "fusion_lat": 0.0, "lon": -77.032635, "name": "76f30a57abcdaab9d8313cbf8034c6f8"}, {"bike_id": "880f07e2a897ebede52b8a1bb3ffeb7d", "type": "electric_scooter", "is_disabled": 0, "lat": 38.91300666666667, "rental_uris": {"ios": "https://dc.lft.to/lastmile_qr_scan", "android": "https://dc.lft.to/lastmile_qr_scan"}, "is_reserved": 0, "fusion_lon": 0.0, "fusion_lat": 0.0, "lon": -77.0455425, "name": "880f07e2a897ebede52b8a1bb3ffeb7d"}, {"bike_id": "c7196cc8b0bb6485e393b0a825b4a5dc", "type": "electric_scooter", "is_disabled": 0, "lat": 38.914163, "rental_uris": {"ios": "https://dc.lft.to/lastmile_qr_scan", "android": "https://dc.lft.to/lastmile_qr_scan"}, "is_reserved": 0, "fusion_lon": 0.0, "fusion_lat": 0.0, "lon": -77.04807883333334, "name": "c7196cc8b0bb6485e393b0a825b4a5dc"}, {"bike_id": "2c89041f6a76e4e08e3df4b12556cbdc", "type": "electric_scooter", "is_disabled": 0, "lat": 38.90221966666667, "rental_uris": {"ios": "https://dc.lft.to/lastmile_qr_scan", "android": "https://dc.lft.to/lastmile_qr_scan"}, "is_reserved": 0, "fusion_lon": 0.0, "fusion_lat": 0.0, "lon": -77.04026766666667, "name": "2c89041f6a76e4e08e3df4b12556cbdc"}, {"bike_id": "3509bc992fa4eb32219a2783019d444f", "type": "electric_bike", "is_disabled": 0, "lat": 38.9101585, "rental_uris": {"ios": "https://dc.lft.to/lastmile_qr_scan", "android": "https://dc.lft.to/lastmile_qr_scan"}, "is_reserved": 0, "fusion_lon": 0.0, "fusion_lat": 0.0, "lon": -77.22803383333333, "name": "3509bc992fa4eb32219a2783019d444f"}, {"bike_id": "f437204dc50f8cb5cf1eb5b2ef6d72a5", "type": "electric_scooter", "is_disabled": 0, "lat": 38.910289666666664, "rental_uris": {"ios": "https://dc.lft.to/lastmile_qr_scan", "android": "https://dc.lft.to/lastmile_qr_scan"}, "is_reserved": 0, "fusion_lon": 0.0, "fusion_lat": 0.0, "lon": -77.00756683333333, "name": "f437204dc50f8cb5cf1eb5b2ef6d72a5"}, {"bike_id": "dc6ed8217938d1b4f29a13bb9483e77e", "type": "electric_scooter", "is_disabled": 0, "lat": 38.902721166666666, "rental_uris": {"ios": "https://dc.lft.to/lastmile_qr_scan", "android": "https://dc.lft.to/lastmile_qr_scan"}, "is_reserved": 0, "fusion_lon": 0.0, "fusion_lat": 0.0, "lon": -77.00350866666666, "name": "dc6ed8217938d1b4f29a13bb9483e77e"}, {"bike_id": "0934a56b07858029439748f4b392c9e8", "type": "electric_scooter", "is_disabled": 0, "lat": 38.909425, "rental_uris": {"ios": "https://dc.lft.to/lastmile_qr_scan", "android": "https://dc.lft.to/lastmile_qr_scan"}, "is_reserved": 0, "fusion_lon": 0.0, "fusion_lat": 0.0, "lon": -77.044785, "name": "0934a56b07858029439748f4b392c9e8"}, {"bike_id": "23b076b85861696855430af9fbaa6ea2", "type": "electric_bike", "is_disabled": 0, "lat": 38.896097166666664, "rental_uris": {"ios": "https://dc.lft.to/lastmile_qr_scan", "android": "https://dc.lft.to/lastmile_qr_scan"}, "is_reserved": 0, "fusion_lon": 0.0, "fusion_lat": 0.0, "lon": -76.90734116666667, "name": "23b076b85861696855430af9fbaa6ea2"}, {"bike_id": "d61ac6341c970860dedf7ca0a8a0a6e4", "type": "electric_scooter", "is_disabled": 0, "lat": 38.90410633333333, "rental_uris": {"ios": "https://dc.lft.to/lastmile_qr_scan", "android": "https://dc.lft.to/lastmile_qr_scan"}, "is_reserved": 0, "fusion_lon": 0.0, "fusion_lat": 0.0, "lon": -76.97329533333334, "name": "d61ac6341c970860dedf7ca0a8a0a6e4"}, {"bike_id": "341b49b474bde34e9a43d22d9315c08a", "type": "electric_scooter", "is_disabled": 0, "lat": 38.928996833333336, "rental_uris": {"ios": "https://dc.lft.to/lastmile_qr_scan", "android": "https://dc.lft.to/lastmile_qr_scan"}, "is_reserved": 0, "fusion_lon": 0.0, "fusion_lat": 0.0, "lon": -77.03247333333333, "name": "341b49b474bde34e9a43d22d9315c08a"}, {"bike_id": "5b0c91adeafa0067d64e5fc89a952351", "type": "electric_scooter", "is_disabled": 0, "lat": 38.912429, "rental_uris": {"ios": "https://dc.lft.to/lastmile_qr_scan", "android": "https://dc.lft.to/lastmile_qr_scan"}, "is_reserved": 0, "fusion_lon": 0.0, "fusion_lat": 0.0, "lon": -77.01975983333334, "name": "5b0c91adeafa0067d64e5fc89a952351"}, {"bike_id": "9d3a94eaa3f1bcf14babd6e702f836ef", "type": "electric_scooter", "is_disabled": 0, "lat": 38.94737516666667, "rental_uris": {"ios": "https://dc.lft.to/lastmile_qr_scan", "android": "https://dc.lft.to/lastmile_qr_scan"}, "is_reserved": 0, "fusion_lon": 0.0, "fusion_lat": 0.0, "lon": -77.07868466666666, "name": "9d3a94eaa3f1bcf14babd6e702f836ef"}, {"bike_id": "abf0878a1ac9ebbe8587838af59e5c09", "type": "electric_bike", "is_disabled": 0, "lat": 38.87298466666667, "rental_uris": {"ios": "https://dc.lft.to/lastmile_qr_scan", "android": "https://dc.lft.to/lastmile_qr_scan"}, "is_reserved": 0, "fusion_lon": 0.0, "fusion_lat": 0.0, "lon": -76.96974116666667, "name": "abf0878a1ac9ebbe8587838af59e5c09"}, {"bike_id": "4eb750dae7bf61dfbef66af42f643af8", "type": "electric_scooter", "is_disabled": 0, "lat": 38.915624333333334, "rental_uris": {"ios": "https://dc.lft.to/lastmile_qr_scan", "android": "https://dc.lft.to/lastmile_qr_scan"}, "is_reserved": 0, "fusion_lon": 0.0, "fusion_lat": 0.0, "lon": -77.03127983333333, "name": "4eb750dae7bf61dfbef66af42f643af8"}, {"bike_id": "39f3f833b55da240cfda1169d527fd66", "type": "electric_scooter", "is_disabled": 0, "lat": 38.919868666666666, "rental_uris": {"ios": "https://dc.lft.to/lastmile_qr_scan", "android": "https://dc.lft.to/lastmile_qr_scan"}, "is_reserved": 0, "fusion_lon": 0.0, "fusion_lat": 0.0, "lon": -76.97306666666667, "name": "39f3f833b55da240cfda1169d527fd66"}, {"bike_id": "27e11e2ec82d447686194b6176da1899", "type": "electric_scooter", "is_disabled": 0, "lat": 38.915650666666664, "rental_uris": {"ios": "https://dc.lft.to/lastmile_qr_scan", "android": "https://dc.lft.to/lastmile_qr_scan"}, "is_reserved": 0, "fusion_lon": 0.0, "fusion_lat": 0.0, "lon": -77.0202095, "name": "27e11e2ec82d447686194b6176da1899"}, {"bike_id": "b8786e23e5dc1d0f51a76a7880b06b8b", "type": "electric_scooter", "is_disabled": 0, "lat": 38.90752483333333, "rental_uris": {"ios": "https://dc.lft.to/lastmile_qr_scan", "android": "https://dc.lft.to/lastmile_qr_scan"}, "is_reserved": 0, "fusion_lon": 0.0, "fusion_lat": 0.0, "lon": -77.02802466666667, "name": "b8786e23e5dc1d0f51a76a7880b06b8b"}, {"bike_id": "463aef4b1167794dbbb83bad6008b971", "type": "electric_bike", "is_disabled": 0, "lat": 38.996726833333334, "rental_uris": {"ios": "https://dc.lft.to/lastmile_qr_scan", "android": "https://dc.lft.to/lastmile_qr_scan"}, "is_reserved": 0, "fusion_lon": 0.0, "fusion_lat": 0.0, "lon": -77.03806083333333, "name": "463aef4b1167794dbbb83bad6008b971"}, {"bike_id": "248e90c1bb0d1d3d25f230eebb88d7f3", "type": "electric_scooter", "is_disabled": 0, "lat": 38.90638033333333, "rental_uris": {"ios": "https://dc.lft.to/lastmile_qr_scan", "android": "https://dc.lft.to/lastmile_qr_scan"}, "is_reserved": 0, "fusion_lon": 0.0, "fusion_lat": 0.0, "lon": -77.0072605, "name": "248e90c1bb0d1d3d25f230eebb88d7f3"}, {"bike_id": "c119ec10de36d15882791eccb305e7ec", "type": "electric_scooter", "is_disabled": 0, "lat": 38.918133833333336, "rental_uris": {"ios": "https://dc.lft.to/lastmile_qr_scan", "android": "https://dc.lft.to/lastmile_qr_scan"}, "is_reserved": 0, "fusion_lon": 0.0, "fusion_lat": 0.0, "lon": -77.03164633333333, "name": "c119ec10de36d15882791eccb305e7ec"}, {"bike_id": "5d9fbd6449c9236208f8cd78c456155c", "type": "electric_scooter", "is_disabled": 0, "lat": 38.918394, "rental_uris": {"ios": "https://dc.lft.to/lastmile_qr_scan", "android": "https://dc.lft.to/lastmile_qr_scan"}, "is_reserved": 0, "fusion_lon": 0.0, "fusion_lat": 0.0, "lon": -77.02534616666667, "name": "5d9fbd6449c9236208f8cd78c456155c"}, {"bike_id": "fa10c6a6158f80c2e0345a5b58a522e2", "type": "electric_scooter", "is_disabled": 0, "lat": 38.917788, "rental_uris": {"ios": "https://dc.lft.to/lastmile_qr_scan", "android": "https://dc.lft.to/lastmile_qr_scan"}, "is_reserved": 0, "fusion_lon": 0.0, "fusion_lat": 0.0, "lon": -77.036636, "name": "fa10c6a6158f80c2e0345a5b58a522e2"}, {"bike_id": "d048221fea3a490ce7cab0a46ead7f7f", "type": "electric_scooter", "is_disabled": 0, "lat": 38.908296, "rental_uris": {"ios": "https://dc.lft.to/lastmile_qr_scan", "android": "https://dc.lft.to/lastmile_qr_scan"}, "is_reserved": 0, "fusion_lon": 0.0, "fusion_lat": 0.0, "lon": -77.0270875, "name": "d048221fea3a490ce7cab0a46ead7f7f"}, {"bike_id": "623c0363f99b9ec2a8c7258d4911019f", "type": "electric_scooter", "is_disabled": 0, "lat": 38.957324, "rental_uris": {"ios": "https://dc.lft.to/lastmile_qr_scan", "android": "https://dc.lft.to/lastmile_qr_scan"}, "is_reserved": 0, "fusion_lon": 0.0, "fusion_lat": 0.0, "lon": -77.02400533333333, "name": "623c0363f99b9ec2a8c7258d4911019f"}, {"bike_id": "4a9a8dce714006c6a86978326db9ca38", "type": "electric_scooter", "is_disabled": 0, "lat": 38.918998, "rental_uris": {"ios": "https://dc.lft.to/lastmile_qr_scan", "android": "https://dc.lft.to/lastmile_qr_scan"}, "is_reserved": 0, "fusion_lon": 0.0, "fusion_lat": 0.0, "lon": -77.03188783333333, "name": "4a9a8dce714006c6a86978326db9ca38"}, {"bike_id": "8373b403c316414c19d8b6bd4a398741", "type": "electric_scooter", "is_disabled": 0, "lat": 38.910956666666664, "rental_uris": {"ios": "https://dc.lft.to/lastmile_qr_scan", "android": "https://dc.lft.to/lastmile_qr_scan"}, "is_reserved": 0, "fusion_lon": 0.0, "fusion_lat": 0.0, "lon": -77.02813166666667, "name": "8373b403c316414c19d8b6bd4a398741"}, {"bike_id": "f69807acfd09450b1a1b97cd1380051d", "type": "electric_scooter", "is_disabled": 0, "lat": 38.916419833333336, "rental_uris": {"ios": "https://dc.lft.to/lastmile_qr_scan", "android": "https://dc.lft.to/lastmile_qr_scan"}, "is_reserved": 0, "fusion_lon": 0.0, "fusion_lat": 0.0, "lon": -77.00049083333333, "name": "f69807acfd09450b1a1b97cd1380051d"}, {"bike_id": "571a06d399fe85cd171f14f9a0354bc0", "type": "electric_scooter", "is_disabled": 0, "lat": 38.905742833333335, "rental_uris": {"ios": "https://dc.lft.to/lastmile_qr_scan", "android": "https://dc.lft.to/lastmile_qr_scan"}, "is_reserved": 0, "fusion_lon": 0.0, "fusion_lat": 0.0, "lon": -77.04230716666666, "name": "571a06d399fe85cd171f14f9a0354bc0"}, {"bike_id": "070e0030828b6f5f6816ca6be4fac7f9", "type": "electric_scooter", "is_disabled": 0, "lat": 38.904197333333336, "rental_uris": {"ios": "https://dc.lft.to/lastmile_qr_scan", "android": "https://dc.lft.to/lastmile_qr_scan"}, "is_reserved": 0, "fusion_lon": 0.0, "fusion_lat": 0.0, "lon": -76.9907265, "name": "070e0030828b6f5f6816ca6be4fac7f9"}, {"bike_id": "3e75abdbdf39a36c19d470c0a12541a1", "type": "electric_scooter", "is_disabled": 0, "lat": 38.900723166666666, "rental_uris": {"ios": "https://dc.lft.to/lastmile_qr_scan", "android": "https://dc.lft.to/lastmile_qr_scan"}, "is_reserved": 0, "fusion_lon": 0.0, "fusion_lat": 0.0, "lon": -76.92730666666667, "name": "3e75abdbdf39a36c19d470c0a12541a1"}, {"bike_id": "3857f19afb86a8721887416184f50007", "type": "electric_scooter", "is_disabled": 0, "lat": 38.92042266666667, "rental_uris": {"ios": "https://dc.lft.to/lastmile_qr_scan", "android": "https://dc.lft.to/lastmile_qr_scan"}, "is_reserved": 0, "fusion_lon": 0.0, "fusion_lat": 0.0, "lon": -77.024058, "name": "3857f19afb86a8721887416184f50007"}, {"bike_id": "3f7e5e9234f6dc376b39a56d7793c405", "type": "electric_scooter", "is_disabled": 0, "lat": 38.91787633333333, "rental_uris": {"ios": "https://dc.lft.to/lastmile_qr_scan", "android": "https://dc.lft.to/lastmile_qr_scan"}, "is_reserved": 0, "fusion_lon": 0.0, "fusion_lat": 0.0, "lon": -77.04059416666666, "name": "3f7e5e9234f6dc376b39a56d7793c405"}, {"bike_id": "fa1af06f1504a28a154765753c98707a", "type": "electric_scooter", "is_disabled": 0, "lat": 38.88992566666667, "rental_uris": {"ios": "https://dc.lft.to/lastmile_qr_scan", "android": "https://dc.lft.to/lastmile_qr_scan"}, "is_reserved": 0, "fusion_lon": 0.0, "fusion_lat": 0.0, "lon": -77.0012905, "name": "fa1af06f1504a28a154765753c98707a"}, {"bike_id": "0049cb39e7203708f0b0f68ab6bcf597", "type": "electric_scooter", "is_disabled": 0, "lat": 38.904030166666665, "rental_uris": {"ios": "https://dc.lft.to/lastmile_qr_scan", "android": "https://dc.lft.to/lastmile_qr_scan"}, "is_reserved": 0, "fusion_lon": 0.0, "fusion_lat": 0.0, "lon": -77.06773566666666, "name": "0049cb39e7203708f0b0f68ab6bcf597"}, {"bike_id": "f9a499cf5725116c0672031b5f245927", "type": "electric_scooter", "is_disabled": 0, "lat": 38.9134655, "rental_uris": {"ios": "https://dc.lft.to/lastmile_qr_scan", "android": "https://dc.lft.to/lastmile_qr_scan"}, "is_reserved": 0, "fusion_lon": 0.0, "fusion_lat": 0.0, "lon": -77.03202916666666, "name": "f9a499cf5725116c0672031b5f245927"}, {"bike_id": "87504dcc633dfad6f7e2d14407f84be1", "type": "electric_scooter", "is_disabled": 0, "lat": 38.92765883333333, "rental_uris": {"ios": "https://dc.lft.to/lastmile_qr_scan", "android": "https://dc.lft.to/lastmile_qr_scan"}, "is_reserved": 0, "fusion_lon": 0.0, "fusion_lat": 0.0, "lon": -76.96101516666667, "name": "87504dcc633dfad6f7e2d14407f84be1"}, {"bike_id": "d682bc587f1695d0937dbbaad83f74fe", "type": "electric_scooter", "is_disabled": 0, "lat": 38.887223166666665, "rental_uris": {"ios": "https://dc.lft.to/lastmile_qr_scan", "android": "https://dc.lft.to/lastmile_qr_scan"}, "is_reserved": 0, "fusion_lon": 0.0, "fusion_lat": 0.0, "lon": -77.02794033333333, "name": "d682bc587f1695d0937dbbaad83f74fe"}, {"bike_id": "48f8c65090d4d215c568965415e0de26", "type": "electric_scooter", "is_disabled": 0, "lat": 38.867326166666665, "rental_uris": {"ios": "https://dc.lft.to/lastmile_qr_scan", "android": "https://dc.lft.to/lastmile_qr_scan"}, "is_reserved": 0, "fusion_lon": 0.0, "fusion_lat": 0.0, "lon": -76.97856516666667, "name": "48f8c65090d4d215c568965415e0de26"}, {"bike_id": "415fdb8aaa906420120afb763b00a84a", "type": "electric_scooter", "is_disabled": 0, "lat": 38.90045516666667, "rental_uris": {"ios": "https://dc.lft.to/lastmile_qr_scan", "android": "https://dc.lft.to/lastmile_qr_scan"}, "is_reserved": 0, "fusion_lon": 0.0, "fusion_lat": 0.0, "lon": -77.01664733333334, "name": "415fdb8aaa906420120afb763b00a84a"}, {"bike_id": "5015ee32120ad90866a854b2508b951a", "type": "electric_scooter", "is_disabled": 0, "lat": 38.914228333333334, "rental_uris": {"ios": "https://dc.lft.to/lastmile_qr_scan", "android": "https://dc.lft.to/lastmile_qr_scan"}, "is_reserved": 0, "fusion_lon": 0.0, "fusion_lat": 0.0, "lon": -77.02097883333333, "name": "5015ee32120ad90866a854b2508b951a"}, {"bike_id": "18965a291f2d04a3c71379ec2acee37d", "type": "electric_scooter", "is_disabled": 0, "lat": 38.92590233333333, "rental_uris": {"ios": "https://dc.lft.to/lastmile_qr_scan", "android": "https://dc.lft.to/lastmile_qr_scan"}, "is_reserved": 0, "fusion_lon": 0.0, "fusion_lat": 0.0, "lon": -77.02386416666667, "name": "18965a291f2d04a3c71379ec2acee37d"}, {"bike_id": "87836450a0d9fa4ac15c4bd19acc916d", "type": "electric_scooter", "is_disabled": 0, "lat": 38.90945583333333, "rental_uris": {"ios": "https://dc.lft.to/lastmile_qr_scan", "android": "https://dc.lft.to/lastmile_qr_scan"}, "is_reserved": 0, "fusion_lon": 0.0, "fusion_lat": 0.0, "lon": -77.0556105, "name": "87836450a0d9fa4ac15c4bd19acc916d"}, {"bike_id": "cc86f4af5e0aee5a50827a71f7bcc1f1", "type": "electric_scooter", "is_disabled": 0, "lat": 38.83099466666667, "rental_uris": {"ios": "https://dc.lft.to/lastmile_qr_scan", "android": "https://dc.lft.to/lastmile_qr_scan"}, "is_reserved": 0, "fusion_lon": 0.0, "fusion_lat": 0.0, "lon": -77.051608, "name": "cc86f4af5e0aee5a50827a71f7bcc1f1"}, {"bike_id": "91cea25ad5682d91dcc602805d36ca89", "type": "electric_bike", "is_disabled": 0, "lat": 38.92060716666667, "rental_uris": {"ios": "https://dc.lft.to/lastmile_qr_scan", "android": "https://dc.lft.to/lastmile_qr_scan"}, "is_reserved": 0, "fusion_lon": 0.0, "fusion_lat": 0.0, "lon": -77.07449216666667, "name": "91cea25ad5682d91dcc602805d36ca89"}, {"bike_id": "ee652994d00dfc8057595c047c701c9a", "type": "electric_scooter", "is_disabled": 0, "lat": 38.91414833333333, "rental_uris": {"ios": "https://dc.lft.to/lastmile_qr_scan", "android": "https://dc.lft.to/lastmile_qr_scan"}, "is_reserved": 0, "fusion_lon": 0.0, "fusion_lat": 0.0, "lon": -77.02213, "name": "ee652994d00dfc8057595c047c701c9a"}, {"bike_id": "e9d48934eee110d5c2c7bf26006a1e86", "type": "electric_scooter", "is_disabled": 0, "lat": 38.92323583333334, "rental_uris": {"ios": "https://dc.lft.to/lastmile_qr_scan", "android": "https://dc.lft.to/lastmile_qr_scan"}, "is_reserved": 0, "fusion_lon": 0.0, "fusion_lat": 0.0, "lon": -77.0383795, "name": "e9d48934eee110d5c2c7bf26006a1e86"}, {"bike_id": "6f9e7cfcc74474b0eed38eebfd7931b1", "type": "electric_scooter", "is_disabled": 0, "lat": 38.912666, "rental_uris": {"ios": "https://dc.lft.to/lastmile_qr_scan", "android": "https://dc.lft.to/lastmile_qr_scan"}, "is_reserved": 0, "fusion_lon": 0.0, "fusion_lat": 0.0, "lon": -77.01886616666667, "name": "6f9e7cfcc74474b0eed38eebfd7931b1"}, {"bike_id": "e85bcbd1895bc7715ec9cdc539bf4afe", "type": "electric_scooter", "is_disabled": 0, "lat": 38.89882166666666, "rental_uris": {"ios": "https://dc.lft.to/lastmile_qr_scan", "android": "https://dc.lft.to/lastmile_qr_scan"}, "is_reserved": 0, "fusion_lon": 0.0, "fusion_lat": 0.0, "lon": -76.93178666666667, "name": "e85bcbd1895bc7715ec9cdc539bf4afe"}, {"bike_id": "10935db2eeb68272f83ae343aaf00d12", "type": "electric_scooter", "is_disabled": 0, "lat": 38.92768383333333, "rental_uris": {"ios": "https://dc.lft.to/lastmile_qr_scan", "android": "https://dc.lft.to/lastmile_qr_scan"}, "is_reserved": 0, "fusion_lon": 0.0, "fusion_lat": 0.0, "lon": -77.028459, "name": "10935db2eeb68272f83ae343aaf00d12"}, {"bike_id": "d98396d5261238789742f99cd200a2ee", "type": "electric_bike", "is_disabled": 0, "lat": 38.8661965, "rental_uris": {"ios": "https://dc.lft.to/lastmile_qr_scan", "android": "https://dc.lft.to/lastmile_qr_scan"}, "is_reserved": 0, "fusion_lon": 0.0, "fusion_lat": 0.0, "lon": -76.94565633333333, "name": "d98396d5261238789742f99cd200a2ee"}, {"bike_id": "e143871ed6f80eb6bf3107c567b688d8", "type": "electric_scooter", "is_disabled": 0, "lat": 38.89791183333333, "rental_uris": {"ios": "https://dc.lft.to/lastmile_qr_scan", "android": "https://dc.lft.to/lastmile_qr_scan"}, "is_reserved": 0, "fusion_lon": 0.0, "fusion_lat": 0.0, "lon": -77.02186533333334, "name": "e143871ed6f80eb6bf3107c567b688d8"}, {"bike_id": "b1d3e2aa83218fdf8a7cc6821da21d1c", "type": "electric_scooter", "is_disabled": 0, "lat": 38.898526833333335, "rental_uris": {"ios": "https://dc.lft.to/lastmile_qr_scan", "android": "https://dc.lft.to/lastmile_qr_scan"}, "is_reserved": 0, "fusion_lon": 0.0, "fusion_lat": 0.0, "lon": -76.99030283333333, "name": "b1d3e2aa83218fdf8a7cc6821da21d1c"}, {"bike_id": "51888ed7f5dcb9c3de01fb42be0cde7a", "type": "electric_scooter", "is_disabled": 0, "lat": 38.92055283333333, "rental_uris": {"ios": "https://dc.lft.to/lastmile_qr_scan", "android": "https://dc.lft.to/lastmile_qr_scan"}, "is_reserved": 0, "fusion_lon": 0.0, "fusion_lat": 0.0, "lon": -77.02427316666666, "name": "51888ed7f5dcb9c3de01fb42be0cde7a"}, {"bike_id": "7a906a263564e8eed86313fc50ef0f03", "type": "electric_scooter", "is_disabled": 0, "lat": 38.929156666666664, "rental_uris": {"ios": "https://dc.lft.to/lastmile_qr_scan", "android": "https://dc.lft.to/lastmile_qr_scan"}, "is_reserved": 0, "fusion_lon": 0.0, "fusion_lat": 0.0, "lon": -77.02088066666667, "name": "7a906a263564e8eed86313fc50ef0f03"}, {"bike_id": "ab73c46f9405718f3e106ec084ead9e7", "type": "electric_scooter", "is_disabled": 0, "lat": 38.905045666666666, "rental_uris": {"ios": "https://dc.lft.to/lastmile_qr_scan", "android": "https://dc.lft.to/lastmile_qr_scan"}, "is_reserved": 0, "fusion_lon": 0.0, "fusion_lat": 0.0, "lon": -77.06385166666666, "name": "ab73c46f9405718f3e106ec084ead9e7"}, {"bike_id": "ef34941128f6b1e1a9c9c3f689fc83e6", "type": "electric_scooter", "is_disabled": 0, "lat": 38.927712166666666, "rental_uris": {"ios": "https://dc.lft.to/lastmile_qr_scan", "android": "https://dc.lft.to/lastmile_qr_scan"}, "is_reserved": 0, "fusion_lon": 0.0, "fusion_lat": 0.0, "lon": -77.02919666666666, "name": "ef34941128f6b1e1a9c9c3f689fc83e6"}, {"bike_id": "f94ef4ccf477c827f0d2fa15a685e1c9", "type": "electric_scooter", "is_disabled": 0, "lat": 38.905284, "rental_uris": {"ios": "https://dc.lft.to/lastmile_qr_scan", "android": "https://dc.lft.to/lastmile_qr_scan"}, "is_reserved": 0, "fusion_lon": 0.0, "fusion_lat": 0.0, "lon": -77.05905033333333, "name": "f94ef4ccf477c827f0d2fa15a685e1c9"}, {"bike_id": "9f1107ee7bb6a7a7037f75ffa9f1cd89", "type": "electric_scooter", "is_disabled": 0, "lat": 38.907689500000004, "rental_uris": {"ios": "https://dc.lft.to/lastmile_qr_scan", "android": "https://dc.lft.to/lastmile_qr_scan"}, "is_reserved": 0, "fusion_lon": 0.0, "fusion_lat": 0.0, "lon": -77.07167266666667, "name": "9f1107ee7bb6a7a7037f75ffa9f1cd89"}, {"bike_id": "3709d75929c3ce480617730a280b3e82", "type": "electric_scooter", "is_disabled": 0, "lat": 38.90954633333333, "rental_uris": {"ios": "https://dc.lft.to/lastmile_qr_scan", "android": "https://dc.lft.to/lastmile_qr_scan"}, "is_reserved": 0, "fusion_lon": 0.0, "fusion_lat": 0.0, "lon": -77.02608183333334, "name": "3709d75929c3ce480617730a280b3e82"}, {"bike_id": "f99cb1e44afd5dd0dd69269ae15bede3", "type": "electric_scooter", "is_disabled": 0, "lat": 38.90815083333333, "rental_uris": {"ios": "https://dc.lft.to/lastmile_qr_scan", "android": "https://dc.lft.to/lastmile_qr_scan"}, "is_reserved": 0, "fusion_lon": 0.0, "fusion_lat": 0.0, "lon": -77.029417, "name": "f99cb1e44afd5dd0dd69269ae15bede3"}, {"bike_id": "fb6ea644b8bdb7dccfcb99ff19f9fefa", "type": "electric_scooter", "is_disabled": 0, "lat": 38.918329666666665, "rental_uris": {"ios": "https://dc.lft.to/lastmile_qr_scan", "android": "https://dc.lft.to/lastmile_qr_scan"}, "is_reserved": 0, "fusion_lon": 0.0, "fusion_lat": 0.0, "lon": -77.02295733333334, "name": "fb6ea644b8bdb7dccfcb99ff19f9fefa"}, {"bike_id": "92b7971df8903e23ac7f4c9a25db7cfa", "type": "electric_scooter", "is_disabled": 0, "lat": 38.89732933333333, "rental_uris": {"ios": "https://dc.lft.to/lastmile_qr_scan", "android": "https://dc.lft.to/lastmile_qr_scan"}, "is_reserved": 0, "fusion_lon": 0.0, "fusion_lat": 0.0, "lon": -76.94721383333334, "name": "92b7971df8903e23ac7f4c9a25db7cfa"}, {"bike_id": "2206b415e68b94aa8b05cda07962e3ec", "type": "electric_scooter", "is_disabled": 0, "lat": 38.925391, "rental_uris": {"ios": "https://dc.lft.to/lastmile_qr_scan", "android": "https://dc.lft.to/lastmile_qr_scan"}, "is_reserved": 0, "fusion_lon": 0.0, "fusion_lat": 0.0, "lon": -77.0324095, "name": "2206b415e68b94aa8b05cda07962e3ec"}, {"bike_id": "32ca534816845ac15b0f60708e2bc921", "type": "electric_bike", "is_disabled": 0, "lat": 39.034075, "rental_uris": {"ios": "https://dc.lft.to/lastmile_qr_scan", "android": "https://dc.lft.to/lastmile_qr_scan"}, "is_reserved": 0, "fusion_lon": 0.0, "fusion_lat": 0.0, "lon": -77.04148233333333, "name": "32ca534816845ac15b0f60708e2bc921"}, {"bike_id": "2e16c827c732a6b053cdf1514e93e2c1", "type": "electric_scooter", "is_disabled": 0, "lat": 38.92896016666667, "rental_uris": {"ios": "https://dc.lft.to/lastmile_qr_scan", "android": "https://dc.lft.to/lastmile_qr_scan"}, "is_reserved": 0, "fusion_lon": 0.0, "fusion_lat": 0.0, "lon": -77.03277366666667, "name": "2e16c827c732a6b053cdf1514e93e2c1"}, {"bike_id": "e9667a53b59636b9d52957c208b4db71", "type": "electric_scooter", "is_disabled": 0, "lat": 38.919671, "rental_uris": {"ios": "https://dc.lft.to/lastmile_qr_scan", "android": "https://dc.lft.to/lastmile_qr_scan"}, "is_reserved": 0, "fusion_lon": 0.0, "fusion_lat": 0.0, "lon": -77.03957133333333, "name": "e9667a53b59636b9d52957c208b4db71"}, {"bike_id": "16a7b381a8e5fee0c9fc1f4250da8184", "type": "electric_scooter", "is_disabled": 0, "lat": 38.90731683333333, "rental_uris": {"ios": "https://dc.lft.to/lastmile_qr_scan", "android": "https://dc.lft.to/lastmile_qr_scan"}, "is_reserved": 0, "fusion_lon": 0.0, "fusion_lat": 0.0, "lon": -77.03197883333333, "name": "16a7b381a8e5fee0c9fc1f4250da8184"}, {"bike_id": "cb474a59a5346601c600141bd199099e", "type": "electric_scooter", "is_disabled": 0, "lat": 38.915553, "rental_uris": {"ios": "https://dc.lft.to/lastmile_qr_scan", "android": "https://dc.lft.to/lastmile_qr_scan"}, "is_reserved": 0, "fusion_lon": 0.0, "fusion_lat": 0.0, "lon": -77.02552383333334, "name": "cb474a59a5346601c600141bd199099e"}, {"bike_id": "19a230043a2f01d849e2f011ac1b03bc", "type": "electric_scooter", "is_disabled": 0, "lat": 38.93009983333334, "rental_uris": {"ios": "https://dc.lft.to/lastmile_qr_scan", "android": "https://dc.lft.to/lastmile_qr_scan"}, "is_reserved": 0, "fusion_lon": 0.0, "fusion_lat": 0.0, "lon": -77.02083933333333, "name": "19a230043a2f01d849e2f011ac1b03bc"}, {"bike_id": "c91f32bd36b898d3516715a589ff4800", "type": "electric_scooter", "is_disabled": 0, "lat": 38.881786166666664, "rental_uris": {"ios": "https://dc.lft.to/lastmile_qr_scan", "android": "https://dc.lft.to/lastmile_qr_scan"}, "is_reserved": 0, "fusion_lon": 0.0, "fusion_lat": 0.0, "lon": -77.028103, "name": "c91f32bd36b898d3516715a589ff4800"}, {"bike_id": "3edfb91381424fe95476bbe71a3a6ded", "type": "electric_scooter", "is_disabled": 0, "lat": 38.87570233333334, "rental_uris": {"ios": "https://dc.lft.to/lastmile_qr_scan", "android": "https://dc.lft.to/lastmile_qr_scan"}, "is_reserved": 0, "fusion_lon": 0.0, "fusion_lat": 0.0, "lon": -77.0127245, "name": "3edfb91381424fe95476bbe71a3a6ded"}, {"bike_id": "6a281608c8a3c6495f0037de616f6022", "type": "electric_scooter", "is_disabled": 0, "lat": 38.90304916666667, "rental_uris": {"ios": "https://dc.lft.to/lastmile_qr_scan", "android": "https://dc.lft.to/lastmile_qr_scan"}, "is_reserved": 0, "fusion_lon": 0.0, "fusion_lat": 0.0, "lon": -77.050586, "name": "6a281608c8a3c6495f0037de616f6022"}, {"bike_id": "61b648145cded00dbe6e284753158f1a", "type": "electric_scooter", "is_disabled": 0, "lat": 38.9051835, "rental_uris": {"ios": "https://dc.lft.to/lastmile_qr_scan", "android": "https://dc.lft.to/lastmile_qr_scan"}, "is_reserved": 0, "fusion_lon": 0.0, "fusion_lat": 0.0, "lon": -77.050013, "name": "61b648145cded00dbe6e284753158f1a"}, {"bike_id": "8fa7513566135b9028b0dc4160804fc3", "type": "electric_bike", "is_disabled": 0, "lat": 38.88929566666667, "rental_uris": {"ios": "https://dc.lft.to/lastmile_qr_scan", "android": "https://dc.lft.to/lastmile_qr_scan"}, "is_reserved": 0, "fusion_lon": 0.0, "fusion_lat": 0.0, "lon": -76.9917355, "name": "8fa7513566135b9028b0dc4160804fc3"}, {"bike_id": "786b0ac8f87e03f3835ed18bd9d3de2d", "type": "electric_bike", "is_disabled": 0, "lat": 38.919752833333334, "rental_uris": {"ios": "https://dc.lft.to/lastmile_qr_scan", "android": "https://dc.lft.to/lastmile_qr_scan"}, "is_reserved": 0, "fusion_lon": 0.0, "fusion_lat": 0.0, "lon": -77.00357, "name": "786b0ac8f87e03f3835ed18bd9d3de2d"}, {"bike_id": "b64609f49aa1ffd63a270ee62efa5c05", "type": "electric_scooter", "is_disabled": 0, "lat": 38.957047, "rental_uris": {"ios": "https://dc.lft.to/lastmile_qr_scan", "android": "https://dc.lft.to/lastmile_qr_scan"}, "is_reserved": 0, "fusion_lon": 0.0, "fusion_lat": 0.0, "lon": -77.077412, "name": "b64609f49aa1ffd63a270ee62efa5c05"}, {"bike_id": "2130d999d2cf092fab232c1b8d13a3e3", "type": "electric_bike", "is_disabled": 0, "lat": 38.8813025, "rental_uris": {"ios": "https://dc.lft.to/lastmile_qr_scan", "android": "https://dc.lft.to/lastmile_qr_scan"}, "is_reserved": 0, "fusion_lon": 0.0, "fusion_lat": 0.0, "lon": -77.09351466666666, "name": "2130d999d2cf092fab232c1b8d13a3e3"}, {"bike_id": "1b07704ad94b4812f30f58ef2187655d", "type": "electric_scooter", "is_disabled": 0, "lat": 38.9083985, "rental_uris": {"ios": "https://dc.lft.to/lastmile_qr_scan", "android": "https://dc.lft.to/lastmile_qr_scan"}, "is_reserved": 0, "fusion_lon": 0.0, "fusion_lat": 0.0, "lon": -77.02193583333333, "name": "1b07704ad94b4812f30f58ef2187655d"}, {"bike_id": "8a2b6c2d6b2df919009b06616710e3dd", "type": "electric_bike", "is_disabled": 0, "lat": 38.908278333333335, "rental_uris": {"ios": "https://dc.lft.to/lastmile_qr_scan", "android": "https://dc.lft.to/lastmile_qr_scan"}, "is_reserved": 0, "fusion_lon": 0.0, "fusion_lat": 0.0, "lon": -76.94156216666667, "name": "8a2b6c2d6b2df919009b06616710e3dd"}, {"bike_id": "6cfc8986da794fb2d397286fe69f3859", "type": "electric_scooter", "is_disabled": 0, "lat": 38.88995, "rental_uris": {"ios": "https://dc.lft.to/lastmile_qr_scan", "android": "https://dc.lft.to/lastmile_qr_scan"}, "is_reserved": 0, "fusion_lon": 0.0, "fusion_lat": 0.0, "lon": -77.00120583333333, "name": "6cfc8986da794fb2d397286fe69f3859"}, {"bike_id": "c26e7f353e979cedb08e314b01c65d9b", "type": "electric_scooter", "is_disabled": 0, "lat": 38.8774525, "rental_uris": {"ios": "https://dc.lft.to/lastmile_qr_scan", "android": "https://dc.lft.to/lastmile_qr_scan"}, "is_reserved": 0, "fusion_lon": 0.0, "fusion_lat": 0.0, "lon": -76.99720533333333, "name": "c26e7f353e979cedb08e314b01c65d9b"}, {"bike_id": "e2c52ec8892346e0f5a89fbda5d25771", "type": "electric_bike", "is_disabled": 0, "lat": 39.05495033333333, "rental_uris": {"ios": "https://dc.lft.to/lastmile_qr_scan", "android": "https://dc.lft.to/lastmile_qr_scan"}, "is_reserved": 0, "fusion_lon": 0.0, "fusion_lat": 0.0, "lon": -77.1179115, "name": "e2c52ec8892346e0f5a89fbda5d25771"}, {"bike_id": "6181fcebe25b1ed69467bc89b1eeb081", "type": "electric_scooter", "is_disabled": 0, "lat": 38.893437666666664, "rental_uris": {"ios": "https://dc.lft.to/lastmile_qr_scan", "android": "https://dc.lft.to/lastmile_qr_scan"}, "is_reserved": 0, "fusion_lon": 0.0, "fusion_lat": 0.0, "lon": -76.99266516666667, "name": "6181fcebe25b1ed69467bc89b1eeb081"}, {"bike_id": "2ebe733af952e882a78ce3eeee8cddcb", "type": "electric_bike", "is_disabled": 0, "lat": 39.037397, "rental_uris": {"ios": "https://dc.lft.to/lastmile_qr_scan", "android": "https://dc.lft.to/lastmile_qr_scan"}, "is_reserved": 0, "fusion_lon": 0.0, "fusion_lat": 0.0, "lon": -77.05476016666667, "name": "2ebe733af952e882a78ce3eeee8cddcb"}, {"bike_id": "013658b7852352a959b6bf3cf5bef46f", "type": "electric_scooter", "is_disabled": 0, "lat": 38.909603833333335, "rental_uris": {"ios": "https://dc.lft.to/lastmile_qr_scan", "android": "https://dc.lft.to/lastmile_qr_scan"}, "is_reserved": 0, "fusion_lon": 0.0, "fusion_lat": 0.0, "lon": -77.03229316666666, "name": "013658b7852352a959b6bf3cf5bef46f"}, {"bike_id": "5be50cc6d8259e0f9f51237572f7c641", "type": "electric_scooter", "is_disabled": 0, "lat": 38.87640416666667, "rental_uris": {"ios": "https://dc.lft.to/lastmile_qr_scan", "android": "https://dc.lft.to/lastmile_qr_scan"}, "is_reserved": 0, "fusion_lon": 0.0, "fusion_lat": 0.0, "lon": -77.00427516666667, "name": "5be50cc6d8259e0f9f51237572f7c641"}, {"bike_id": "74ccdfd9baeff2ef0b36e509d930aae3", "type": "electric_scooter", "is_disabled": 0, "lat": 38.91685283333333, "rental_uris": {"ios": "https://dc.lft.to/lastmile_qr_scan", "android": "https://dc.lft.to/lastmile_qr_scan"}, "is_reserved": 0, "fusion_lon": 0.0, "fusion_lat": 0.0, "lon": -77.0235385, "name": "74ccdfd9baeff2ef0b36e509d930aae3"}, {"bike_id": "4d69e865fcf6b06f6daed5f717f11919", "type": "electric_scooter", "is_disabled": 0, "lat": 38.90039566666667, "rental_uris": {"ios": "https://dc.lft.to/lastmile_qr_scan", "android": "https://dc.lft.to/lastmile_qr_scan"}, "is_reserved": 0, "fusion_lon": 0.0, "fusion_lat": 0.0, "lon": -77.0351895, "name": "4d69e865fcf6b06f6daed5f717f11919"}, {"bike_id": "62c8776eabf33efe43973334e42e657f", "type": "electric_scooter", "is_disabled": 0, "lat": 38.907151666666664, "rental_uris": {"ios": "https://dc.lft.to/lastmile_qr_scan", "android": "https://dc.lft.to/lastmile_qr_scan"}, "is_reserved": 0, "fusion_lon": 0.0, "fusion_lat": 0.0, "lon": -77.034387, "name": "62c8776eabf33efe43973334e42e657f"}, {"bike_id": "e19f6b468139d7e64647efaf3a9c4e2b", "type": "electric_scooter", "is_disabled": 0, "lat": 38.898293, "rental_uris": {"ios": "https://dc.lft.to/lastmile_qr_scan", "android": "https://dc.lft.to/lastmile_qr_scan"}, "is_reserved": 0, "fusion_lon": 0.0, "fusion_lat": 0.0, "lon": -77.045597, "name": "e19f6b468139d7e64647efaf3a9c4e2b"}, {"bike_id": "2d1e2b45ec64e730b8d4d5b6ecdc9969", "type": "electric_scooter", "is_disabled": 0, "lat": 38.8922475, "rental_uris": {"ios": "https://dc.lft.to/lastmile_qr_scan", "android": "https://dc.lft.to/lastmile_qr_scan"}, "is_reserved": 0, "fusion_lon": 0.0, "fusion_lat": 0.0, "lon": -77.03977166666667, "name": "2d1e2b45ec64e730b8d4d5b6ecdc9969"}, {"bike_id": "0e40de40a1a3758009842416ddfd3e44", "type": "electric_scooter", "is_disabled": 0, "lat": 38.90246483333333, "rental_uris": {"ios": "https://dc.lft.to/lastmile_qr_scan", "android": "https://dc.lft.to/lastmile_qr_scan"}, "is_reserved": 0, "fusion_lon": 0.0, "fusion_lat": 0.0, "lon": -77.0267495, "name": "0e40de40a1a3758009842416ddfd3e44"}, {"bike_id": "02d9cef0e2c97f5f683f83b42bf5720d", "type": "electric_scooter", "is_disabled": 0, "lat": 38.91074783333333, "rental_uris": {"ios": "https://dc.lft.to/lastmile_qr_scan", "android": "https://dc.lft.to/lastmile_qr_scan"}, "is_reserved": 0, "fusion_lon": 0.0, "fusion_lat": 0.0, "lon": -77.02239516666667, "name": "02d9cef0e2c97f5f683f83b42bf5720d"}, {"bike_id": "f672da63492e4e9146b1375ceed556d3", "type": "electric_scooter", "is_disabled": 0, "lat": 38.910241666666664, "rental_uris": {"ios": "https://dc.lft.to/lastmile_qr_scan", "android": "https://dc.lft.to/lastmile_qr_scan"}, "is_reserved": 0, "fusion_lon": 0.0, "fusion_lat": 0.0, "lon": -77.0281755, "name": "f672da63492e4e9146b1375ceed556d3"}, {"bike_id": "ae4616927bb5963663984b26fc11374a", "type": "electric_scooter", "is_disabled": 0, "lat": 38.925170666666666, "rental_uris": {"ios": "https://dc.lft.to/lastmile_qr_scan", "android": "https://dc.lft.to/lastmile_qr_scan"}, "is_reserved": 0, "fusion_lon": 0.0, "fusion_lat": 0.0, "lon": -77.0225285, "name": "ae4616927bb5963663984b26fc11374a"}, {"bike_id": "f5f65b7f7f34726ff163025947f0bc55", "type": "electric_scooter", "is_disabled": 0, "lat": 38.921476166666665, "rental_uris": {"ios": "https://dc.lft.to/lastmile_qr_scan", "android": "https://dc.lft.to/lastmile_qr_scan"}, "is_reserved": 0, "fusion_lon": 0.0, "fusion_lat": 0.0, "lon": -77.03877033333333, "name": "f5f65b7f7f34726ff163025947f0bc55"}, {"bike_id": "356317f456e41e98dba84bbaa8b21867", "type": "electric_scooter", "is_disabled": 0, "lat": 38.922644166666664, "rental_uris": {"ios": "https://dc.lft.to/lastmile_qr_scan", "android": "https://dc.lft.to/lastmile_qr_scan"}, "is_reserved": 0, "fusion_lon": 0.0, "fusion_lat": 0.0, "lon": -77.0339515, "name": "356317f456e41e98dba84bbaa8b21867"}, {"bike_id": "28fc6f33321a7b730c20c6987d9bc4fc", "type": "electric_bike", "is_disabled": 0, "lat": 38.94115566666667, "rental_uris": {"ios": "https://dc.lft.to/lastmile_qr_scan", "android": "https://dc.lft.to/lastmile_qr_scan"}, "is_reserved": 0, "fusion_lon": 0.0, "fusion_lat": 0.0, "lon": -77.06197316666666, "name": "28fc6f33321a7b730c20c6987d9bc4fc"}, {"bike_id": "bfb99c35700ef2a783d8396c95b26827", "type": "electric_scooter", "is_disabled": 0, "lat": 38.9291125, "rental_uris": {"ios": "https://dc.lft.to/lastmile_qr_scan", "android": "https://dc.lft.to/lastmile_qr_scan"}, "is_reserved": 0, "fusion_lon": 0.0, "fusion_lat": 0.0, "lon": -77.03245233333334, "name": "bfb99c35700ef2a783d8396c95b26827"}, {"bike_id": "5c879d61b486a4abf5b07a5bb7d2390b", "type": "electric_scooter", "is_disabled": 0, "lat": 38.9180235, "rental_uris": {"ios": "https://dc.lft.to/lastmile_qr_scan", "android": "https://dc.lft.to/lastmile_qr_scan"}, "is_reserved": 0, "fusion_lon": 0.0, "fusion_lat": 0.0, "lon": -77.03434583333333, "name": "5c879d61b486a4abf5b07a5bb7d2390b"}, {"bike_id": "4c571884449acf366c18a1273b010521", "type": "electric_scooter", "is_disabled": 0, "lat": 38.909626833333334, "rental_uris": {"ios": "https://dc.lft.to/lastmile_qr_scan", "android": "https://dc.lft.to/lastmile_qr_scan"}, "is_reserved": 0, "fusion_lon": 0.0, "fusion_lat": 0.0, "lon": -77.04784516666666, "name": "4c571884449acf366c18a1273b010521"}, {"bike_id": "5a91e2f08ca67ff03ce2f52883d2ce32", "type": "electric_scooter", "is_disabled": 0, "lat": 38.936199, "rental_uris": {"ios": "https://dc.lft.to/lastmile_qr_scan", "android": "https://dc.lft.to/lastmile_qr_scan"}, "is_reserved": 0, "fusion_lon": 0.0, "fusion_lat": 0.0, "lon": -76.97612866666667, "name": "5a91e2f08ca67ff03ce2f52883d2ce32"}, {"bike_id": "460ff1c16565d3c2f422a23b24c427bd", "type": "electric_scooter", "is_disabled": 0, "lat": 38.894755833333335, "rental_uris": {"ios": "https://dc.lft.to/lastmile_qr_scan", "android": "https://dc.lft.to/lastmile_qr_scan"}, "is_reserved": 0, "fusion_lon": 0.0, "fusion_lat": 0.0, "lon": -76.94857633333334, "name": "460ff1c16565d3c2f422a23b24c427bd"}, {"bike_id": "259926307e2c4bea3aec3336635c7fbe", "type": "electric_scooter", "is_disabled": 0, "lat": 38.876569333333336, "rental_uris": {"ios": "https://dc.lft.to/lastmile_qr_scan", "android": "https://dc.lft.to/lastmile_qr_scan"}, "is_reserved": 0, "fusion_lon": 0.0, "fusion_lat": 0.0, "lon": -77.00443166666666, "name": "259926307e2c4bea3aec3336635c7fbe"}, {"bike_id": "c999c7599f831e58e0e374443555358d", "type": "electric_scooter", "is_disabled": 0, "lat": 38.931483, "rental_uris": {"ios": "https://dc.lft.to/lastmile_qr_scan", "android": "https://dc.lft.to/lastmile_qr_scan"}, "is_reserved": 0, "fusion_lon": 0.0, "fusion_lat": 0.0, "lon": -77.03352716666667, "name": "c999c7599f831e58e0e374443555358d"}, {"bike_id": "5563650079446f7d1f9ff3dc50783d46", "type": "electric_scooter", "is_disabled": 0, "lat": 38.909583166666664, "rental_uris": {"ios": "https://dc.lft.to/lastmile_qr_scan", "android": "https://dc.lft.to/lastmile_qr_scan"}, "is_reserved": 0, "fusion_lon": 0.0, "fusion_lat": 0.0, "lon": -77.02287266666667, "name": "5563650079446f7d1f9ff3dc50783d46"}, {"bike_id": "901649c9b73b28043a92469004b59b53", "type": "electric_bike", "is_disabled": 0, "lat": 38.97881366666667, "rental_uris": {"ios": "https://dc.lft.to/lastmile_qr_scan", "android": "https://dc.lft.to/lastmile_qr_scan"}, "is_reserved": 0, "fusion_lon": 0.0, "fusion_lat": 0.0, "lon": -77.06026266666667, "name": "901649c9b73b28043a92469004b59b53"}, {"bike_id": "4733adc2013bfe56439c40494a2a8dfc", "type": "electric_scooter", "is_disabled": 0, "lat": 38.90185983333333, "rental_uris": {"ios": "https://dc.lft.to/lastmile_qr_scan", "android": "https://dc.lft.to/lastmile_qr_scan"}, "is_reserved": 0, "fusion_lon": 0.0, "fusion_lat": 0.0, "lon": -77.01307083333333, "name": "4733adc2013bfe56439c40494a2a8dfc"}, {"bike_id": "8c9fa51c313237e582ae9bf1bc60f600", "type": "electric_scooter", "is_disabled": 0, "lat": 38.9246145, "rental_uris": {"ios": "https://dc.lft.to/lastmile_qr_scan", "android": "https://dc.lft.to/lastmile_qr_scan"}, "is_reserved": 0, "fusion_lon": 0.0, "fusion_lat": 0.0, "lon": -77.03264183333333, "name": "8c9fa51c313237e582ae9bf1bc60f600"}, {"bike_id": "e3fcfa62639a13e1e2748beaaf82c378", "type": "electric_scooter", "is_disabled": 0, "lat": 38.91764416666667, "rental_uris": {"ios": "https://dc.lft.to/lastmile_qr_scan", "android": "https://dc.lft.to/lastmile_qr_scan"}, "is_reserved": 0, "fusion_lon": 0.0, "fusion_lat": 0.0, "lon": -77.04771366666667, "name": "e3fcfa62639a13e1e2748beaaf82c378"}, {"bike_id": "36ad6499deb2584b4f634778fd2061bf", "type": "electric_scooter", "is_disabled": 0, "lat": 38.916943, "rental_uris": {"ios": "https://dc.lft.to/lastmile_qr_scan", "android": "https://dc.lft.to/lastmile_qr_scan"}, "is_reserved": 0, "fusion_lon": 0.0, "fusion_lat": 0.0, "lon": -77.03212333333333, "name": "36ad6499deb2584b4f634778fd2061bf"}, {"bike_id": "c1c34f1f664426971c590b77f37533a1", "type": "electric_scooter", "is_disabled": 0, "lat": 38.862096333333334, "rental_uris": {"ios": "https://dc.lft.to/lastmile_qr_scan", "android": "https://dc.lft.to/lastmile_qr_scan"}, "is_reserved": 0, "fusion_lon": 0.0, "fusion_lat": 0.0, "lon": -76.99472516666667, "name": "c1c34f1f664426971c590b77f37533a1"}, {"bike_id": "91fe328ade66aa6e7b6cf62e8ef5d880", "type": "electric_scooter", "is_disabled": 0, "lat": 38.89542133333333, "rental_uris": {"ios": "https://dc.lft.to/lastmile_qr_scan", "android": "https://dc.lft.to/lastmile_qr_scan"}, "is_reserved": 0, "fusion_lon": 0.0, "fusion_lat": 0.0, "lon": -76.9491925, "name": "91fe328ade66aa6e7b6cf62e8ef5d880"}, {"bike_id": "2cb6051a504d91eb8b04e2b5a17fbc29", "type": "electric_bike", "is_disabled": 0, "lat": 38.94362816666667, "rental_uris": {"ios": "https://dc.lft.to/lastmile_qr_scan", "android": "https://dc.lft.to/lastmile_qr_scan"}, "is_reserved": 0, "fusion_lon": 0.0, "fusion_lat": 0.0, "lon": -76.96775866666667, "name": "2cb6051a504d91eb8b04e2b5a17fbc29"}, {"bike_id": "8c7d94a7d2767291809be2d0be3bf4ec", "type": "electric_scooter", "is_disabled": 0, "lat": 38.938408333333335, "rental_uris": {"ios": "https://dc.lft.to/lastmile_qr_scan", "android": "https://dc.lft.to/lastmile_qr_scan"}, "is_reserved": 0, "fusion_lon": 0.0, "fusion_lat": 0.0, "lon": -77.03380333333334, "name": "8c7d94a7d2767291809be2d0be3bf4ec"}, {"bike_id": "cbd630a89c9b3a8ffa484af0fc79bfdd", "type": "electric_scooter", "is_disabled": 0, "lat": 38.924806333333336, "rental_uris": {"ios": "https://dc.lft.to/lastmile_qr_scan", "android": "https://dc.lft.to/lastmile_qr_scan"}, "is_reserved": 0, "fusion_lon": 0.0, "fusion_lat": 0.0, "lon": -77.02644183333334, "name": "cbd630a89c9b3a8ffa484af0fc79bfdd"}, {"bike_id": "657eff71d9460ce79f827f1f1b15f5ac", "type": "electric_scooter", "is_disabled": 0, "lat": 38.90578266666667, "rental_uris": {"ios": "https://dc.lft.to/lastmile_qr_scan", "android": "https://dc.lft.to/lastmile_qr_scan"}, "is_reserved": 0, "fusion_lon": 0.0, "fusion_lat": 0.0, "lon": -77.026946, "name": "657eff71d9460ce79f827f1f1b15f5ac"}, {"bike_id": "b4531603ae65ce48bc69cf82bc16463f", "type": "electric_bike", "is_disabled": 0, "lat": 38.97399816666667, "rental_uris": {"ios": "https://dc.lft.to/lastmile_qr_scan", "android": "https://dc.lft.to/lastmile_qr_scan"}, "is_reserved": 0, "fusion_lon": 0.0, "fusion_lat": 0.0, "lon": -77.064561, "name": "b4531603ae65ce48bc69cf82bc16463f"}, {"bike_id": "509aadf447d1e173b52d70b638c52223", "type": "electric_scooter", "is_disabled": 0, "lat": 38.9562185, "rental_uris": {"ios": "https://dc.lft.to/lastmile_qr_scan", "android": "https://dc.lft.to/lastmile_qr_scan"}, "is_reserved": 0, "fusion_lon": 0.0, "fusion_lat": 0.0, "lon": -77.036251, "name": "509aadf447d1e173b52d70b638c52223"}, {"bike_id": "2450abeca755c197ed260f23e6301285", "type": "electric_scooter", "is_disabled": 0, "lat": 38.885305833333334, "rental_uris": {"ios": "https://dc.lft.to/lastmile_qr_scan", "android": "https://dc.lft.to/lastmile_qr_scan"}, "is_reserved": 0, "fusion_lon": 0.0, "fusion_lat": 0.0, "lon": -76.998223, "name": "2450abeca755c197ed260f23e6301285"}, {"bike_id": "69447699f0fda7e2bc5f2610f86570ce", "type": "electric_scooter", "is_disabled": 0, "lat": 38.89773133333333, "rental_uris": {"ios": "https://dc.lft.to/lastmile_qr_scan", "android": "https://dc.lft.to/lastmile_qr_scan"}, "is_reserved": 0, "fusion_lon": 0.0, "fusion_lat": 0.0, "lon": -77.0516285, "name": "69447699f0fda7e2bc5f2610f86570ce"}, {"bike_id": "06092e651a3471ac2b4b8487dce9c8b0", "type": "electric_scooter", "is_disabled": 0, "lat": 38.90119266666667, "rental_uris": {"ios": "https://dc.lft.to/lastmile_qr_scan", "android": "https://dc.lft.to/lastmile_qr_scan"}, "is_reserved": 0, "fusion_lon": 0.0, "fusion_lat": 0.0, "lon": -76.9294985, "name": "06092e651a3471ac2b4b8487dce9c8b0"}, {"bike_id": "9d9a0f8110207287dc6abff9408b7680", "type": "electric_scooter", "is_disabled": 0, "lat": 38.923380333333334, "rental_uris": {"ios": "https://dc.lft.to/lastmile_qr_scan", "android": "https://dc.lft.to/lastmile_qr_scan"}, "is_reserved": 0, "fusion_lon": 0.0, "fusion_lat": 0.0, "lon": -77.03784033333334, "name": "9d9a0f8110207287dc6abff9408b7680"}, {"bike_id": "aef5191c6851b8c509843419ea78af57", "type": "electric_scooter", "is_disabled": 0, "lat": 38.8992085, "rental_uris": {"ios": "https://dc.lft.to/lastmile_qr_scan", "android": "https://dc.lft.to/lastmile_qr_scan"}, "is_reserved": 0, "fusion_lon": 0.0, "fusion_lat": 0.0, "lon": -77.03927333333333, "name": "aef5191c6851b8c509843419ea78af57"},