{"data": {"bikes": [{"is_disabled": 0, "is_reserved": 0, "type": "electric_scooter", "lon": -77.02723783333333, "fusion_lon": 0.0, "lat": 38.90854683333333, "rental_uris": {"android": "https://dc.lft.to/lastmile_qr_scan", "ios": "https://dc.lft.to/lastmile_qr_scan"}, "fusion_lat": 0.0, "name": "6e89ddf4a440e0aa53d01b69c061b048", "bike_id": "6e89ddf4a440e0aa53d01b69c061b048"}, {"is_disabled": 0, "is_reserved": 0, "type": "electric_scooter", "lon": -76.999191, "fusion_lon": 0.0, "lat": 38.920416833333334, "rental_uris": {"android": "https://dc.lft.to/lastmile_qr_scan", "ios": "https://dc.lft.to/lastmile_qr_scan"}, "fusion_lat": 0.0, "name": "43b7aca0ea0286f7af15d6204e3f62b5", "bike_id": "43b7aca0ea0286f7af15d6204e3f62b5"}, {"is_disabled": 0, "is_reserved": 0, "type": "electric_scooter", "lon": -76.986004, "fusion_lon": 0.0, "lat": 38.906569166666664, "rental_uris": {"android": "https://dc.lft.to/lastmile_qr_scan", "ios": "https://dc.lft.to/lastmile_qr_scan"}, "fusion_lat": 0.0, "name": "2e09b108ed9ac87a861bea685d2a98bf", "bike_id": "2e09b108ed9ac87a861bea685d2a98bf"}, {"is_disabled": 0, "is_reserved": 0, "type": "electric_scooter", "lon": -77.01365683333333, "fusion_lon": 0.0, "lat": 38.87900966666667, "rental_uris": {"android": "https://dc.lft.to/lastmile_qr_scan", "ios": "https://dc.lft.to/lastmile_qr_scan"}, "fusion_lat": 0.0, "name": "c7c7f35ce20a58db70a37d4f550eb0dc", "bike_id": "c7c7f35ce20a58db70a37d4f550eb0dc"}, {"is_disabled": 0, "is_reserved": 0, "type": "electric_bike", "lon": -77.36084883333334, "fusion_lon": 0.0, "lat": 38.939576, "rental_uris": {"android": "https://dc.lft.to/lastmile_qr_scan", "ios": "https://dc.lft.to/lastmile_qr_scan"}, "fusion_lat": 0.0, "name": "811d70f75202c8a567020ec013ff4ec9", "bike_id": "811d70f75202c8a567020ec013ff4ec9"}, {"is_disabled": 0, "is_reserved": 0, "type": "electric_scooter", "lon": -77.03784066666667, "fusion_lon": 0.0, "lat": 38.92627483333333, "rental_uris": {"android": "https://dc.lft.to/lastmile_qr_scan", "ios": "https://dc.lft.to/lastmile_qr_scan"}, "fusion_lat": 0.0, "name": "26a71c79045b5035d219f3ee4ef2521b", "bike_id": "26a71c79045b5035d219f3ee4ef2521b"}, {"is_disabled": 0, "is_reserved": 0, "type": "electric_scooter", "lon": -76.99524066666666, "fusion_lon": 0.0, "lat": 38.883796, "rental_uris": {"android": "https://dc.lft.to/lastmile_qr_scan", "ios": "https://dc.lft.to/lastmile_qr_scan"}, "fusion_lat": 0.0, "name": "68cae9fdf5ad6d499c2b66dace54fc06", "bike_id": "68cae9fdf5ad6d499c2b66dace54fc06"}, {"is_disabled": 0, "is_reserved": 0, "type": "electric_scooter", "lon": -77.03619733333333, "fusion_lon": 0.0, "lat": 38.92857633333333, "rental_uris": {"android": "https://dc.lft.to/lastmile_qr_scan", "ios": "https://dc.lft.to/lastmile_qr_scan"}, "fusion_lat": 0.0, "name": "12717fbd3e2a6ed85be9628cfe01b3bb", "bike_id": "12717fbd3e2a6ed85be9628cfe01b3bb"}, {"is_disabled": 0, "is_reserved": 0, "type": "electric_scooter", "lon": -77.0433445, "fusion_lon": 0.0, "lat": 38.91539083333333, "rental_uris": {"android": "https://dc.lft.to/lastmile_qr_scan", "ios": "https://dc.lft.to/lastmile_qr_scan"}, "fusion_lat": 0.0, "name": "5aeb3912e638d6966c4ae1f330513a71", "bike_id": "5aeb3912e638d6966c4ae1f330513a71"}, {"is_disabled": 0, "is_reserved": 0, "type": "electric_scooter", "lon": -77.031795, "fusion_lon": 0.0, "lat": 38.91915083333333, "rental_uris": {"android": "https://dc.lft.to/lastmile_qr_scan", "ios": "https://dc.lft.to/lastmile_qr_scan"}, "fusion_lat": 0.0, "name": "e9372904a6e37d24bfc031f1bb18fd2b", "bike_id": "e9372904a6e37d24bfc031f1bb18fd2b"}, {"is_disabled": 0, "is_reserved": 0, "type": "electric_scooter", "lon": -77.0305755, "fusion_lon": 0.0, "lat": 38.93974716666666, "rental_uris": {"android": "https://dc.lft.to/lastmile_qr_scan", "ios": "https://dc.lft.to/lastmile_qr_scan"}, "fusion_lat": 0.0, "name": "f7439edfbc03ae61a6aa7683595dd090", "bike_id": "f7439edfbc03ae61a6aa7683595dd090"}, {"is_disabled": 0, "is_reserved": 0, "type": "electric_scooter", "lon": -77.0019995, "fusion_lon": 0.0, "lat": 38.891461666666665, "rental_uris": {"android": "https://dc.lft.to/lastmile_qr_scan", "ios": "https://dc.lft.to/lastmile_qr_scan"}, "fusion_lat": 0.0, "name": "c20d11f8a0973f1a29118acf9ae3dd79", "bike_id": "c20d11f8a0973f1a29118acf9ae3dd79"}, {"is_disabled": 0, "is_reserved": 0, "type": "electric_scooter", "lon": -77.03047833333333, "fusion_lon": 0.0, "lat": 38.939859, "rental_uris": {"android": "https://dc.lft.to/lastmile_qr_scan", "ios": "https://dc.lft.to/lastmile_qr_scan"}, "fusion_lat": 0.0, "name": "515dc263ac95faa2c561f71b3d70b773", "bike_id": "515dc263ac95faa2c561f71b3d70b773"}, {"is_disabled": 0, "is_reserved": 0, "type": "electric_scooter", "lon": -77.04402433333334, "fusion_lon": 0.0, "lat": 38.902331833333335, "rental_uris": {"android": "https://dc.lft.to/lastmile_qr_scan", "ios": "https://dc.lft.to/lastmile_qr_scan"}, "fusion_lat": 0.0, "name": "c721733dae27f870cbe1e92e5a86eff8", "bike_id": "c721733dae27f870cbe1e92e5a86eff8"}, {"is_disabled": 0, "is_reserved": 0, "type": "electric_scooter", "lon": -77.02170833333334, "fusion_lon": 0.0, "lat": 38.9429305, "rental_uris": {"android": "https://dc.lft.to/lastmile_qr_scan", "ios": "https://dc.lft.to/lastmile_qr_scan"}, "fusion_lat": 0.0, "name": "5aba2f575f6ff87660043044d98531e0", "bike_id": "5aba2f575f6ff87660043044d98531e0"}, {"is_disabled": 0, "is_reserved": 0, "type": "electric_scooter", "lon": -77.0028085, "fusion_lon": 0.0, "lat": 38.885072, "rental_uris": {"android": "https://dc.lft.to/lastmile_qr_scan", "ios": "https://dc.lft.to/lastmile_qr_scan"}, "fusion_lat": 0.0, "name": "646f4abf04a0fa594620c2a2f2caf59e", "bike_id": "646f4abf04a0fa594620c2a2f2caf59e"}, {"is_disabled": 0, "is_reserved": 0, "type": "electric_bike", "lon": -76.97994233333333, "fusion_lon": 0.0, "lat": 38.87760883333333, "rental_uris": {"android": "https://dc.lft.to/lastmile_qr_scan", "ios": "https://dc.lft.to/lastmile_qr_scan"}, "fusion_lat": 0.0, "name": "4ae0404a4495b5f57e13b52f491afc92", "bike_id": "4ae0404a4495b5f57e13b52f491afc92"}, {"is_disabled": 0, "is_reserved": 0, "type": "electric_scooter", "lon": -77.01510366666666, "fusion_lon": 0.0, "lat": 38.91032333333333, "rental_uris": {"android": "https://dc.lft.to/lastmile_qr_scan", "ios": "https://dc.lft.to/lastmile_qr_scan"}, "fusion_lat": 0.0, "name": "13c12f6b8bf111e72cf0aa930c1322f4", "bike_id": "13c12f6b8bf111e72cf0aa930c1322f4"}, {"is_disabled": 0, "is_reserved": 0, "type": "electric_scooter", "lon": -77.00585716666667, "fusion_lon": 0.0, "lat": 38.90401383333333, "rental_uris": {"android": "https://dc.lft.to/lastmile_qr_scan", "ios": "https://dc.lft.to/lastmile_qr_scan"}, "fusion_lat": 0.0, "name": "48b590e746c13109f4da352eca136e4e", "bike_id": "48b590e746c13109f4da352eca136e4e"}, {"is_disabled": 0, "is_reserved": 0, "type": "electric_scooter", "lon": -77.02722166666666, "fusion_lon": 0.0, "lat": 38.91102083333333, "rental_uris": {"android": "https://dc.lft.to/lastmile_qr_scan", "ios": "https://dc.lft.to/lastmile_qr_scan"}, "fusion_lat": 0.0, "name": "57c1ba1b908454fb5b8ad0f71e8389f5", "bike_id": "57c1ba1b908454fb5b8ad0f71e8389f5"}, {"is_disabled": 0, "is_reserved": 0, "type": "electric_bike", "lon": -77.03892166666667, "fusion_lon": 0.0, "lat": 38.94397516666667, "rental_uris": {"android": "https://dc.lft.to/lastmile_qr_scan", "ios": "https://dc.lft.to/lastmile_qr_scan"}, "fusion_lat": 0.0, "name": "9c2f42eac5b1f893fbd9bc82a8b3ab2b", "bike_id": "9c2f42eac5b1f893fbd9bc82a8b3ab2b"}, {"is_disabled": 0, "is_reserved": 0, "type": "electric_scooter", "lon": -77.009454, "fusion_lon": 0.0, "lat": 38.89663183333333, "rental_uris": {"android": "https://dc.lft.to/lastmile_qr_scan", "ios": "https://dc.lft.to/lastmile_qr_scan"}, "fusion_lat": 0.0, "name": "a891737e5f616018fa2fe9a39caa35b0", "bike_id": "a891737e5f616018fa2fe9a39caa35b0"}, {"is_disabled": 0, "is_reserved": 0, "type": "electric_scooter", "lon": -77.04709083333333, "fusion_lon": 0.0, "lat": 38.90544333333333, "rental_uris": {"android": "https://dc.lft.to/lastmile_qr_scan", "ios": "https://dc.lft.to/lastmile_qr_scan"}, "fusion_lat": 0.0, "name": "9b4d4a296a0f4443d745a834500c1681", "bike_id": "9b4d4a296a0f4443d745a834500c1681"}, {"is_disabled": 0, "is_reserved": 0, "type": "electric_scooter", "lon": -77.041724, "fusion_lon": 0.0, "lat": 38.920082666666666, "rental_uris": {"android": "https://dc.lft.to/lastmile_qr_scan", "ios": "https://dc.lft.to/lastmile_qr_scan"}, "fusion_lat": 0.0, "name": "8e8e4630c47d45e72804365a96c08b0c", "bike_id": "8e8e4630c47d45e72804365a96c08b0c"}, {"is_disabled": 0, "is_reserved": 0, "type": "electric_scooter", "lon": -77.05026366666667, "fusion_lon": 0.0, "lat": 38.905364166666665, "rental_uris": {"android": "https://dc.lft.to/lastmile_qr_scan", "ios": "https://dc.lft.to/lastmile_qr_scan"}, "fusion_lat": 0.0, "name": "6877b6586ee6321d11658134bc5d5079", "bike_id": "6877b6586ee6321d11658134bc5d5079"}, {"is_disabled": 0, "is_reserved": 0, "type": "electric_scooter", "lon": -77.0310905, "fusion_lon": 0.0, "lat": 38.920156166666665, "rental_uris": {"android": "https://dc.lft.to/lastmile_qr_scan", "ios": "https://dc.lft.to/lastmile_qr_scan"}, "fusion_lat": 0.0, "name": "eca013742f2b4e10180b45e56fdb47d6", "bike_id": "eca013742f2b4e10180b45e56fdb47d6"}, {"is_disabled": 0, "is_reserved": 0, "type": "electric_scooter", "lon": -77.02356933333333, "fusion_lon": 0.0, "lat": 38.93531133333333, "rental_uris": {"android": "https://dc.lft.to/lastmile_qr_scan", "ios": "https://dc.lft.to/lastmile_qr_scan"}, "fusion_lat": 0.0, "name": "05462e1f61bab4d45bf43559e8f3c3f0", "bike_id": "05462e1f61bab4d45bf43559e8f3c3f0"}, {"is_disabled": 0, "is_reserved": 0, "type": "electric_scooter", "lon": -77.00604683333333, "fusion_lon": 0.0, "lat": 38.9056685, "rental_uris": {"android": "https://dc.lft.to/lastmile_qr_scan", "ios": "https://dc.lft.to/lastmile_qr_scan"}, "fusion_lat": 0.0, "name": "993bb2688197c583a07ac324ea2fa010", "bike_id": "993bb2688197c583a07ac324ea2fa010"}, {"is_disabled": 0, "is_reserved": 0, "type": "electric_scooter", "lon": -77.03311966666666, "fusion_lon": 0.0, "lat": 38.90555333333333, "rental_uris": {"android": "https://dc.lft.to/lastmile_qr_scan", "ios": "https://dc.lft.to/lastmile_qr_scan"}, "fusion_lat": 0.0, "name": "03e624d746491f82df3748d11b2c97ab", "bike_id": "03e624d746491f82df3748d11b2c97ab"}, {"is_disabled": 0, "is_reserved": 0, "type": "electric_scooter", "lon": -77.01999016666667, "fusion_lon": 0.0, "lat": 38.966272833333335, "rental_uris": {"android": "https://dc.lft.to/lastmile_qr_scan", "ios": "https://dc.lft.to/lastmile_qr_scan"}, "fusion_lat": 0.0, "name": "f1cf2629c94edfb4e20a216343d4625c", "bike_id": "f1cf2629c94edfb4e20a216343d4625c"}, {"is_disabled": 0, "is_reserved": 0, "type": "electric_scooter", "lon": -77.04579916666667, "fusion_lon": 0.0, "lat": 38.9242405, "rental_uris": {"android": "https://dc.lft.to/lastmile_qr_scan", "ios": "https://dc.lft.to/lastmile_qr_scan"}, "fusion_lat": 0.0, "name": "d3e1fa6512836d49cd99563f03874ff0", "bike_id": "d3e1fa6512836d49cd99563f03874ff0"}, {"is_disabled": 0, "is_reserved": 0, "type": "electric_bike", "lon": -76.94811866666667, "fusion_lon": 0.0, "lat": 38.8619465, "rental_uris": {"android": "https://dc.lft.to/lastmile_qr_scan", "ios": "https://dc.lft.to/lastmile_qr_scan"}, "fusion_lat": 0.0, "name": "58a948f01960e646ab3a1f18012ae3cf", "bike_id": "58a948f01960e646ab3a1f18012ae3cf"}, {"is_disabled": 0, "is_reserved": 0, "type": "electric_scooter", "lon": -77.037641, "fusion_lon": 0.0, "lat": 38.916972666666666, "rental_uris": {"android": "https://dc.lft.to/lastmile_qr_scan", "ios": "https://dc.lft.to/lastmile_qr_scan"}, "fusion_lat": 0.0, "name": "094d9bbcf1b3a7658887f25afe78073c", "bike_id": "094d9bbcf1b3a7658887f25afe78073c"}, {"is_disabled": 0, "is_reserved": 0, "type": "electric_scooter", "lon": -77.022027, "fusion_lon": 0.0, "lat": 38.90542216666667, "rental_uris": {"android": "https://dc.lft.to/lastmile_qr_scan", "ios": "https://dc.lft.to/lastmile_qr_scan"}, "fusion_lat": 0.0, "name": "c83480e6ff8c261c7188bd52f7f11bc1", "bike_id": "c83480e6ff8c261c7188bd52f7f11bc1"}, {"is_disabled": 0, "is_reserved": 0, "type": "electric_scooter", "lon": -77.026218, "fusion_lon": 0.0, "lat": 38.919159, "rental_uris": {"android": "https://dc.lft.to/lastmile_qr_scan", "ios": "https://dc.lft.to/lastmile_qr_scan"}, "fusion_lat": 0.0, "name": "cac7dc919df3af4b3fc15c1f735916b0", "bike_id": "cac7dc919df3af4b3fc15c1f735916b0"}, {"is_disabled": 0, "is_reserved": 0, "type": "electric_scooter", "lon": -77.0286505, "fusion_lon": 0.0, "lat": 38.901508, "rental_uris": {"android": "https://dc.lft.to/lastmile_qr_scan", "ios": "https://dc.lft.to/lastmile_qr_scan"}, "fusion_lat": 0.0, "name": "dec153863d06c5a3de1518cbe6c7084d", "bike_id": "dec153863d06c5a3de1518cbe6c7084d"}, {"is_disabled": 0, "is_reserved": 0, "type": "electric_bike", "lon": -76.87496966666667, "fusion_lon": 0.0, "lat": 38.990907, "rental_uris": {"android": "https://dc.lft.to/lastmile_qr_scan", "ios": "https://dc.lft.to/lastmile_qr_scan"}, "fusion_lat": 0.0, "name": "d83bf27a93fc6b2248d4edfa1e5022f5", "bike_id": "d83bf27a93fc6b2248d4edfa1e5022f5"}, {"is_disabled": 0, "is_reserved": 0, "type": "electric_scooter", "lon": -77.04064583333333, "fusion_lon": 0.0, "lat": 38.90254566666667, "rental_uris": {"android": "https://dc.lft.to/lastmile_qr_scan", "ios": "https://dc.lft.to/lastmile_qr_scan"}, "fusion_lat": 0.0, "name": "90eed50a7295c0624fe057d12d20fda5", "bike_id": "90eed50a7295c0624fe057d12d20fda5"}, {"is_disabled": 0, "is_reserved": 0, "type": "electric_scooter", "lon": -77.039283, "fusion_lon": 0.0, "lat": 38.90070266666667, "rental_uris": {"android": "https://dc.lft.to/lastmile_qr_scan", "ios": "https://dc.lft.to/lastmile_qr_scan"}, "fusion_lat": 0.0, "name": "1e9bbb15212690a8a5454427503ef6c0", "bike_id": "1e9bbb15212690a8a5454427503ef6c0"}, {"is_disabled": 0, "is_reserved": 0, "type": "electric_bike", "lon": -77.1122905, "fusion_lon": 0.0, "lat": 38.828738333333334, "rental_uris": {"android": "https://dc.lft.to/lastmile_qr_scan", "ios": "https://dc.lft.to/lastmile_qr_scan"}, "fusion_lat": 0.0, "name": "9c6123ccb0e4ab28beab8145f49fbbd0", "bike_id": "9c6123ccb0e4ab28beab8145f49fbbd0"}, {"is_disabled": 0, "is_reserved": 0, "type": "electric_scooter", "lon": -77.02713216666666, "fusion_lon": 0.0, "lat": 38.90145116666667, "rental_uris": {"android": "https://dc.lft.to/lastmile_qr_scan", "ios": "https://dc.lft.to/lastmile_qr_scan"}, "fusion_lat": 0.0, "name": "e218c1e334af1745ffc93bcbb8cbb19f", "bike_id": "e218c1e334af1745ffc93bcbb8cbb19f"}, {"is_disabled": 0, "is_reserved": 0, "type": "electric_scooter", "lon": -77.04335783333333, "fusion_lon": 0.0, "lat": 38.903267666666665, "rental_uris": {"android": "https://dc.lft.to/lastmile_qr_scan", "ios": "https://dc.lft.to/lastmile_qr_scan"}, "fusion_lat": 0.0, "name": "5d27d4d58e44bee04a1485809c6b6dd7", "bike_id": "5d27d4d58e44bee04a1485809c6b6dd7"}, {"is_disabled": 0, "is_reserved": 0, "type": "electric_scooter", "lon": -77.031819, "fusion_lon": 0.0, "lat": 38.907656833333334, "rental_uris": {"android": "https://dc.lft.to/lastmile_qr_scan", "ios": "https://dc.lft.to/lastmile_qr_scan"}, "fusion_lat": 0.0, "name": "fdb05d3093000110aa8b083e64e2105e", "bike_id": "fdb05d3093000110aa8b083e64e2105e"}, {"is_disabled": 0, "is_reserved": 0, "type": "electric_bike", "lon": -77.09561183333334, "fusion_lon": 0.0, "lat": 38.916922, "rental_uris": {"android": "https://dc.lft.to/lastmile_qr_scan", "ios": "https://dc.lft.to/lastmile_qr_scan"}, "fusion_lat": 0.0, "name": "5af817a036104999c9cdfee2d752e5b7", "bike_id": "5af817a036104999c9cdfee2d752e5b7"}, {"is_disabled": 0, "is_reserved": 0, "type": "electric_scooter", "lon": -77.0269605, "fusion_lon": 0.0, "lat": 38.94956366666667, "rental_uris": {"android": "https://dc.lft.to/lastmile_qr_scan", "ios": "https://dc.lft.to/lastmile_qr_scan"}, "fusion_lat": 0.0, "name": "86a2a4949c178a4560096a0debe24adf", "bike_id": "86a2a4949c178a4560096a0debe24adf"}, {"is_disabled": 0, "is_reserved": 0, "type": "electric_scooter", "lon": -77.01895866666666, "fusion_lon": 0.0, "lat": 38.91226066666667, "rental_uris": {"android": "https://dc.lft.to/lastmile_qr_scan", "ios": "https://dc.lft.to/lastmile_qr_scan"}, "fusion_lat": 0.0, "name": "15296688337910cba68842bc9acc6c2f", "bike_id": "15296688337910cba68842bc9acc6c2f"}, {"is_disabled": 0, "is_reserved": 0, "type": "electric_scooter", "lon": -77.03203266666667, "fusion_lon": 0.0, "lat": 38.91131716666666, "rental_uris": {"android": "https://dc.lft.to/lastmile_qr_scan", "ios": "https://dc.lft.to/lastmile_qr_scan"}, "fusion_lat": 0.0, "name": "cc67f52480f22e3f4547ba8efd6b71eb", "bike_id": "cc67f52480f22e3f4547ba8efd6b71eb"}, {"is_disabled": 0, "is_reserved": 0, "type": "electric_scooter", "lon": -77.03647283333333, "fusion_lon": 0.0, "lat": 38.93527533333334, "rental_uris": {"android": "https://dc.lft.to/lastmile_qr_scan", "ios": "https://dc.lft.to/lastmile_qr_scan"}, "fusion_lat": 0.0, "name": "f313cb994b807f3d80578286dd6a82d5", "bike_id": "f313cb994b807f3d80578286dd6a82d5"}, {"is_disabled": 0, "is_reserved": 0, "type": "electric_scooter", "lon": -77.03291916666667, "fusion_lon": 0.0, "lat": 38.9038765, "rental_uris": {"android": "https://dc.lft.to/lastmile_qr_scan", "ios": "https://dc.lft.to/lastmile_qr_scan"}, "fusion_lat": 0.0, "name": "083452c56cc579cf2fd1aa30ae5998a9", "bike_id": "083452c56cc579cf2fd1aa30ae5998a9"}, {"is_disabled": 0, "is_reserved": 0, "type": "electric_scooter", "lon": -77.01964633333333, "fusion_lon": 0.0, "lat": 38.878481666666666, "rental_uris": {"android": "https://dc.lft.to/lastmile_qr_scan", "ios": "https://dc.lft.to/lastmile_qr_scan"}, "fusion_lat": 0.0, "name": "79ba1e9730854e34cea228e74fbabd01", "bike_id": "79ba1e9730854e34cea228e74fbabd01"}, {"is_disabled": 0, "is_reserved": 0, "type": "electric_scooter", "lon": -77.03918416666667, "fusion_lon": 0.0, "lat": 38.911874166666664, "rental_uris": {"android": "https://dc.lft.to/lastmile_qr_scan", "ios": "https://dc.lft.to/lastmile_qr_scan"}, "fusion_lat": 0.0, "name": "22a9b03be6241904ee24335314a0adaa", "bike_id": "22a9b03be6241904ee24335314a0adaa"}, {"is_disabled": 0, "is_reserved": 0, "type": "electric_scooter", "lon": -77.04499183333333, "fusion_lon": 0.0, "lat": 38.908501666666666, "rental_uris": {"android": "https://dc.lft.to/lastmile_qr_scan", "ios": "https://dc.lft.to/lastmile_qr_scan"}, "fusion_lat": 0.0, "name": "2db7b9681be3d5fc76109980930467b4", "bike_id": "2db7b9681be3d5fc76109980930467b4"}, {"is_disabled": 0, "is_reserved": 0, "type": "electric_scooter", "lon": -77.01714316666667, "fusion_lon": 0.0, "lat": 38.90509433333333, "rental_uris": {"android": "https://dc.lft.to/lastmile_qr_scan", "ios": "https://dc.lft.to/lastmile_qr_scan"}, "fusion_lat": 0.0, "name": "fa68bb1dc4620a92df65bfc9f72f75f0", "bike_id": "fa68bb1dc4620a92df65bfc9f72f75f0"}, {"is_disabled": 0, "is_reserved": 0, "type": "electric_scooter", "lon": -77.02699183333333, "fusion_lon": 0.0, "lat": 38.936383166666666, "rental_uris": {"android": "https://dc.lft.to/lastmile_qr_scan", "ios": "https://dc.lft.to/lastmile_qr_scan"}, "fusion_lat": 0.0, "name": "88c171fe3876a6dd590dd99a706c5ca0", "bike_id": "88c171fe3876a6dd590dd99a706c5ca0"}, {"is_disabled": 0, "is_reserved": 0, "type": "electric_scooter", "lon": -76.946337, "fusion_lon": 0.0, "lat": 38.89843233333333, "rental_uris": {"android": "https://dc.lft.to/lastmile_qr_scan", "ios": "https://dc.lft.to/lastmile_qr_scan"}, "fusion_lat": 0.0, "name": "11be5e29331194e7c811087654fc081d", "bike_id": "11be5e29331194e7c811087654fc081d"}, {"is_disabled": 0, "is_reserved": 0, "type": "electric_scooter", "lon": -77.044317, "fusion_lon": 0.0, "lat": 38.89403866666667, "rental_uris": {"android": "https://dc.lft.to/lastmile_qr_scan", "ios": "https://dc.lft.to/lastmile_qr_scan"}, "fusion_lat": 0.0, "name": "08114177646dfaebd152438f2984378d", "bike_id": "08114177646dfaebd152438f2984378d"}, {"is_disabled": 0, "is_reserved": 0, "type": "electric_scooter", "lon": -77.02578483333333, "fusion_lon": 0.0, "lat": 38.942075833333334, "rental_uris": {"android": "https://dc.lft.to/lastmile_qr_scan", "ios": "https://dc.lft.to/lastmile_qr_scan"}, "fusion_lat": 0.0, "name": "86151595171e61e7dfb6e74d2f1ea0c5", "bike_id": "86151595171e61e7dfb6e74d2f1ea0c5"}, {"is_disabled": 0, "is_reserved": 0, "type": "electric_scooter", "lon": -77.03730733333333, "fusion_lon": 0.0, "lat": 38.928517666666664, "rental_uris": {"android": "https://dc.lft.to/lastmile_qr_scan", "ios": "https://dc.lft.to/lastmile_qr_scan"}, "fusion_lat": 0.0, "name": "301bb0065254060ecc4c1962db556c98", "bike_id": "301bb0065254060ecc4c1962db556c98"}, {"is_disabled": 0, "is_reserved": 0, "type": "electric_scooter", "lon": -77.05007716666667, "fusion_lon": 0.0, "lat": 38.893634166666665, "rental_uris": {"android": "https://dc.lft.to/lastmile_qr_scan", "ios": "https://dc.lft.to/lastmile_qr_scan"}, "fusion_lat": 0.0, "name": "3c8482ad596cf80f5a5f58ada9f60d86", "bike_id": "3c8482ad596cf80f5a5f58ada9f60d86"}, {"is_disabled": 0, "is_reserved": 0, "type": "electric_scooter", "lon": -77.02412816666667, "fusion_lon": 0.0, "lat": 38.912563166666665, "rental_uris": {"android": "https://dc.lft.to/lastmile_qr_scan", "ios": "https://dc.lft.to/lastmile_qr_scan"}, "fusion_lat": 0.0, "name": "55bb286119371024ad02c76ae5dc79b0", "bike_id": "55bb286119371024ad02c76ae5dc79b0"}, {"is_disabled": 0, "is_reserved": 0, "type": "electric_scooter", "lon": -77.03948183333334, "fusion_lon": 0.0, "lat": 38.909621, "rental_uris": {"android": "https://dc.lft.to/lastmile_qr_scan", "ios": "https://dc.lft.to/lastmile_qr_scan"}, "fusion_lat": 0.0, "name": "bfbb651172065c0f90903c2b4325d864", "bike_id": "bfbb651172065c0f90903c2b4325d864"}, {"is_disabled": 0, "is_reserved": 0, "type": "electric_scooter", "lon": -76.993743, "fusion_lon": 0.0, "lat": 38.923956, "rental_uris": {"android": "https://dc.lft.to/lastmile_qr_scan", "ios": "https://dc.lft.to/lastmile_qr_scan"}, "fusion_lat": 0.0, "name": "637cd4290e02c69174f6031818bbdb98", "bike_id": "637cd4290e02c69174f6031818bbdb98"}, {"is_disabled": 0, "is_reserved": 0, "type": "electric_scooter", "lon": -77.04162233333334, "fusion_lon": 0.0, "lat": 38.9174675, "rental_uris": {"android": "https://dc.lft.to/lastmile_qr_scan", "ios": "https://dc.lft.to/lastmile_qr_scan"}, "fusion_lat": 0.0, "name": "f90cfbc8e6861c99ff68e7f661d59b6d", "bike_id": "f90cfbc8e6861c99ff68e7f661d59b6d"}, {"is_disabled": 0, "is_reserved": 0, "type": "electric_scooter", "lon": -77.03176033333334, "fusion_lon": 0.0, "lat": 38.899882, "rental_uris": {"android": "https://dc.lft.to/lastmile_qr_scan", "ios": "https://dc.lft.to/lastmile_qr_scan"}, "fusion_lat": 0.0, "name": "fa246cb441413f014e0356340aa5ddf4", "bike_id": "fa246cb441413f014e0356340aa5ddf4"}, {"is_disabled": 0, "is_reserved": 0, "type": "electric_scooter", "lon": -77.04137233333333, "fusion_lon": 0.0, "lat": 38.89938183333334, "rental_uris": {"android": "https://dc.lft.to/lastmile_qr_scan", "ios": "https://dc.lft.to/lastmile_qr_scan"}, "fusion_lat": 0.0, "name": "c3bfe5aa5fab3887db00dee098472cf6", "bike_id": "c3bfe5aa5fab3887db00dee098472cf6"}, {"is_disabled": 0, "is_reserved": 0, "type": "electric_scooter", "lon": -77.036632, "fusion_lon": 0.0, "lat": 38.917193833333336, "rental_uris": {"android": "https://dc.lft.to/lastmile_qr_scan", "ios": "https://dc.lft.to/lastmile_qr_scan"}, "fusion_lat": 0.0, "name": "473891e8e74803a2f8f3272042589d47", "bike_id": "473891e8e74803a2f8f3272042589d47"}, {"is_disabled": 0, "is_reserved": 0, "type": "electric_scooter", "lon": -77.02384133333334, "fusion_lon": 0.0, "lat": 38.887262166666666, "rental_uris": {"android": "https://dc.lft.to/lastmile_qr_scan", "ios": "https://dc.lft.to/lastmile_qr_scan"}, "fusion_lat": 0.0, "name": "3e3fcda1a4fe8e46738fab2fc982b60e", "bike_id": "3e3fcda1a4fe8e46738fab2fc982b60e"}, {"is_disabled": 0, "is_reserved": 0, "type": "electric_scooter", "lon": -77.038328, "fusion_lon": 0.0, "lat": 38.91111766666667, "rental_uris": {"android": "https://dc.lft.to/lastmile_qr_scan", "ios": "https://dc.lft.to/lastmile_qr_scan"}, "fusion_lat": 0.0, "name": "853d910a84e79cd48063eb6387672fe5", "bike_id": "853d910a84e79cd48063eb6387672fe5"}, {"is_disabled": 0, "is_reserved": 0, "type": "electric_scooter", "lon": -77.02836683333334, "fusion_lon": 0.0, "lat": 38.92232516666667, "rental_uris": {"android": "https://dc.lft.to/lastmile_qr_scan", "ios": "https://dc.lft.to/lastmile_qr_scan"}, "fusion_lat": 0.0, "name": "601c59efd1e8ffaab733cceabfced671", "bike_id": "601c59efd1e8ffaab733cceabfced671"}, {"is_disabled": 0, "is_reserved": 0, "type": "electric_scooter", "lon": -76.98989266666666, "fusion_lon": 0.0, "lat": 38.864317, "rental_uris": {"android": "https://dc.lft.to/lastmile_qr_scan", "ios": "https://dc.lft.to/lastmile_qr_scan"}, "fusion_lat": 0.0, "name": "495974a105ca2f648a55f8377e68e92a", "bike_id": "495974a105ca2f648a55f8377e68e92a"}, {"is_disabled": 0, "is_reserved": 0, "type": "electric_bike", "lon": -76.963638, "fusion_lon": 0.0, "lat": 38.94900333333333, "rental_uris": {"android": "https://dc.lft.to/lastmile_qr_scan", "ios": "https://dc.lft.to/lastmile_qr_scan"}, "fusion_lat": 0.0, "name": "d2e3422012305c16ed36877ae6d942cb", "bike_id": "d2e3422012305c16ed36877ae6d942cb"}, {"is_disabled": 0, "is_reserved": 0, "type": "electric_scooter", "lon": -77.0318695, "fusion_lon": 0.0, "lat": 38.9163235, "rental_uris": {"android": "https://dc.lft.to/lastmile_qr_scan", "ios": "https://dc.lft.to/lastmile_qr_scan"}, "fusion_lat": 0.0, "name": "c599aea2bb39f919fade5dd032317536", "bike_id": "c599aea2bb39f919fade5dd032317536"}, {"is_disabled": 0, "is_reserved": 0, "type": "electric_scooter", "lon": -77.03168833333334, "fusion_lon": 0.0, "lat": 38.915929166666665, "rental_uris": {"android": "https://dc.lft.to/lastmile_qr_scan", "ios": "https://dc.lft.to/lastmile_qr_scan"}, "fusion_lat": 0.0, "name": "b75ad967dba8b4ce47b13dfa76bc4531", "bike_id": "b75ad967dba8b4ce47b13dfa76bc4531"}, {"is_disabled": 0, "is_reserved": 0, "type": "electric_scooter", "lon": -77.03271183333334, "fusion_lon": 0.0, "lat": 38.954119166666665, "rental_uris": {"android": "https://dc.lft.to/lastmile_qr_scan", "ios": "https://dc.lft.to/lastmile_qr_scan"}, "fusion_lat": 0.0, "name": "0056b82fd138d32a4d8b8ccf7d54bca3", "bike_id": "0056b82fd138d32a4d8b8ccf7d54bca3"}, {"is_disabled": 0, "is_reserved": 0, "type": "electric_scooter", "lon": -77.02890316666667, "fusion_lon": 0.0, "lat": 38.90124616666667, "rental_uris": {"android": "https://dc.lft.to/lastmile_qr_scan", "ios": "https://dc.lft.to/lastmile_qr_scan"}, "fusion_lat": 0.0, "name": "497c640d963987576b90caef97649f15", "bike_id": "497c640d963987576b90caef97649f15"}, {"is_disabled": 0, "is_reserved": 0, "type": "electric_scooter", "lon": -76.983294, "fusion_lon": 0.0, "lat": 38.88986516666667, "rental_uris": {"android": "https://dc.lft.to/lastmile_qr_scan", "ios": "https://dc.lft.to/lastmile_qr_scan"}, "fusion_lat": 0.0, "name": "3392a8311deef86826c92c15bf237ae2", "bike_id": "3392a8311deef86826c92c15bf237ae2"}, {"is_disabled": 0, "is_reserved": 0, "type": "electric_scooter", "lon": -77.00941133333333, "fusion_lon": 0.0, "lat": 38.87460033333333, "rental_uris": {"android": "https://dc.lft.to/lastmile_qr_scan", "ios": "https://dc.lft.to/lastmile_qr_scan"}, "fusion_lat": 0.0, "name": "4d08264b1ad7a9365041b663d62c3ae2", "bike_id": "4d08264b1ad7a9365041b663d62c3ae2"}, {"is_disabled": 0, "is_reserved": 0, "type": "electric_bike", "lon": -76.9867355, "fusion_lon": 0.0, "lat": 38.899684, "rental_uris": {"android": "https://dc.lft.to/lastmile_qr_scan", "ios": "https://dc.lft.to/lastmile_qr_scan"}, "fusion_lat": 0.0, "name": "de91bf58f3a0ae2eac7d9b8137618afa", "bike_id": "de91bf58f3a0ae2eac7d9b8137618afa"}, {"is_disabled": 0, "is_reserved": 0, "type": "electric_scooter", "lon": -76.98824133333333, "fusion_lon": 0.0, "lat": 38.9003925, "rental_uris": {"android": "https://dc.lft.to/lastmile_qr_scan", "ios": "https://dc.lft.to/lastmile_qr_scan"}, "fusion_lat": 0.0, "name": "652b88d8460473979b4cd5703777b528", "bike_id": "652b88d8460473979b4cd5703777b528"}, {"is_disabled": 0, "is_reserved": 0, "type": "electric_scooter", "lon": -77.07253216666666, "fusion_lon": 0.0, "lat": 38.90783666666667, "rental_uris": {"android": "https://dc.lft.to/lastmile_qr_scan", "ios": "https://dc.lft.to/lastmile_qr_scan"}, "fusion_lat": 0.0, "name": "0f5799a105fc77bbb8a23729660d1af3", "bike_id": "0f5799a105fc77bbb8a23729660d1af3"}, {"is_disabled": 0, "is_reserved": 0, "type": "electric_scooter", "lon": -76.9652805, "fusion_lon": 0.0, "lat": 38.87630433333333, "rental_uris": {"android": "https://dc.lft.to/lastmile_qr_scan", "ios": "https://dc.lft.to/lastmile_qr_scan"}, "fusion_lat": 0.0, "name": "ac50a8a8df77b65e803c2b8438f669a9", "bike_id": "ac50a8a8df77b65e803c2b8438f669a9"}, {"is_disabled": 0, "is_reserved": 0, "type": "electric_scooter", "lon": -77.02703916666667, "fusion_lon": 0.0, "lat": 38.94979266666667, "rental_uris": {"android": "https://dc.lft.to/lastmile_qr_scan", "ios": "https://dc.lft.to/lastmile_qr_scan"}, "fusion_lat": 0.0, "name": "27ce69ab30a8773fe439d9c5250b9afb", "bike_id": "27ce69ab30a8773fe439d9c5250b9afb"}, {"is_disabled": 0, "is_reserved": 0, "type": "electric_scooter", "lon": -77.04871583333333, "fusion_lon": 0.0, "lat": 38.909978333333335, "rental_uris": {"android": "https://dc.lft.to/lastmile_qr_scan", "ios": "https://dc.lft.to/lastmile_qr_scan"}, "fusion_lat": 0.0, "name": "46b143fbec24f8c467cb6f9ac215241d", "bike_id": "46b143fbec24f8c467cb6f9ac215241d"}, {"is_disabled": 0, "is_reserved": 0, "type": "electric_scooter", "lon": -77.0015105, "fusion_lon": 0.0, "lat": 38.873843, "rental_uris": {"android": "https://dc.lft.to/lastmile_qr_scan", "ios": "https://dc.lft.to/lastmile_qr_scan"}, "fusion_lat": 0.0, "name": "cdd45336cf310a38b85c20905dc4ccde", "bike_id": "cdd45336cf310a38b85c20905dc4ccde"}, {"is_disabled": 0, "is_reserved": 0, "type": "electric_scooter", "lon": -77.03858466666667, "fusion_lon": 0.0, "lat": 38.918422666666665, "rental_uris": {"android": "https://dc.lft.to/lastmile_qr_scan", "ios": "https://dc.lft.to/lastmile_qr_scan"}, "fusion_lat": 0.0, "name": "b143bac5bbac238b3ed5d7df00d40bd2", "bike_id": "b143bac5bbac238b3ed5d7df00d40bd2"}, {"is_disabled": 0, "is_reserved": 0, "type": "electric_scooter", "lon": -76.99519566666666, "fusion_lon": 0.0, "lat": 38.894820333333335, "rental_uris": {"android": "https://dc.lft.to/lastmile_qr_scan", "ios": "https://dc.lft.to/lastmile_qr_scan"}, "fusion_lat": 0.0, "name": "7db8dd27447d455c1d8212194ec38bb1", "bike_id": "7db8dd27447d455c1d8212194ec38bb1"}, {"is_disabled": 0, "is_reserved": 0, "type": "electric_scooter", "lon": -77.03392866666667, "fusion_lon": 0.0, "lat": 38.919215666666666, "rental_uris": {"android": "https://dc.lft.to/lastmile_qr_scan", "ios": "https://dc.lft.to/lastmile_qr_scan"}, "fusion_lat": 0.0, "name": "30d02f901fe3c7db93a0d663b1c2e270", "bike_id": "30d02f901fe3c7db93a0d663b1c2e270"}, {"is_disabled": 0, "is_reserved": 0, "type": "electric_scooter", "lon": -77.00048183333334, "fusion_lon": 0.0, "lat": 38.9189655, "rental_uris": {"android": "https://dc.lft.to/lastmile_qr_scan", "ios": "https://dc.lft.to/lastmile_qr_scan"}, "fusion_lat": 0.0, "name": "74cd5bfe540dc49a42549d9e1a9d7ce5", "bike_id": "74cd5bfe540dc49a42549d9e1a9d7ce5"}, {"is_disabled": 0, "is_reserved": 0, "type": "electric_scooter", "lon": -77.00072516666667, "fusion_lon": 0.0, "lat": 38.876631833333334, "rental_uris": {"android": "https://dc.lft.to/lastmile_qr_scan", "ios": "https://dc.lft.to/lastmile_qr_scan"}, "fusion_lat": 0.0, "name": "a4cd79d587d7e5ae8d8ad0c0d239e5bf", "bike_id": "a4cd79d587d7e5ae8d8ad0c0d239e5bf"}, {"is_disabled": 0, "is_reserved": 0, "type": "electric_scooter", "lon": -77.031829, "fusion_lon": 0.0, "lat": 38.89884166666667, "rental_uris": {"android": "https://dc.lft.to/lastmile_qr_scan", "ios": "https://dc.lft.to/lastmile_qr_scan"}, "fusion_lat": 0.0, "name": "d554c0082ec15bca2d4a01bb47d0d865", "bike_id": "d554c0082ec15bca2d4a01bb47d0d865"}, {"is_disabled": 0, "is_reserved": 0, "type": "electric_scooter", "lon": -77.03493883333333, "fusion_lon": 0.0, "lat": 38.9234545, "rental_uris": {"android": "https://dc.lft.to/lastmile_qr_scan", "ios": "https://dc.lft.to/lastmile_qr_scan"}, "fusion_lat": 0.0, "name": "fbc8f3772d6b2bc0e811f3e40be3ad6a", "bike_id": "fbc8f3772d6b2bc0e811f3e40be3ad6a"}, {"is_disabled": 0, "is_reserved": 0, "type": "electric_scooter", "lon": -77.00728666666667, "fusion_lon": 0.0, "lat": 38.884934, "rental_uris": {"android": "https://dc.lft.to/lastmile_qr_scan", "ios": "https://dc.lft.to/lastmile_qr_scan"}, "fusion_lat": 0.0, "name": "a4baea59be8cd8182d1d087409e2e0ec", "bike_id": "a4baea59be8cd8182d1d087409e2e0ec"}, {"is_disabled": 0, "is_reserved": 0, "type": "electric_scooter", "lon": -77.04203583333333, "fusion_lon": 0.0, "lat": 38.923146833333334, "rental_uris": {"android": "https://dc.lft.to/lastmile_qr_scan", "ios": "https://dc.lft.to/lastmile_qr_scan"}, "fusion_lat": 0.0, "name": "ad0b356a4a18b6fbc0bf8a4e92e8ff28", "bike_id": "ad0b356a4a18b6fbc0bf8a4e92e8ff28"}, {"is_disabled": 0, "is_reserved": 0, "type": "electric_scooter", "lon": -77.05708216666666, "fusion_lon": 0.0, "lat": 38.910623666666666, "rental_uris": {"android": "https://dc.lft.to/lastmile_qr_scan", "ios": "https://dc.lft.to/lastmile_qr_scan"}, "fusion_lat": 0.0, "name": "6b017244f719e74fd6fd4b375d96ee67", "bike_id": "6b017244f719e74fd6fd4b375d96ee67"}, {"is_disabled": 0, "is_reserved": 0, "type": "electric_scooter", "lon": -77.0485225, "fusion_lon": 0.0, "lat": 38.90068333333333, "rental_uris": {"android": "https://dc.lft.to/lastmile_qr_scan", "ios": "https://dc.lft.to/lastmile_qr_scan"}, "fusion_lat": 0.0, "name": "0411e5ceb508ccb06a85c3b6ebcfe0fd", "bike_id": "0411e5ceb508ccb06a85c3b6ebcfe0fd"}, {"is_disabled": 0, "is_reserved": 0, "type": "electric_scooter", "lon": -77.02239533333334, "fusion_lon": 0.0, "lat": 38.905565, "rental_uris": {"android": "https://dc.lft.to/lastmile_qr_scan", "ios": "https://dc.lft.to/lastmile_qr_scan"}, "fusion_lat": 0.0, "name": "bbfe082844064b3339814079dee243bc", "bike_id": "bbfe082844064b3339814079dee243bc"}, {"is_disabled": 0, "is_reserved": 0, "type": "electric_scooter", "lon": -77.04776083333333, "fusion_lon": 0.0, "lat": 38.897722333333334, "rental_uris": {"android": "https://dc.lft.to/lastmile_qr_scan", "ios": "https://dc.lft.to/lastmile_qr_scan"}, "fusion_lat": 0.0, "name": "a50cfee54d87af353a7f3fcccd88a856", "bike_id": "a50cfee54d87af353a7f3fcccd88a856"}, {"is_disabled": 0, "is_reserved": 0, "type": "electric_scooter", "lon": -77.019453, "fusion_lon": 0.0, "lat": 38.9165125, "rental_uris": {"android": "https://dc.lft.to/lastmile_qr_scan", "ios": "https://dc.lft.to/lastmile_qr_scan"}, "fusion_lat": 0.0, "name": "b1a7289264feff0406504e77aa316138", "bike_id": "b1a7289264feff0406504e77aa316138"}, {"is_disabled": 0, "is_reserved": 0, "type": "electric_scooter", "lon": -77.02798533333333, "fusion_lon": 0.0, "lat": 38.91217016666667, "rental_uris": {"android": "https://dc.lft.to/lastmile_qr_scan", "ios": "https://dc.lft.to/lastmile_qr_scan"}, "fusion_lat": 0.0, "name": "eab0fa944f5f040926a4169362d3ee8b", "bike_id": "eab0fa944f5f040926a4169362d3ee8b"}, {"is_disabled": 0, "is_reserved": 0, "type": "electric_scooter", "lon": -77.05116733333334, "fusion_lon": 0.0, "lat": 38.9236295, "rental_uris": {"android": "https://dc.lft.to/lastmile_qr_scan", "ios": "https://dc.lft.to/lastmile_qr_scan"}, "fusion_lat": 0.0, "name": "9005209dc62124c05701d9ea3474242d", "bike_id": "9005209dc62124c05701d9ea3474242d"}, {"is_disabled": 0, "is_reserved": 0, "type": "electric_scooter", "lon": -77.05040766666667, "fusion_lon": 0.0, "lat": 38.92358766666667, "rental_uris": {"android": "https://dc.lft.to/lastmile_qr_scan", "ios": "https://dc.lft.to/lastmile_qr_scan"}, "fusion_lat": 0.0, "name": "baba1d55010a24179c01f2f86780022f", "bike_id": "baba1d55010a24179c01f2f86780022f"}, {"is_disabled": 0, "is_reserved": 0, "type": "electric_scooter", "lon": -77.03257616666667, "fusion_lon": 0.0, "lat": 38.91485383333333, "rental_uris": {"android": "https://dc.lft.to/lastmile_qr_scan", "ios": "https://dc.lft.to/lastmile_qr_scan"}, "fusion_lat": 0.0, "name": "42d7b1109d85ff131d7d81ed28191947", "bike_id": "42d7b1109d85ff131d7d81ed28191947"}, {"is_disabled": 0, "is_reserved": 0, "type": "electric_bike", "lon": -76.907525, "fusion_lon": 0.0, "lat": 38.92436766666667, "rental_uris": {"android": "https://dc.lft.to/lastmile_qr_scan", "ios": "https://dc.lft.to/lastmile_qr_scan"}, "fusion_lat": 0.0, "name": "f80b34dc866fa3fb704debb032e63cd2", "bike_id": "f80b34dc866fa3fb704debb032e63cd2"}, {"is_disabled": 0, "is_reserved": 0, "type": "electric_scooter", "lon": -77.0468875, "fusion_lon": 0.0, "lat": 38.91571733333333, "rental_uris": {"android": "https://dc.lft.to/lastmile_qr_scan", "ios": "https://dc.lft.to/lastmile_qr_scan"}, "fusion_lat": 0.0, "name": "17b809d4f8430f487a07994ee3915138", "bike_id": "17b809d4f8430f487a07994ee3915138"}, {"is_disabled": 0, "is_reserved": 0, "type": "electric_scooter", "lon": -77.03649416666667, "fusion_lon": 0.0, "lat": 38.91133883333333, "rental_uris": {"android": "https://dc.lft.to/lastmile_qr_scan", "ios": "https://dc.lft.to/lastmile_qr_scan"}, "fusion_lat": 0.0, "name": "6447ad44a2cdfa61307eb9af6f85b7eb", "bike_id": "6447ad44a2cdfa61307eb9af6f85b7eb"}, {"is_disabled": 0, "is_reserved": 0, "type": "electric_scooter", "lon": -77.0222195, "fusion_lon": 0.0, "lat": 38.93554133333333, "rental_uris": {"android": "https://dc.lft.to/lastmile_qr_scan", "ios": "https://dc.lft.to/lastmile_qr_scan"}, "fusion_lat": 0.0, "name": "9548cb85447e0b8c3211a4fae017cd34", "bike_id": "9548cb85447e0b8c3211a4fae017cd34"}, {"is_disabled": 0, "is_reserved": 0, "type": "electric_scooter", "lon": -77.03792483333334, "fusion_lon": 0.0, "lat": 38.91546566666667, "rental_uris": {"android": "https://dc.lft.to/lastmile_qr_scan", "ios": "https://dc.lft.to/lastmile_qr_scan"}, "fusion_lat": 0.0, "name": "f5cdd2d3f7809c57599e98f7eac57bb4", "bike_id": "f5cdd2d3f7809c57599e98f7eac57bb4"}, {"is_disabled": 0, "is_reserved": 0, "type": "electric_scooter", "lon": -77.00582316666667, "fusion_lon": 0.0, "lat": 38.871773166666664, "rental_uris": {"android": "https://dc.lft.to/lastmile_qr_scan", "ios": "https://dc.lft.to/lastmile_qr_scan"}, "fusion_lat": 0.0, "name": "61eae9e5bea21260fb789d9ca7b3f8d9", "bike_id": "61eae9e5bea21260fb789d9ca7b3f8d9"}, {"is_disabled": 0, "is_reserved": 0, "type": "electric_bike", "lon": -77.12625116666666, "fusion_lon": 0.0, "lat": 39.0581345, "rental_uris": {"android": "https://dc.lft.to/lastmile_qr_scan", "ios": "https://dc.lft.to/lastmile_qr_scan"}, "fusion_lat": 0.0, "name": "ff13ba23c80ac254a96facd5bbbaaa42", "bike_id": "ff13ba23c80ac254a96facd5bbbaaa42"}, {"is_disabled": 0, "is_reserved": 0, "type": "electric_scooter", "lon": -77.033469, "fusion_lon": 0.0, "lat": 38.922352333333336, "rental_uris": {"android": "https://dc.lft.to/lastmile_qr_scan", "ios": "https://dc.lft.to/lastmile_qr_scan"}, "fusion_lat": 0.0, "name": "8c96b3c91ff3a6a4810c2c18289685cd", "bike_id": "8c96b3c91ff3a6a4810c2c18289685cd"}, {"is_disabled": 0, "is_reserved": 0, "type": "electric_scooter", "lon": -77.0605525, "fusion_lon": 0.0, "lat": 38.905145166666664, "rental_uris": {"android": "https://dc.lft.to/lastmile_qr_scan", "ios": "https://dc.lft.to/lastmile_qr_scan"}, "fusion_lat": 0.0, "name": "c50387959e4b68ddb437f1d3a12d9dd0", "bike_id": "c50387959e4b68ddb437f1d3a12d9dd0"}, {"is_disabled": 0, "is_reserved": 0, "type": "electric_scooter", "lon": -77.03177483333333, "fusion_lon": 0.0, "lat": 38.91918066666667, "rental_uris": {"android": "https://dc.lft.to/lastmile_qr_scan", "ios": "https://dc.lft.to/lastmile_qr_scan"}, "fusion_lat": 0.0, "name": "26a79bd135bf98d6ce0fd7076ce8aab6", "bike_id": "26a79bd135bf98d6ce0fd7076ce8aab6"}, {"is_disabled": 0, "is_reserved": 0, "type": "electric_scooter", "lon": -77.02961116666667, "fusion_lon": 0.0, "lat": 38.8921415, "rental_uris": {"android": "https://dc.lft.to/lastmile_qr_scan", "ios": "https://dc.lft.to/lastmile_qr_scan"}, "fusion_lat": 0.0, "name": "c0d2a5ce2e7aa4b9a992460bc610f929", "bike_id": "c0d2a5ce2e7aa4b9a992460bc610f929"}, {"is_disabled": 0, "is_reserved": 0, "type": "electric_scooter", "lon": -76.99815483333333, "fusion_lon": 0.0, "lat": 38.8443685, "rental_uris": {"android": "https://dc.lft.to/lastmile_qr_scan", "ios": "https://dc.lft.to/lastmile_qr_scan"}, "fusion_lat": 0.0, "name": "e9f635b9a9dd3df42237f14a57aea57f", "bike_id": "e9f635b9a9dd3df42237f14a57aea57f"}, {"is_disabled": 0, "is_reserved": 0, "type": "electric_scooter", "lon": -77.0075435, "fusion_lon": 0.0, "lat": 38.91551533333333, "rental_uris": {"android": "https://dc.lft.to/lastmile_qr_scan", "ios": "https://dc.lft.to/lastmile_qr_scan"}, "fusion_lat": 0.0, "name": "d9f0366d1d8d392e44b710be06a05e42", "bike_id": "d9f0366d1d8d392e44b710be06a05e42"}, {"is_disabled": 0, "is_reserved": 0, "type": "electric_scooter", "lon": -77.02700666666667, "fusion_lon": 0.0, "lat": 38.88153033333333, "rental_uris": {"android": "https://dc.lft.to/lastmile_qr_scan", "ios": "https://dc.lft.to/lastmile_qr_scan"}, "fusion_lat": 0.0, "name": "5907ee3ef3aa3ebe8e45f7bf43f19b93", "bike_id": "5907ee3ef3aa3ebe8e45f7bf43f19b93"}, {"is_disabled": 0, "is_reserved": 0, "type": "electric_scooter", "lon": -77.02121333333334, "fusion_lon": 0.0, "lat": 38.887425666666665, "rental_uris": {"android": "https://dc.lft.to/lastmile_qr_scan", "ios": "https://dc.lft.to/lastmile_qr_scan"}, "fusion_lat": 0.0, "name": "091b2acc7245b8232a02a69421f82c80", "bike_id": "091b2acc7245b8232a02a69421f82c80"}, {"is_disabled": 0, "is_reserved": 0, "type": "electric_scooter", "lon": -77.04059183333334, "fusion_lon": 0.0, "lat": 38.925423, "rental_uris": {"android": "https://dc.lft.to/lastmile_qr_scan", "ios": "https://dc.lft.to/lastmile_qr_scan"}, "fusion_lat": 0.0, "name": "23e6ea8b672d96f5500af2efa1797ca9", "bike_id": "23e6ea8b672d96f5500af2efa1797ca9"}, {"is_disabled": 0, "is_reserved": 0, "type": "electric_bike", "lon": -77.08583083333333, "fusion_lon": 0.0, "lat": 38.87413933333333, "rental_uris": {"android": "https://dc.lft.to/lastmile_qr_scan", "ios": "https://dc.lft.to/lastmile_qr_scan"}, "fusion_lat": 0.0, "name": "98b64f0a27b404d9c837012955d1484b", "bike_id": "98b64f0a27b404d9c837012955d1484b"}, {"is_disabled": 0, "is_reserved": 0, "type": "electric_scooter", "lon": -77.02708733333333, "fusion_lon": 0.0, "lat": 38.928844, "rental_uris": {"android": "https://dc.lft.to/lastmile_qr_scan", "ios": "https://dc.lft.to/lastmile_qr_scan"}, "fusion_lat": 0.0, "name": "710fcc49ee0877ac0342f7433a85979c", "bike_id": "710fcc49ee0877ac0342f7433a85979c"}, {"is_disabled": 0, "is_reserved": 0, "type": "electric_bike", "lon": -77.1751645, "fusion_lon": 0.0, "lat": 39.09609966666667, "rental_uris": {"android": "https://dc.lft.to/lastmile_qr_scan", "ios": "https://dc.lft.to/lastmile_qr_scan"}, "fusion_lat": 0.0, "name": "67fc275b11d16ae5756b70c26199f44c", "bike_id": "67fc275b11d16ae5756b70c26199f44c"}, {"is_disabled": 0, "is_reserved": 0, "type": "electric_scooter", "lon": -76.98271433333333, "fusion_lon": 0.0, "lat": 38.9156015, "rental_uris": {"android": "https://dc.lft.to/lastmile_qr_scan", "ios": "https://dc.lft.to/lastmile_qr_scan"}, "fusion_lat": 0.0, "name": "5f812dfbb73252d84e6200d2edd02955", "bike_id": "5f812dfbb73252d84e6200d2edd02955"}, {"is_disabled": 0, "is_reserved": 0, "type": "electric_scooter", "lon": -77.05229, "fusion_lon": 0.0, "lat": 38.924602, "rental_uris": {"android": "https://dc.lft.to/lastmile_qr_scan", "ios": "https://dc.lft.to/lastmile_qr_scan"}, "fusion_lat": 0.0, "name": "ee798da7c1f6d8e959a41e88106c8a7b", "bike_id": "ee798da7c1f6d8e959a41e88106c8a7b"}, {"is_disabled": 0, "is_reserved": 0, "type": "electric_bike", "lon": -77.11209233333334, "fusion_lon": 0.0, "lat": 38.8121065, "rental_uris": {"android": "https://dc.lft.to/lastmile_qr_scan", "ios": "https://dc.lft.to/lastmile_qr_scan"}, "fusion_lat": 0.0, "name": "6370a2590b8f611c8028135f94d0c2af", "bike_id": "6370a2590b8f611c8028135f94d0c2af"}, {"is_disabled": 0, "is_reserved": 0, "type": "electric_scooter", "lon": -77.02156066666667, "fusion_lon": 0.0, "lat": 38.92607433333333, "rental_uris": {"android": "https://dc.lft.to/lastmile_qr_scan", "ios": "https://dc.lft.to/lastmile_qr_scan"}, "fusion_lat": 0.0, "name": "589df532fe0bbcc34b51ecec7ddb6ed4", "bike_id": "589df532fe0bbcc34b51ecec7ddb6ed4"}, {"is_disabled": 0, "is_reserved": 0, "type": "electric_bike", "lon": -76.95190766666667, "fusion_lon": 0.0, "lat": 38.906917, "rental_uris": {"android": "https://dc.lft.to/lastmile_qr_scan", "ios": "https://dc.lft.to/lastmile_qr_scan"}, "fusion_lat": 0.0, "name": "df35393895796c39b85ecdd6b7d3b88c", "bike_id": "df35393895796c39b85ecdd6b7d3b88c"}, {"is_disabled": 0, "is_reserved": 0, "type": "electric_scooter", "lon": -76.95016733333334, "fusion_lon": 0.0, "lat": 38.88391133333333, "rental_uris": {"android": "https://dc.lft.to/lastmile_qr_scan", "ios": "https://dc.lft.to/lastmile_qr_scan"}, "fusion_lat": 0.0, "name": "5a8d6c78beadde90f3df3d6d2823d0b9", "bike_id": "5a8d6c78beadde90f3df3d6d2823d0b9"}, {"is_disabled": 0, "is_reserved": 0, "type": "electric_scooter", "lon": -77.064087, "fusion_lon": 0.0, "lat": 38.943273833333336, "rental_uris": {"android": "https://dc.lft.to/lastmile_qr_scan", "ios": "https://dc.lft.to/lastmile_qr_scan"}, "fusion_lat": 0.0, "name": "0b645a7235c64bd970571b54939d4afd", "bike_id": "0b645a7235c64bd970571b54939d4afd"}, {"is_disabled": 0, "is_reserved": 0, "type": "electric_scooter", "lon": -77.014094, "fusion_lon": 0.0, "lat": 38.8766205, "rental_uris": {"android": "https://dc.lft.to/lastmile_qr_scan", "ios": "https://dc.lft.to/lastmile_qr_scan"}, "fusion_lat": 0.0, "name": "483e15ffd652a72f09beb6c2d2d02ab5", "bike_id": "483e15ffd652a72f09beb6c2d2d02ab5"}, {"is_disabled": 0, "is_reserved": 0, "type": "electric_scooter", "lon": -76.99620616666667, "fusion_lon": 0.0, "lat": 38.88614916666667, "rental_uris": {"android": "https://dc.lft.to/lastmile_qr_scan", "ios": "https://dc.lft.to/lastmile_qr_scan"}, "fusion_lat": 0.0, "name": "6454e2ee04052cea62830d59c501f9b9", "bike_id": "6454e2ee04052cea62830d59c501f9b9"}, {"is_disabled": 0, "is_reserved": 0, "type": "electric_scooter", "lon": -77.025931, "fusion_lon": 0.0, "lat": 38.9128005, "rental_uris": {"android": "https://dc.lft.to/lastmile_qr_scan", "ios": "https://dc.lft.to/lastmile_qr_scan"}, "fusion_lat": 0.0, "name": "34faa05a30c7d096c95bd3d014e55557", "bike_id": "34faa05a30c7d096c95bd3d014e55557"}, {"is_disabled": 0, "is_reserved": 0, "type": "electric_scooter", "lon": -76.99134566666666, "fusion_lon": 0.0, "lat": 38.8948595, "rental_uris": {"android": "https://dc.lft.to/lastmile_qr_scan", "ios": "https://dc.lft.to/lastmile_qr_scan"}, "fusion_lat": 0.0, "name": "f844a457625bb978d07453d4cf94ecee", "bike_id": "f844a457625bb978d07453d4cf94ecee"}, {"is_disabled": 0, "is_reserved": 0, "type": "electric_bike", "lon": -77.10181416666667, "fusion_lon": 0.0, "lat": 38.91808116666667, "rental_uris": {"android": "https://dc.lft.to/lastmile_qr_scan", "ios": "https://dc.lft.to/lastmile_qr_scan"}, "fusion_lat": 0.0, "name": "c1df0459818c7ee1ff9325549388377e", "bike_id": "c1df0459818c7ee1ff9325549388377e"}, {"is_disabled": 0, "is_reserved": 0, "type": "electric_scooter", "lon": -77.02833266666667, "fusion_lon": 0.0, "lat": 38.8873005, "rental_uris": {"android": "https://dc.lft.to/lastmile_qr_scan", "ios": "https://dc.lft.to/lastmile_qr_scan"}, "fusion_lat": 0.0, "name": "0a0c2d175421cd47c385c61052140c4f", "bike_id": "0a0c2d175421cd47c385c61052140c4f"}, {"is_disabled": 0, "is_reserved": 0, "type": "electric_scooter", "lon": -77.03485116666667, "fusion_lon": 0.0, "lat": 38.92153033333334, "rental_uris": {"android": "https://dc.lft.to/lastmile_qr_scan", "ios": "https://dc.lft.to/lastmile_qr_scan"}, "fusion_lat": 0.0, "name": "12b95af7dc6284ab24ae96f075882f16", "bike_id": "12b95af7dc6284ab24ae96f075882f16"}, {"is_disabled": 0, "is_reserved": 0, "type": "electric_scooter", "lon": -77.00414916666666, "fusion_lon": 0.0, "lat": 38.876793166666666, "rental_uris": {"android": "https://dc.lft.to/lastmile_qr_scan", "ios": "https://dc.lft.to/lastmile_qr_scan"}, "fusion_lat": 0.0, "name": "6d90203c164a04e4ca1671d6ba8abca9", "bike_id": "6d90203c164a04e4ca1671d6ba8abca9"}, {"is_disabled": 0, "is_reserved": 0, "type": "electric_scooter", "lon": -76.99791683333333, "fusion_lon": 0.0, "lat": 38.948313166666665, "rental_uris": {"android": "https://dc.lft.to/lastmile_qr_scan", "ios": "https://dc.lft.to/lastmile_qr_scan"}, "fusion_lat": 0.0, "name": "3d5cd6b9f0634d80dda77458c2b9537a", "bike_id": "3d5cd6b9f0634d80dda77458c2b9537a"}, {"is_disabled": 0, "is_reserved": 0, "type": "electric_scooter", "lon": -77.04666866666666, "fusion_lon": 0.0, "lat": 38.90744183333334, "rental_uris": {"android": "https://dc.lft.to/lastmile_qr_scan", "ios": "https://dc.lft.to/lastmile_qr_scan"}, "fusion_lat": 0.0, "name": "d2825191189898f9458a02ed46579666", "bike_id": "d2825191189898f9458a02ed46579666"}, {"is_disabled": 0, "is_reserved": 0, "type": "electric_scooter", "lon": -77.0353695, "fusion_lon": 0.0, "lat": 38.925161, "rental_uris": {"android": "https://dc.lft.to/lastmile_qr_scan", "ios": "https://dc.lft.to/lastmile_qr_scan"}, "fusion_lat": 0.0, "name": "edcfb057586710e1d79a43006dd445f5", "bike_id": "edcfb057586710e1d79a43006dd445f5"}, {"is_disabled": 0, "is_reserved": 0, "type": "electric_scooter", "lon": -77.06133366666667, "fusion_lon": 0.0, "lat": 38.943578333333335, "rental_uris": {"android": "https://dc.lft.to/lastmile_qr_scan", "ios": "https://dc.lft.to/lastmile_qr_scan"}, "fusion_lat": 0.0, "name": "7e795ed45248c61950b344b4dd35a833", "bike_id": "7e795ed45248c61950b344b4dd35a833"}, {"is_disabled": 0, "is_reserved": 0, "type": "electric_scooter", "lon": -77.0178385, "fusion_lon": 0.0, "lat": 38.902470666666666, "rental_uris": {"android": "https://dc.lft.to/lastmile_qr_scan", "ios": "https://dc.lft.to/lastmile_qr_scan"}, "fusion_lat": 0.0, "name": "53437d1ea3f7fd575ec464f1bee54018", "bike_id": "53437d1ea3f7fd575ec464f1bee54018"}, {"is_disabled": 0, "is_reserved": 0, "type": "electric_scooter", "lon": -77.03446033333333, "fusion_lon": 0.0, "lat": 38.934351666666664, "rental_uris": {"android": "https://dc.lft.to/lastmile_qr_scan", "ios": "https://dc.lft.to/lastmile_qr_scan"}, "fusion_lat": 0.0, "name": "1fc14cff582b84639f3e2108f55b5091", "bike_id": "1fc14cff582b84639f3e2108f55b5091"}, {"is_disabled": 0, "is_reserved": 0, "type": "electric_scooter", "lon": -77.004949, "fusion_lon": 0.0, "lat": 38.895723, "rental_uris": {"android": "https://dc.lft.to/lastmile_qr_scan", "ios": "https://dc.lft.to/lastmile_qr_scan"}, "fusion_lat": 0.0, "name": "8f38c90f0ff986a4dd3fb6ede84773f5", "bike_id": "8f38c90f0ff986a4dd3fb6ede84773f5"}, {"is_disabled": 0, "is_reserved": 0, "type": "electric_scooter", "lon": -77.03726716666667, "fusion_lon": 0.0, "lat": 38.91707366666667, "rental_uris": {"android": "https://dc.lft.to/lastmile_qr_scan", "ios": "https://dc.lft.to/lastmile_qr_scan"}, "fusion_lat": 0.0, "name": "7a7792715a0eacfbd70aca45bb0d91ac", "bike_id": "7a7792715a0eacfbd70aca45bb0d91ac"}, {"is_disabled": 0, "is_reserved": 0, "type": "electric_scooter", "lon": -77.021423, "fusion_lon": 0.0, "lat": 38.89608833333333, "rental_uris": {"android": "https://dc.lft.to/lastmile_qr_scan", "ios": "https://dc.lft.to/lastmile_qr_scan"}, "fusion_lat": 0.0, "name": "bc86f338a9bdac3dccb4e3562b3b9a95", "bike_id": "bc86f338a9bdac3dccb4e3562b3b9a95"}, {"is_disabled": 0, "is_reserved": 0, "type": "electric_bike", "lon": -76.90538116666667, "fusion_lon": 0.0, "lat": 38.897362333333334, "rental_uris": {"android": "https://dc.lft.to/lastmile_qr_scan", "ios": "https://dc.lft.to/lastmile_qr_scan"}, "fusion_lat": 0.0, "name": "ed1a4324e9c95183a3bad5dd8e892b9c", "bike_id": "ed1a4324e9c95183a3bad5dd8e892b9c"}, {"is_disabled": 0, "is_reserved": 0, "type": "electric_scooter", "lon": -77.04108083333334, "fusion_lon": 0.0, "lat": 38.9169665, "rental_uris": {"android": "https://dc.lft.to/lastmile_qr_scan", "ios": "https://dc.lft.to/lastmile_qr_scan"}, "fusion_lat": 0.0, "name": "739a05971b08fc5ccb829662bfce1937", "bike_id": "739a05971b08fc5ccb829662bfce1937"}, {"is_disabled": 0, "is_reserved": 0, "type": "electric_scooter", "lon": -77.03851566666667, "fusion_lon": 0.0, "lat": 38.916383833333335, "rental_uris": {"android": "https://dc.lft.to/lastmile_qr_scan", "ios": "https://dc.lft.to/lastmile_qr_scan"}, "fusion_lat": 0.0, "name": "4dde6f9f978090f825367f6c021bf191", "bike_id": "4dde6f9f978090f825367f6c021bf191"}, {"is_disabled": 0, "is_reserved": 0, "type": "electric_scooter", "lon": -77.0602145, "fusion_lon": 0.0, "lat": 38.902719166666664, "rental_uris": {"android": "https://dc.lft.to/lastmile_qr_scan", "ios": "https://dc.lft.to/lastmile_qr_scan"}, "fusion_lat": 0.0, "name": "10dacb5638f7535ea7deaa169e78588d", "bike_id": "10dacb5638f7535ea7deaa169e78588d"}, {"is_disabled": 0, "is_reserved": 0, "type": "electric_scooter", "lon": -77.03858883333334, "fusion_lon": 0.0, "lat": 38.909792, "rental_uris": {"android": "https://dc.lft.to/lastmile_qr_scan", "ios": "https://dc.lft.to/lastmile_qr_scan"}, "fusion_lat": 0.0, "name": "0b883cd6eb3cc99c664590143945563a", "bike_id": "0b883cd6eb3cc99c664590143945563a"}, {"is_disabled": 0, "is_reserved": 0, "type": "electric_scooter", "lon": -77.04256866666667, "fusion_lon": 0.0, "lat": 38.91406, "rental_uris": {"android": "https://dc.lft.to/lastmile_qr_scan", "ios": "https://dc.lft.to/lastmile_qr_scan"}, "fusion_lat": 0.0, "name": "c2c66c49c72947e40ce6435b1d5975f7", "bike_id": "c2c66c49c72947e40ce6435b1d5975f7"}, {"is_disabled": 0, "is_reserved": 0, "type": "electric_scooter", "lon": -77.01375266666666, "fusion_lon": 0.0, "lat": 38.892200333333335, "rental_uris": {"android": "https://dc.lft.to/lastmile_qr_scan", "ios": "https://dc.lft.to/lastmile_qr_scan"}, "fusion_lat": 0.0, "name": "77982f869b000ff21f882067933dd214", "bike_id": "77982f869b000ff21f882067933dd214"}, {"is_disabled": 0, "is_reserved": 0, "type": "electric_bike", "lon": -77.05767566666667, "fusion_lon": 0.0, "lat": 38.92492716666667, "rental_uris": {"android": "https://dc.lft.to/lastmile_qr_scan", "ios": "https://dc.lft.to/lastmile_qr_scan"}, "fusion_lat": 0.0, "name": "b76fc6a42bcd1f7db7230042952c0d8a", "bike_id": "b76fc6a42bcd1f7db7230042952c0d8a"}, {"is_disabled": 0, "is_reserved": 0, "type": "electric_scooter", "lon": -77.0667865, "fusion_lon": 0.0, "lat": 38.949971166666664, "rental_uris": {"android": "https://dc.lft.to/lastmile_qr_scan", "ios": "https://dc.lft.to/lastmile_qr_scan"}, "fusion_lat": 0.0, "name": "c2110044ab4e2f6ca5bc43a76ba0f17b", "bike_id": "c2110044ab4e2f6ca5bc43a76ba0f17b"}, {"is_disabled": 0, "is_reserved": 0, "type": "electric_scooter", "lon": -77.01357283333333, "fusion_lon": 0.0, "lat": 38.886497, "rental_uris": {"android": "https://dc.lft.to/lastmile_qr_scan", "ios": "https://dc.lft.to/lastmile_qr_scan"}, "fusion_lat": 0.0, "name": "6b3b95db95383cb7e31ed7aa8f6dddb9", "bike_id": "6b3b95db95383cb7e31ed7aa8f6dddb9"}, {"is_disabled": 0, "is_reserved": 0, "type": "electric_scooter", "lon": -77.044265, "fusion_lon": 0.0, "lat": 38.91261133333333, "rental_uris": {"android": "https://dc.lft.to/lastmile_qr_scan", "ios": "https://dc.lft.to/lastmile_qr_scan"}, "fusion_lat": 0.0, "name": "8120dad020c38cf8894abd8dd1ae4a35", "bike_id": "8120dad020c38cf8894abd8dd1ae4a35"}, {"is_disabled": 0, "is_reserved": 0, "type": "electric_scooter", "lon": -77.01365333333334, "fusion_lon": 0.0, "lat": 38.92883033333333, "rental_uris": {"android": "https://dc.lft.to/lastmile_qr_scan", "ios": "https://dc.lft.to/lastmile_qr_scan"}, "fusion_lat": 0.0, "name": "2be8e32ef783334c816b04f07574b7da", "bike_id": "2be8e32ef783334c816b04f07574b7da"}, {"is_disabled": 0, "is_reserved": 0, "type": "electric_scooter", "lon": -77.03441466666666, "fusion_lon": 0.0, "lat": 38.909752166666664, "rental_uris": {"android": "https://dc.lft.to/lastmile_qr_scan", "ios": "https://dc.lft.to/lastmile_qr_scan"}, "fusion_lat": 0.0, "name": "22ddc49ea4b9ab837aedb32e56351b71", "bike_id": "22ddc49ea4b9ab837aedb32e56351b71"}, {"is_disabled": 0, "is_reserved": 0, "type": "electric_scooter", "lon": -77.03420383333334, "fusion_lon": 0.0, "lat": 38.919253, "rental_uris": {"android": "https://dc.lft.to/lastmile_qr_scan", "ios": "https://dc.lft.to/lastmile_qr_scan"}, "fusion_lat": 0.0, "name": "5b8403a04c1b675a1af1ba844152126e", "bike_id": "5b8403a04c1b675a1af1ba844152126e"}, {"is_disabled": 0, "is_reserved": 0, "type": "electric_scooter", "lon": -77.063504, "fusion_lon": 0.0, "lat": 38.94441483333333, "rental_uris": {"android": "https://dc.lft.to/lastmile_qr_scan", "ios": "https://dc.lft.to/lastmile_qr_scan"}, "fusion_lat": 0.0, "name": "cac44e1ba9046f6e8147ed8833c26966", "bike_id": "cac44e1ba9046f6e8147ed8833c26966"}, {"is_disabled": 0, "is_reserved": 0, "type": "electric_scooter", "lon": -77.04174266666666, "fusion_lon": 0.0, "lat": 38.90149066666667, "rental_uris": {"android": "https://dc.lft.to/lastmile_qr_scan", "ios": "https://dc.lft.to/lastmile_qr_scan"}, "fusion_lat": 0.0, "name": "82545de30110785b8870c86a2042ec11", "bike_id": "82545de30110785b8870c86a2042ec11"}, {"is_disabled": 0, "is_reserved": 0, "type": "electric_scooter", "lon": -76.99368266666667, "fusion_lon": 0.0, "lat": 38.92397066666667, "rental_uris": {"android": "https://dc.lft.to/lastmile_qr_scan", "ios": "https://dc.lft.to/lastmile_qr_scan"}, "fusion_lat": 0.0, "name": "f0fb84824babd0c3ca97ee3a0e8f0d12", "bike_id": "f0fb84824babd0c3ca97ee3a0e8f0d12"}, {"is_disabled": 0, "is_reserved": 0, "type": "electric_scooter", "lon": -77.02544383333333, "fusion_lon": 0.0, "lat": 38.90087783333333, "rental_uris": {"android": "https://dc.lft.to/lastmile_qr_scan", "ios": "https://dc.lft.to/lastmile_qr_scan"}, "fusion_lat": 0.0, "name": "12cd3d0f753af9633aefa852525dff45", "bike_id": "12cd3d0f753af9633aefa852525dff45"}, {"is_disabled": 0, "is_reserved": 0, "type": "electric_scooter", "lon": -77.029581, "fusion_lon": 0.0, "lat": 38.898817333333334, "rental_uris": {"android": "https://dc.lft.to/lastmile_qr_scan", "ios": "https://dc.lft.to/lastmile_qr_scan"}, "fusion_lat": 0.0, "name": "d3ca5d7b36d108fa3c280b602c37d8fc", "bike_id": "d3ca5d7b36d108fa3c280b602c37d8fc"}, {"is_disabled": 0, "is_reserved": 0, "type": "electric_scooter", "lon": -76.98559166666666, "fusion_lon": 0.0, "lat": 38.85593033333333, "rental_uris": {"android": "https://dc.lft.to/lastmile_qr_scan", "ios": "https://dc.lft.to/lastmile_qr_scan"}, "fusion_lat": 0.0, "name": "142c9748ca8ac4233273e525ed555c61", "bike_id": "142c9748ca8ac4233273e525ed555c61"}, {"is_disabled": 0, "is_reserved": 0, "type": "electric_scooter", "lon": -77.007417, "fusion_lon": 0.0, "lat": 38.911874166666664, "rental_uris": {"android": "https://dc.lft.to/lastmile_qr_scan", "ios": "https://dc.lft.to/lastmile_qr_scan"}, "fusion_lat": 0.0, "name": "5febee40ea47553ef1b39fc64a1368bf", "bike_id": "5febee40ea47553ef1b39fc64a1368bf"}, {"is_disabled": 0, "is_reserved": 0, "type": "electric_scooter", "lon": -77.021769, "fusion_lon": 0.0, "lat": 38.89712816666667, "rental_uris": {"android": "https://dc.lft.to/lastmile_qr_scan", "ios": "https://dc.lft.to/lastmile_qr_scan"}, "fusion_lat": 0.0, "name": "fedc5ced1fc872dda4e7b29f1dabd9c5", "bike_id": "fedc5ced1fc872dda4e7b29f1dabd9c5"}, {"is_disabled": 0, "is_reserved": 0, "type": "electric_scooter", "lon": -77.041923, "fusion_lon": 0.0, "lat": 38.91661833333333, "rental_uris": {"android": "https://dc.lft.to/lastmile_qr_scan", "ios": "https://dc.lft.to/lastmile_qr_scan"}, "fusion_lat": 0.0, "name": "cc021d467a9b9b83dedabca30b79d346", "bike_id": "cc021d467a9b9b83dedabca30b79d346"}, {"is_disabled": 0, "is_reserved": 0, "type": "electric_scooter", "lon": -77.03188083333333, "fusion_lon": 0.0, "lat": 38.9084295, "rental_uris": {"android": "https://dc.lft.to/lastmile_qr_scan", "ios": "https://dc.lft.to/lastmile_qr_scan"}, "fusion_lat": 0.0, "name": "656eca7bce06b58fdb6c130246f98f67", "bike_id": "656eca7bce06b58fdb6c130246f98f67"}, {"is_disabled": 0, "is_reserved": 0, "type": "electric_scooter", "lon": -77.029315, "fusion_lon": 0.0, "lat": 38.882194, "rental_uris": {"android": "https://dc.lft.to/lastmile_qr_scan", "ios": "https://dc.lft.to/lastmile_qr_scan"}, "fusion_lat": 0.0, "name": "0fe858c2e94cc2a830cc144eb93d5ff4", "bike_id": "0fe858c2e94cc2a830cc144eb93d5ff4"}, {"is_disabled": 0, "is_reserved": 0, "type": "electric_bike", "lon": -77.00868666666666, "fusion_lon": 0.0, "lat": 38.827337, "rental_uris": {"android": "https://dc.lft.to/lastmile_qr_scan", "ios": "https://dc.lft.to/lastmile_qr_scan"}, "fusion_lat": 0.0, "name": "1342c167906b1cf286307f08af52ec31", "bike_id": "1342c167906b1cf286307f08af52ec31"}, {"is_disabled": 0, "is_reserved": 0, "type": "electric_scooter", "lon": -77.03838183333333, "fusion_lon": 0.0, "lat": 38.911767, "rental_uris": {"android": "https://dc.lft.to/lastmile_qr_scan", "ios": "https://dc.lft.to/lastmile_qr_scan"}, "fusion_lat": 0.0, "name": "2c445b4c64c7168b02b2621ea2fc3056", "bike_id": "2c445b4c64c7168b02b2621ea2fc3056"}, {"is_disabled": 0, "is_reserved": 0, "type": "electric_scooter", "lon": -77.02564533333333, "fusion_lon": 0.0, "lat": 38.884675, "rental_uris": {"android": "https://dc.lft.to/lastmile_qr_scan", "ios": "https://dc.lft.to/lastmile_qr_scan"}, "fusion_lat": 0.0, "name": "4824c500e3777ae17437e48ea418cb45", "bike_id": "4824c500e3777ae17437e48ea418cb45"}, {"is_disabled": 0, "is_reserved": 0, "type": "electric_scooter", "lon": -77.0532975, "fusion_lon": 0.0, "lat": 38.92314983333333, "rental_uris": {"android": "https://dc.lft.to/lastmile_qr_scan", "ios": "https://dc.lft.to/lastmile_qr_scan"}, "fusion_lat": 0.0, "name": "0e13df916be6a22ee4caa8259b6c2a99", "bike_id": "0e13df916be6a22ee4caa8259b6c2a99"}, {"is_disabled": 0, "is_reserved": 0, "type": "electric_scooter", "lon": -77.00552783333333, "fusion_lon": 0.0, "lat": 38.87649033333334, "rental_uris": {"android": "https://dc.lft.to/lastmile_qr_scan", "ios": "https://dc.lft.to/lastmile_qr_scan"}, "fusion_lat": 0.0, "name": "70a10d448aacb0a7b60abc09b3c5cd75", "bike_id": "70a10d448aacb0a7b60abc09b3c5cd75"}, {"is_disabled": 0, "is_reserved": 0, "type": "electric_scooter", "lon": -77.04154483333333, "fusion_lon": 0.0, "lat": 38.898529833333335, "rental_uris": {"android": "https://dc.lft.to/lastmile_qr_scan", "ios": "https://dc.lft.to/lastmile_qr_scan"}, "fusion_lat": 0.0, "name": "432ee9a48fe60f9cd79d4105fdb1f5f5", "bike_id": "432ee9a48fe60f9cd79d4105fdb1f5f5"}, {"is_disabled": 0, "is_reserved": 0, "type": "electric_scooter", "lon": -77.00929516666666, "fusion_lon": 0.0, "lat": 38.87195533333333, "rental_uris": {"android": "https://dc.lft.to/lastmile_qr_scan", "ios": "https://dc.lft.to/lastmile_qr_scan"}, "fusion_lat": 0.0, "name": "12a62d1c44e7e10887ce4448f319914a", "bike_id": "12a62d1c44e7e10887ce4448f319914a"}, {"is_disabled": 0, "is_reserved": 0, "type": "electric_scooter", "lon": -76.99518783333333, "fusion_lon": 0.0, "lat": 38.8837225, "rental_uris": {"android": "https://dc.lft.to/lastmile_qr_scan", "ios": "https://dc.lft.to/lastmile_qr_scan"}, "fusion_lat": 0.0, "name": "f38225c76e50de3a97b289a5c4625986", "bike_id": "f38225c76e50de3a97b289a5c4625986"}, {"is_disabled": 0, "is_reserved": 0, "type": "electric_scooter", "lon": -77.03215933333334, "fusion_lon": 0.0, "lat": 38.9258475, "rental_uris": {"android": "https://dc.lft.to/lastmile_qr_scan", "ios": "https://dc.lft.to/lastmile_qr_scan"}, "fusion_lat": 0.0, "name": "bec619e67097e0103edd394e833c43d6", "bike_id": "bec619e67097e0103edd394e833c43d6"}, {"is_disabled": 0, "is_reserved": 0, "type": "electric_scooter", "lon": -77.0437765, "fusion_lon": 0.0, "lat": 38.9257375, "rental_uris": {"android": "https://dc.lft.to/lastmile_qr_scan", "ios": "https://dc.lft.to/lastmile_qr_scan"}, "fusion_lat": 0.0, "name": "23fc8030cc6074b7de00837d2f274453", "bike_id": "23fc8030cc6074b7de00837d2f274453"}, {"is_disabled": 0, "is_reserved": 0, "type": "electric_scooter", "lon": -77.063507, "fusion_lon": 0.0, "lat": 38.94439916666666, "rental_uris": {"android": "https://dc.lft.to/lastmile_qr_scan", "ios": "https://dc.lft.to/lastmile_qr_scan"}, "fusion_lat": 0.0, "name": "84ab08eb2753bfe6d417c641918f3055", "bike_id": "84ab08eb2753bfe6d417c641918f3055"}, {"is_disabled": 0, "is_reserved": 0, "type": "electric_bike", "lon": -77.1143065, "fusion_lon": 0.0, "lat": 38.852477, "rental_uris": {"android": "https://dc.lft.to/lastmile_qr_scan", "ios": "https://dc.lft.to/lastmile_qr_scan"}, "fusion_lat": 0.0, "name": "dfec76e83ed81bcfa182a7d7b66982c6", "bike_id": "dfec76e83ed81bcfa182a7d7b66982c6"}, {"is_disabled": 0, "is_reserved": 0, "type": "electric_scooter", "lon": -77.01684, "fusion_lon": 0.0, "lat": 38.881290666666665, "rental_uris": {"android": "https://dc.lft.to/lastmile_qr_scan", "ios": "https://dc.lft.to/lastmile_qr_scan"}, "fusion_lat": 0.0, "name": "cf3a40f3f0732dfd39ed6af0e743f5ce", "bike_id": "cf3a40f3f0732dfd39ed6af0e743f5ce"}, {"is_disabled": 0, "is_reserved": 0, "type": "electric_scooter", "lon": -77.02196866666667, "fusion_lon": 0.0, "lat": 38.92232933333333, "rental_uris": {"android": "https://dc.lft.to/lastmile_qr_scan", "ios": "https://dc.lft.to/lastmile_qr_scan"}, "fusion_lat": 0.0, "name": "337bca5d676e8dfdda4ee7cfa037268b", "bike_id": "337bca5d676e8dfdda4ee7cfa037268b"}, {"is_disabled": 0, "is_reserved": 0, "type": "electric_scooter", "lon": -77.0188805, "fusion_lon": 0.0, "lat": 38.9463875, "rental_uris": {"android": "https://dc.lft.to/lastmile_qr_scan", "ios": "https://dc.lft.to/lastmile_qr_scan"}, "fusion_lat": 0.0, "name": "fd118e7a9b8cfe4dfba53fcf2d552bf1", "bike_id": "fd118e7a9b8cfe4dfba53fcf2d552bf1"}, {"is_disabled": 0, "is_reserved": 0, "type": "electric_scooter", "lon": -77.00713266666666, "fusion_lon": 0.0, "lat": 38.8768785, "rental_uris": {"android": "https://dc.lft.to/lastmile_qr_scan", "ios": "https://dc.lft.to/lastmile_qr_scan"}, "fusion_lat": 0.0, "name": "80def33259d2298f11c4c14f47aa2c16", "bike_id": "80def33259d2298f11c4c14f47aa2c16"}, {"is_disabled": 0, "is_reserved": 0, "type": "electric_scooter", "lon": -77.04607516666667, "fusion_lon": 0.0, "lat": 38.905842, "rental_uris": {"android": "https://dc.lft.to/lastmile_qr_scan", "ios": "https://dc.lft.to/lastmile_qr_scan"}, "fusion_lat": 0.0, "name": "4da508df01500a13a07837c021b9232b", "bike_id": "4da508df01500a13a07837c021b9232b"}, {"is_disabled": 0, "is_reserved": 0, "type": "electric_scooter", "lon": -76.989481, "fusion_lon": 0.0, "lat": 38.84402216666667, "rental_uris": {"android": "https://dc.lft.to/lastmile_qr_scan", "ios": "https://dc.lft.to/lastmile_qr_scan"}, "fusion_lat": 0.0, "name": "a9948f9d1b33338ab2d25b4879046800", "bike_id": "a9948f9d1b33338ab2d25b4879046800"}, {"is_disabled": 0, "is_reserved": 0, "type": "electric_scooter", "lon": -77.009217, "fusion_lon": 0.0, "lat": 38.898332833333335, "rental_uris": {"android": "https://dc.lft.to/lastmile_qr_scan", "ios": "https://dc.lft.to/lastmile_qr_scan"}, "fusion_lat": 0.0, "name": "01c37da3893480616ca13d46afb6f801", "bike_id": "01c37da3893480616ca13d46afb6f801"}, {"is_disabled": 0, "is_reserved": 0, "type": "electric_scooter", "lon": -77.02382116666666, "fusion_lon": 0.0, "lat": 38.920687, "rental_uris": {"android": "https://dc.lft.to/lastmile_qr_scan", "ios": "https://dc.lft.to/lastmile_qr_scan"}, "fusion_lat": 0.0, "name": "581d214abb2bc7e6973a89cf1fd5dd46", "bike_id": "581d214abb2bc7e6973a89cf1fd5dd46"}, {"is_disabled": 0, "is_reserved": 0, "type": "electric_scooter", "lon": -76.982566, "fusion_lon": 0.0, "lat": 38.863557, "rental_uris": {"android": "https://dc.lft.to/lastmile_qr_scan", "ios": "https://dc.lft.to/lastmile_qr_scan"}, "fusion_lat": 0.0, "name": "367df00a8023a3c3d0266f2df7159a82", "bike_id": "367df00a8023a3c3d0266f2df7159a82"}, {"is_disabled": 0, "is_reserved": 0, "type": "electric_scooter", "lon": -77.027103, "fusion_lon": 0.0, "lat": 38.904764, "rental_uris": {"android": "https://dc.lft.to/lastmile_qr_scan", "ios": "https://dc.lft.to/lastmile_qr_scan"}, "fusion_lat": 0.0, "name": "6e1c03dcf0fc8763b9430f22c5288638", "bike_id": "6e1c03dcf0fc8763b9430f22c5288638"}, {"is_disabled": 0, "is_reserved": 0, "type": "electric_scooter", "lon": -77.0385395, "fusion_lon": 0.0, "lat": 38.9183685, "rental_uris": {"android": "https://dc.lft.to/lastmile_qr_scan", "ios": "https://dc.lft.to/lastmile_qr_scan"}, "fusion_lat": 0.0, "name": "e8d341120d836eb10d7c60a16837f93e", "bike_id": "e8d341120d836eb10d7c60a16837f93e"}, {"is_disabled": 0, "is_reserved": 0, "type": "electric_scooter", "lon": -77.10031316666667, "fusion_lon": 0.0, "lat": 38.949299333333336, "rental_uris": {"android": "https://dc.lft.to/lastmile_qr_scan", "ios": "https://dc.lft.to/lastmile_qr_scan"}, "fusion_lat": 0.0, "name": "7b789fa4b226a3235f4c4a5fd0a67daa", "bike_id": "7b789fa4b226a3235f4c4a5fd0a67daa"}, {"is_disabled": 0, "is_reserved": 0, "type": "electric_scooter", "lon": -76.991521, "fusion_lon": 0.0, "lat": 38.89774666666667, "rental_uris": {"android": "https://dc.lft.to/lastmile_qr_scan", "ios": "https://dc.lft.to/lastmile_qr_scan"}, "fusion_lat": 0.0, "name": "29f3d0686535c034c0df91a1bc376d52", "bike_id": "29f3d0686535c034c0df91a1bc376d52"}, {"is_disabled": 0, "is_reserved": 0, "type": "electric_scooter", "lon": -77.04605283333333, "fusion_lon": 0.0, "lat": 38.9147635, "rental_uris": {"android": "https://dc.lft.to/lastmile_qr_scan", "ios": "https://dc.lft.to/lastmile_qr_scan"}, "fusion_lat": 0.0, "name": "ff5e15c041b999c9954b839e974bebb1", "bike_id": "ff5e15c041b999c9954b839e974bebb1"}, {"is_disabled": 0, "is_reserved": 0, "type": "electric_scooter", "lon": -77.01603333333334, "fusion_lon": 0.0, "lat": 38.91760033333333, "rental_uris": {"android": "https://dc.lft.to/lastmile_qr_scan", "ios": "https://dc.lft.to/lastmile_qr_scan"}, "fusion_lat": 0.0, "name": "a3a0989c36852177bc9747dbe8709234", "bike_id": "a3a0989c36852177bc9747dbe8709234"}, {"is_disabled": 0, "is_reserved": 0, "type": "electric_scooter", "lon": -77.04158316666667, "fusion_lon": 0.0, "lat": 38.90850416666667, "rental_uris": {"android": "https://dc.lft.to/lastmile_qr_scan", "ios": "https://dc.lft.to/lastmile_qr_scan"}, "fusion_lat": 0.0, "name": "fc667653a8aac0f554f641f27428ae44", "bike_id": "fc667653a8aac0f554f641f27428ae44"}, {"is_disabled": 0, "is_reserved": 0, "type": "electric_scooter", "lon": -76.990293, "fusion_lon": 0.0, "lat": 38.928707333333335, "rental_uris": {"android": "https://dc.lft.to/lastmile_qr_scan", "ios": "https://dc.lft.to/lastmile_qr_scan"}, "fusion_lat": 0.0, "name": "8e6604771e7eaad975b573a5152fc1ef", "bike_id": "8e6604771e7eaad975b573a5152fc1ef"}, {"is_disabled": 0, "is_reserved": 0, "type": "electric_scooter", "lon": -77.00364266666666, "fusion_lon": 0.0, "lat": 38.876339333333334, "rental_uris": {"android": "https://dc.lft.to/lastmile_qr_scan", "ios": "https://dc.lft.to/lastmile_qr_scan"}, "fusion_lat": 0.0, "name": "3069e81938a8c070140825b105f136ad", "bike_id": "3069e81938a8c070140825b105f136ad"}, {"is_disabled": 0, "is_reserved": 0, "type": "electric_scooter", "lon": -77.03212433333333, "fusion_lon": 0.0, "lat": 38.936129333333334, "rental_uris": {"android": "https://dc.lft.to/lastmile_qr_scan", "ios": "https://dc.lft.to/lastmile_qr_scan"}, "fusion_lat": 0.0, "name": "0eddec183a4a9cb5fd28864985420eea", "bike_id": "0eddec183a4a9cb5fd28864985420eea"}, {"is_disabled": 0, "is_reserved": 0, "type": "electric_scooter", "lon": -77.044799, "fusion_lon": 0.0, "lat": 38.924237166666664, "rental_uris": {"android": "https://dc.lft.to/lastmile_qr_scan", "ios": "https://dc.lft.to/lastmile_qr_scan"}, "fusion_lat": 0.0, "name": "6dd0b0a2e112c2ad2c171a0bc1bfe288", "bike_id": "6dd0b0a2e112c2ad2c171a0bc1bfe288"}, {"is_disabled": 0, "is_reserved": 0, "type": "electric_scooter", "lon": -77.0216505, "fusion_lon": 0.0, "lat": 38.89459466666667, "rental_uris": {"android": "https://dc.lft.to/lastmile_qr_scan", "ios": "https://dc.lft.to/lastmile_qr_scan"}, "fusion_lat": 0.0, "name": "2b61b1647379b45d162bbb66b7557c48", "bike_id": "2b61b1647379b45d162bbb66b7557c48"}, {"is_disabled": 0, "is_reserved": 0, "type": "electric_bike", "lon": -77.00056266666667, "fusion_lon": 0.0, "lat": 38.876119833333334, "rental_uris": {"android": "https://dc.lft.to/lastmile_qr_scan", "ios": "https://dc.lft.to/lastmile_qr_scan"}, "fusion_lat": 0.0, "name": "548e38eaf8d362005c6578bc43083f0f", "bike_id": "548e38eaf8d362005c6578bc43083f0f"}, {"is_disabled": 0, "is_reserved": 0, "type": "electric_scooter", "lon": -77.07115566666667, "fusion_lon": 0.0, "lat": 38.9196825, "rental_uris": {"android": "https://dc.lft.to/lastmile_qr_scan", "ios": "https://dc.lft.to/lastmile_qr_scan"}, "fusion_lat": 0.0, "name": "676735adb30c15808e7ce9f9ea9d7960", "bike_id": "676735adb30c15808e7ce9f9ea9d7960"}, {"is_disabled": 0, "is_reserved": 0, "type": "electric_scooter", "lon": -77.02210483333333, "fusion_lon": 0.0, "lat": 38.88739966666667, "rental_uris": {"android": "https://dc.lft.to/lastmile_qr_scan", "ios": "https://dc.lft.to/lastmile_qr_scan"}, "fusion_lat": 0.0, "name": "29492112d6e497fca6a22f9fcdf97160", "bike_id": "29492112d6e497fca6a22f9fcdf97160"}, {"is_disabled": 0, "is_reserved": 0, "type": "electric_scooter", "lon": -77.02879816666666, "fusion_lon": 0.0, "lat": 38.922426333333334, "rental_uris": {"android": "https://dc.lft.to/lastmile_qr_scan", "ios": "https://dc.lft.to/lastmile_qr_scan"}, "fusion_lat": 0.0, "name": "bcd0450aa848724bb40989808b07f041", "bike_id": "bcd0450aa848724bb40989808b07f041"}, {"is_disabled": 0, "is_reserved": 0, "type": "electric_scooter", "lon": -77.03667783333333, "fusion_lon": 0.0, "lat": 38.91860366666667, "rental_uris": {"android": "https://dc.lft.to/lastmile_qr_scan", "ios": "https://dc.lft.to/lastmile_qr_scan"}, "fusion_lat": 0.0, "name": "102c988b2c36ec279d052ce6e04d9c79", "bike_id": "102c988b2c36ec279d052ce6e04d9c79"}, {"is_disabled": 0, "is_reserved": 0, "type": "electric_scooter", "lon": -77.0245355, "fusion_lon": 0.0, "lat": 38.93416466666667, "rental_uris": {"android": "https://dc.lft.to/lastmile_qr_scan", "ios": "https://dc.lft.to/lastmile_qr_scan"}, "fusion_lat": 0.0, "name": "5ed20ece7da15fc94ab07e15570fe4b4", "bike_id": "5ed20ece7da15fc94ab07e15570fe4b4"}, {"is_disabled": 0, "is_reserved": 0, "type": "electric_scooter", "lon": -77.0363885, "fusion_lon": 0.0, "lat": 38.91623283333333, "rental_uris": {"android": "https://dc.lft.to/lastmile_qr_scan", "ios": "https://dc.lft.to/lastmile_qr_scan"}, "fusion_lat": 0.0, "name": "ff760702d81aaa3d8f12d4edb294d0ae", "bike_id": "ff760702d81aaa3d8f12d4edb294d0ae"}, {"is_disabled": 0, "is_reserved": 0, "type": "electric_scooter", "lon": -77.0109795, "fusion_lon": 0.0, "lat": 38.90785283333334, "rental_uris": {"android": "https://dc.lft.to/lastmile_qr_scan", "ios": "https://dc.lft.to/lastmile_qr_scan"}, "fusion_lat": 0.0, "name": "dfc820efbe1b080be1f8ddf7c1e67b8d", "bike_id": "dfc820efbe1b080be1f8ddf7c1e67b8d"}, {"is_disabled": 0, "is_reserved": 0, "type": "electric_scooter", "lon": -77.06025533333333, "fusion_lon": 0.0, "lat": 38.90525433333333, "rental_uris": {"android": "https://dc.lft.to/lastmile_qr_scan", "ios": "https://dc.lft.to/lastmile_qr_scan"}, "fusion_lat": 0.0, "name": "e283714f14a15528c4b97822085368c3", "bike_id": "e283714f14a15528c4b97822085368c3"}, {"is_disabled": 0, "is_reserved": 0, "type": "electric_scooter", "lon": -77.029359, "fusion_lon": 0.0, "lat": 38.89827433333333, "rental_uris": {"android": "https://dc.lft.to/lastmile_qr_scan", "ios": "https://dc.lft.to/lastmile_qr_scan"}, "fusion_lat": 0.0, "name": "54420ae3ac48bcd98bf2b2791d4767e1", "bike_id": "54420ae3ac48bcd98bf2b2791d4767e1"}, {"is_disabled": 0, "is_reserved": 0, "type": "electric_scooter", "lon": -77.0405395, "fusion_lon": 0.0, "lat": 38.92544183333333, "rental_uris": {"android": "https://dc.lft.to/lastmile_qr_scan", "ios": "https://dc.lft.to/lastmile_qr_scan"}, "fusion_lat": 0.0, "name": "d78fbf3e2c361866ddb2c189a215221d", "bike_id": "d78fbf3e2c361866ddb2c189a215221d"}, {"is_disabled": 0, "is_reserved": 0, "type": "electric_scooter", "lon": -76.9315165, "fusion_lon": 0.0, "lat": 38.898476, "rental_uris": {"android": "https://dc.lft.to/lastmile_qr_scan", "ios": "https://dc.lft.to/lastmile_qr_scan"}, "fusion_lat": 0.0, "name": "816194de7fc315c97210dc5fbde023e2", "bike_id": "816194de7fc315c97210dc5fbde023e2"}, {"is_disabled": 0, "is_reserved": 0, "type": "electric_scooter", "lon": -76.98084916666667, "fusion_lon": 0.0, "lat": 38.87011066666667, "rental_uris": {"android": "https://dc.lft.to/lastmile_qr_scan", "ios": "https://dc.lft.to/lastmile_qr_scan"}, "fusion_lat": 0.0, "name": "de2001b62776efc8effe7737b084eb8b", "bike_id": "de2001b62776efc8effe7737b084eb8b"}, {"is_disabled": 0, "is_reserved": 0, "type": "electric_scooter", "lon": -77.08353783333334, "fusion_lon": 0.0, "lat": 38.956332833333335, "rental_uris": {"android": "https://dc.lft.to/lastmile_qr_scan", "ios": "https://dc.lft.to/lastmile_qr_scan"}, "fusion_lat": 0.0, "name": "9c9cd74918760375e2c1db9da5e9993c", "bike_id": "9c9cd74918760375e2c1db9da5e9993c"}, {"is_disabled": 0, "is_reserved": 0, "type": "electric_scooter", "lon": -77.034529, "fusion_lon": 0.0, "lat": 38.903144833333336, "rental_uris": {"android": "https://dc.lft.to/lastmile_qr_scan", "ios": "https://dc.lft.to/lastmile_qr_scan"}, "fusion_lat": 0.0, "name": "7577a77f9f2f3153cd45ed63378657aa", "bike_id": "7577a77f9f2f3153cd45ed63378657aa"}, {"is_disabled": 0, "is_reserved": 0, "type": "electric_scooter", "lon": -76.98721233333333, "fusion_lon": 0.0, "lat": 38.8672155, "rental_uris": {"android": "https://dc.lft.to/lastmile_qr_scan", "ios": "https://dc.lft.to/lastmile_qr_scan"}, "fusion_lat": 0.0, "name": "11a29a029b832b5b24102b4c4f0db5e3", "bike_id": "11a29a029b832b5b24102b4c4f0db5e3"}, {"is_disabled": 0, "is_reserved": 0, "type": "electric_scooter", "lon": -76.99084316666666, "fusion_lon": 0.0, "lat": 38.86235333333333, "rental_uris": {"android": "https://dc.lft.to/lastmile_qr_scan", "ios": "https://dc.lft.to/lastmile_qr_scan"}, "fusion_lat": 0.0, "name": "58a365f193c11cadf36ef1a593bdb601", "bike_id": "58a365f193c11cadf36ef1a593bdb601"}, {"is_disabled": 0, "is_reserved": 0, "type": "electric_bike", "lon": -77.04897966666667, "fusion_lon": 0.0, "lat": 38.87491633333333, "rental_uris": {"android": "https://dc.lft.to/lastmile_qr_scan", "ios": "https://dc.lft.to/lastmile_qr_scan"}, "fusion_lat": 0.0, "name": "fa67071a1340f4e65c68379a96bbfcee", "bike_id": "fa67071a1340f4e65c68379a96bbfcee"}, {"is_disabled": 0, "is_reserved": 0, "type": "electric_scooter", "lon": -77.0282365, "fusion_lon": 0.0, "lat": 38.885809333333334, "rental_uris": {"android": "https://dc.lft.to/lastmile_qr_scan", "ios": "https://dc.lft.to/lastmile_qr_scan"}, "fusion_lat": 0.0, "name": "00d5af62de58155cf77e13f774cfe253", "bike_id": "00d5af62de58155cf77e13f774cfe253"}, {"is_disabled": 0, "is_reserved": 0, "type": "electric_scooter", "lon": -77.0219565, "fusion_lon": 0.0, "lat": 38.905347, "rental_uris": {"android": "https://dc.lft.to/lastmile_qr_scan", "ios": "https://dc.lft.to/lastmile_qr_scan"}, "fusion_lat": 0.0, "name": "16b1c3f7a2e681c0cfc0fb8b210ec26b", "bike_id": "16b1c3f7a2e681c0cfc0fb8b210ec26b"}, {"is_disabled": 0, "is_reserved": 0, "type": "electric_scooter", "lon": -77.03897016666667, "fusion_lon": 0.0, "lat": 38.91460566666667, "rental_uris": {"android": "https://dc.lft.to/lastmile_qr_scan", "ios": "https://dc.lft.to/lastmile_qr_scan"}, "fusion_lat": 0.0, "name": "246e41dc29c60686694edadf992f2c1a", "bike_id": "246e41dc29c60686694edadf992f2c1a"}, {"is_disabled": 0, "is_reserved": 0, "type": "electric_bike", "lon": -76.8749515, "fusion_lon": 0.0, "lat": 38.99089766666667, "rental_uris": {"android": "https://dc.lft.to/lastmile_qr_scan", "ios": "https://dc.lft.to/lastmile_qr_scan"}, "fusion_lat": 0.0, "name": "8a5545b5eb12a553f70f896349dec4cf", "bike_id": "8a5545b5eb12a553f70f896349dec4cf"}, {"is_disabled": 0, "is_reserved": 0, "type": "electric_scooter", "lon": -77.00325916666667, "fusion_lon": 0.0, "lat": 38.9072785, "rental_uris": {"android": "https://dc.lft.to/lastmile_qr_scan", "ios": "https://dc.lft.to/lastmile_qr_scan"}, "fusion_lat": 0.0, "name": "c0fc26d37a978204e4b1a69c870a8f34", "bike_id": "c0fc26d37a978204e4b1a69c870a8f34"}, {"is_disabled": 0, "is_reserved": 0, "type": "electric_scooter", "lon": -77.02804683333333, "fusion_lon": 0.0, "lat": 38.911019833333334, "rental_uris": {"android": "https://dc.lft.to/lastmile_qr_scan", "ios": "https://dc.lft.to/lastmile_qr_scan"}, "fusion_lat": 0.0, "name": "ac741c946b85e0f60b6f59abd00db8ad", "bike_id": "ac741c946b85e0f60b6f59abd00db8ad"}, {"is_disabled": 0, "is_reserved": 0, "type": "electric_scooter", "lon": -77.03523666666666, "fusion_lon": 0.0, "lat": 38.92152566666667, "rental_uris": {"android": "https://dc.lft.to/lastmile_qr_scan", "ios": "https://dc.lft.to/lastmile_qr_scan"}, "fusion_lat": 0.0, "name": "7f22d91af9d0c04e26b95e0c9ccc2cf1", "bike_id": "7f22d91af9d0c04e26b95e0c9ccc2cf1"}, {"is_disabled": 0, "is_reserved": 0, "type": "electric_scooter", "lon": -77.059228, "fusion_lon": 0.0, "lat": 38.910015, "rental_uris": {"android": "https://dc.lft.to/lastmile_qr_scan", "ios": "https://dc.lft.to/lastmile_qr_scan"}, "fusion_lat": 0.0, "name": "5d5e69fc7e4f8765b44591e9a962d391", "bike_id": "5d5e69fc7e4f8765b44591e9a962d391"}, {"is_disabled": 0, "is_reserved": 0, "type": "electric_scooter", "lon": -77.014162, "fusion_lon": 0.0, "lat": 38.92847016666666, "rental_uris": {"android": "https://dc.lft.to/lastmile_qr_scan", "ios": "https://dc.lft.to/lastmile_qr_scan"}, "fusion_lat": 0.0, "name": "bce508fe5ac9d30c3fac852d6af9d1f4", "bike_id": "bce508fe5ac9d30c3fac852d6af9d1f4"}, {"is_disabled": 0, "is_reserved": 0, "type": "electric_scooter", "lon": -77.0293365, "fusion_lon": 0.0, "lat": 38.91416383333333, "rental_uris": {"android": "https://dc.lft.to/lastmile_qr_scan", "ios": "https://dc.lft.to/lastmile_qr_scan"}, "fusion_lat": 0.0, "name": "4ab62ea8f6165066d99944f9d25c258f", "bike_id": "4ab62ea8f6165066d99944f9d25c258f"}, {"is_disabled": 0, "is_reserved": 0, "type": "electric_bike", "lon": -77.10028783333334, "fusion_lon": 0.0, "lat": 38.990674166666665, "rental_uris": {"android": "https://dc.lft.to/lastmile_qr_scan", "ios": "https://dc.lft.to/lastmile_qr_scan"}, "fusion_lat": 0.0, "name": "9d9c60e2d03655b247d49a7246b59e5e", "bike_id": "9d9c60e2d03655b247d49a7246b59e5e"}, {"is_disabled": 0, "is_reserved": 0, "type": "electric_scooter", "lon": -77.02154683333333, "fusion_lon": 0.0, "lat": 38.9260415, "rental_uris": {"android": "https://dc.lft.to/lastmile_qr_scan", "ios": "https://dc.lft.to/lastmile_qr_scan"}, "fusion_lat": 0.0, "name": "f681b7fae451151dff3ea5a746945a06", "bike_id": "f681b7fae451151dff3ea5a746945a06"}, {"is_disabled": 0, "is_reserved": 0, "type": "electric_scooter", "lon": -77.033779, "fusion_lon": 0.0, "lat": 38.96838666666667, "rental_uris": {"android": "https://dc.lft.to/lastmile_qr_scan", "ios": "https://dc.lft.to/lastmile_qr_scan"}, "fusion_lat": 0.0, "name": "dcbb51d033dda15f555dc1a02c59d01c", "bike_id": "dcbb51d033dda15f555dc1a02c59d01c"}, {"is_disabled": 0, "is_reserved": 0, "type": "electric_scooter", "lon": -77.00194933333333, "fusion_lon": 0.0, "lat": 38.90232783333333, "rental_uris": {"android": "https://dc.lft.to/lastmile_qr_scan", "ios": "https://dc.lft.to/lastmile_qr_scan"}, "fusion_lat": 0.0, "name": "5d21f77f3b3b506670993c6e0cba6e6c", "bike_id": "5d21f77f3b3b506670993c6e0cba6e6c"}, {"is_disabled": 0, "is_reserved": 0, "type": "electric_scooter", "lon": -77.00592183333333, "fusion_lon": 0.0, "lat": 38.87414, "rental_uris": {"android": "https://dc.lft.to/lastmile_qr_scan", "ios": "https://dc.lft.to/lastmile_qr_scan"}, "fusion_lat": 0.0, "name": "a9beb9675405bfdaa331ee715989990e", "bike_id": "a9beb9675405bfdaa331ee715989990e"}, {"is_disabled": 0, "is_reserved": 0, "type": "electric_scooter", "lon": -77.03805383333334, "fusion_lon": 0.0, "lat": 38.90678, "rental_uris": {"android": "https://dc.lft.to/lastmile_qr_scan", "ios": "https://dc.lft.to/lastmile_qr_scan"}, "fusion_lat": 0.0, "name": "8d2e5ea9673fdaf92dd61d228f5f65a8", "bike_id": "8d2e5ea9673fdaf92dd61d228f5f65a8"}, {"is_disabled": 0, "is_reserved": 0, "type": "electric_scooter", "lon": -77.01792883333333, "fusion_lon": 0.0, "lat": 38.941168, "rental_uris": {"android": "https://dc.lft.to/lastmile_qr_scan", "ios": "https://dc.lft.to/lastmile_qr_scan"}, "fusion_lat": 0.0, "name": "9156d6ed467ddaf903201bce896da366", "bike_id": "9156d6ed467ddaf903201bce896da366"}, {"is_disabled": 0, "is_reserved": 0, "type": "electric_scooter", "lon": -77.0162245, "fusion_lon": 0.0, "lat": 38.89542766666667, "rental_uris": {"android": "https://dc.lft.to/lastmile_qr_scan", "ios": "https://dc.lft.to/lastmile_qr_scan"}, "fusion_lat": 0.0, "name": "02bc57405ff7b654a09fb825a3f14a6b", "bike_id": "02bc57405ff7b654a09fb825a3f14a6b"}, {"is_disabled": 0, "is_reserved": 0, "type": "electric_bike", "lon": -77.13181166666666, "fusion_lon": 0.0, "lat": 38.869074, "rental_uris": {"android": "https://dc.lft.to/lastmile_qr_scan", "ios": "https://dc.lft.to/lastmile_qr_scan"}, "fusion_lat": 0.0, "name": "ac671183f269159ad2edbe7d98c4d516", "bike_id": "ac671183f269159ad2edbe7d98c4d516"}, {"is_disabled": 0, "is_reserved": 0, "type": "electric_scooter", "lon": -77.03168616666666, "fusion_lon": 0.0, "lat": 38.911096666666666, "rental_uris": {"android": "https://dc.lft.to/lastmile_qr_scan", "ios": "https://dc.lft.to/lastmile_qr_scan"}, "fusion_lat": 0.0, "name": "5e9e7e6f13ac5f641c0e3de6b266d49d", "bike_id": "5e9e7e6f13ac5f641c0e3de6b266d49d"}, {"is_disabled": 0, "is_reserved": 0, "type": "electric_scooter", "lon": -77.038198, "fusion_lon": 0.0, "lat": 38.91967566666667, "rental_uris": {"android": "https://dc.lft.to/lastmile_qr_scan", "ios": "https://dc.lft.to/lastmile_qr_scan"}, "fusion_lat": 0.0, "name": "c89c741ae7ef834402c1a1d62ae29a65", "bike_id": "c89c741ae7ef834402c1a1d62ae29a65"}, {"is_disabled": 0, "is_reserved": 0, "type": "electric_scooter", "lon": -76.98474766666666, "fusion_lon": 0.0, "lat": 38.928955, "rental_uris": {"android": "https://dc.lft.to/lastmile_qr_scan", "ios": "https://dc.lft.to/lastmile_qr_scan"}, "fusion_lat": 0.0, "name": "76a2be3f05f429f39ca8e1c575f1d7af", "bike_id": "76a2be3f05f429f39ca8e1c575f1d7af"}, {"is_disabled": 0, "is_reserved": 0, "type": "electric_scooter", "lon": -76.9463335, "fusion_lon": 0.0, "lat": 38.89835633333333, "rental_uris": {"android": "https://dc.lft.to/lastmile_qr_scan", "ios": "https://dc.lft.to/lastmile_qr_scan"}, "fusion_lat": 0.0, "name": "75e7d189b753b00429d8330480ac0b85", "bike_id": "75e7d189b753b00429d8330480ac0b85"}, {"is_disabled": 0, "is_reserved": 0, "type": "electric_scooter", "lon": -77.04712633333334, "fusion_lon": 0.0, "lat": 38.90282216666667, "rental_uris": {"android": "https://dc.lft.to/lastmile_qr_scan", "ios": "https://dc.lft.to/lastmile_qr_scan"}, "fusion_lat": 0.0, "name": "62c2a9635a8068faf0c07bf18399ac00", "bike_id": "62c2a9635a8068faf0c07bf18399ac00"}, {"is_disabled": 0, "is_reserved": 0, "type": "electric_scooter", "lon": -77.02776766666666, "fusion_lon": 0.0, "lat": 38.88157566666667, "rental_uris": {"android": "https://dc.lft.to/lastmile_qr_scan", "ios": "https://dc.lft.to/lastmile_qr_scan"}, "fusion_lat": 0.0, "name": "d8d080e44c060699c24e3d00cbaa9730", "bike_id": "d8d080e44c060699c24e3d00cbaa9730"}, {"is_disabled": 0, "is_reserved": 0, "type": "electric_scooter", "lon": -77.01759783333334, "fusion_lon": 0.0, "lat": 38.8768835, "rental_uris": {"android": "https://dc.lft.to/lastmile_qr_scan", "ios": "https://dc.lft.to/lastmile_qr_scan"}, "fusion_lat": 0.0, "name": "b88c927a54e4bf12ecdc862fa00b3a14", "bike_id": "b88c927a54e4bf12ecdc862fa00b3a14"}, {"is_disabled": 0, "is_reserved": 0, "type": "electric_bike", "lon": -77.0267115, "fusion_lon": 0.0, "lat": 38.981964, "rental_uris": {"android": "https://dc.lft.to/lastmile_qr_scan", "ios": "https://dc.lft.to/lastmile_qr_scan"}, "fusion_lat": 0.0, "name": "b375509029ee5509ab29e74615cc7582", "bike_id": "b375509029ee5509ab29e74615cc7582"}, {"is_disabled": 0, "is_reserved": 0, "type": "electric_scooter", "lon": -77.02802266666667, "fusion_lon": 0.0, "lat": 38.906225, "rental_uris": {"android": "https://dc.lft.to/lastmile_qr_scan", "ios": "https://dc.lft.to/lastmile_qr_scan"}, "fusion_lat": 0.0, "name": "7ed337211405f30d391567e54f01a179", "bike_id": "7ed337211405f30d391567e54f01a179"}, {"is_disabled": 0, "is_reserved": 0, "type": "electric_scooter", "lon": -77.03380533333333, "fusion_lon": 0.0, "lat": 38.92539216666667, "rental_uris": {"android": "https://dc.lft.to/lastmile_qr_scan", "ios": "https://dc.lft.to/lastmile_qr_scan"}, "fusion_lat": 0.0, "name": "a4d2e672705c3e154e311b765bf0b54d", "bike_id": "a4d2e672705c3e154e311b765bf0b54d"}, {"is_disabled": 0, "is_reserved": 0, "type": "electric_scooter", "lon": -77.032921, "fusion_lon": 0.0, "lat": 38.9191795, "rental_uris": {"android": "https://dc.lft.to/lastmile_qr_scan", "ios": "https://dc.lft.to/lastmile_qr_scan"}, "fusion_lat": 0.0, "name": "43fd3e65ab305912230ebd05af329c35", "bike_id": "43fd3e65ab305912230ebd05af329c35"}, {"is_disabled": 0, "is_reserved": 0, "type": "electric_scooter", "lon": -77.026238, "fusion_lon": 0.0, "lat": 38.8874775, "rental_uris": {"android": "https://dc.lft.to/lastmile_qr_scan", "ios": "https://dc.lft.to/lastmile_qr_scan"}, "fusion_lat": 0.0, "name": "0db0dead9589000bd19ffecb354a366d", "bike_id": "0db0dead9589000bd19ffecb354a366d"}, {"is_disabled": 0, "is_reserved": 0, "type": "electric_scooter", "lon": -77.031944, "fusion_lon": 0.0, "lat": 38.919219166666664, "rental_uris": {"android": "https://dc.lft.to/lastmile_qr_scan", "ios": "https://dc.lft.to/lastmile_qr_scan"}, "fusion_lat": 0.0, "name": "fdafca7ddec1909f6fab4bcbd66053e7", "bike_id": "fdafca7ddec1909f6fab4bcbd66053e7"}, {"is_disabled": 0, "is_reserved": 0, "type": "electric_scooter", "lon": -77.01780933333333, "fusion_lon": 0.0, "lat": 38.90242166666667, "rental_uris": {"android": "https://dc.lft.to/lastmile_qr_scan", "ios": "https://dc.lft.to/lastmile_qr_scan"}, "fusion_lat": 0.0, "name": "71d9cbdb5a5f48aa199a76933f5ba33d", "bike_id": "71d9cbdb5a5f48aa199a76933f5ba33d"}, {"is_disabled": 0, "is_reserved": 0, "type": "electric_scooter", "lon": -76.99669816666666, "fusion_lon": 0.0, "lat": 38.908297833333336, "rental_uris": {"android": "https://dc.lft.to/lastmile_qr_scan", "ios": "https://dc.lft.to/lastmile_qr_scan"}, "fusion_lat": 0.0, "name": "871ec40db0fd330fb055246004331008", "bike_id": "871ec40db0fd330fb055246004331008"}, {"is_disabled": 0, "is_reserved": 0, "type": "electric_scooter", "lon": -77.03415816666667, "fusion_lon": 0.0, "lat": 38.929505, "rental_uris": {"android": "https://dc.lft.to/lastmile_qr_scan", "ios": "https://dc.lft.to/lastmile_qr_scan"}, "fusion_lat": 0.0, "name": "966aeeb726f4694a7801ab6d0696b9c1", "bike_id": "966aeeb726f4694a7801ab6d0696b9c1"}, {"is_disabled": 0, "is_reserved": 0, "type": "electric_scooter", "lon": -77.0240505, "fusion_lon": 0.0, "lat": 38.91919816666667, "rental_uris": {"android": "https://dc.lft.to/lastmile_qr_scan", "ios": "https://dc.lft.to/lastmile_qr_scan"}, "fusion_lat": 0.0, "name": "81c35aef9ed5a4d03f54d6fba56c417d", "bike_id": "81c35aef9ed5a4d03f54d6fba56c417d"}, {"is_disabled": 0, "is_reserved": 0, "type": "electric_scooter", "lon": -77.02812733333333, "fusion_lon": 0.0, "lat": 38.91046633333333, "rental_uris": {"android": "https://dc.lft.to/lastmile_qr_scan", "ios": "https://dc.lft.to/lastmile_qr_scan"}, "fusion_lat": 0.0, "name": "ed9118db1767afac1c330b4986d0bb6c", "bike_id": "ed9118db1767afac1c330b4986d0bb6c"}, {"is_disabled": 0, "is_reserved": 0, "type": "electric_scooter", "lon": -77.04522116666666, "fusion_lon": 0.0, "lat": 38.918210333333334, "rental_uris": {"android": "https://dc.lft.to/lastmile_qr_scan", "ios": "https://dc.lft.to/lastmile_qr_scan"}, "fusion_lat": 0.0, "name": "ffb3b3bb5316c74983d9b6898a3b4754", "bike_id": "ffb3b3bb5316c74983d9b6898a3b4754"}, {"is_disabled": 0, "is_reserved": 0, "type": "electric_scooter", "lon": -77.02985383333333, "fusion_lon": 0.0, "lat": 38.907252166666666, "rental_uris": {"android": "https://dc.lft.to/lastmile_qr_scan", "ios": "https://dc.lft.to/lastmile_qr_scan"}, "fusion_lat": 0.0, "name": "0094d926a1e6b41a7ba8efe7a4e2b811", "bike_id": "0094d926a1e6b41a7ba8efe7a4e2b811"}, {"is_disabled": 0, "is_reserved": 0, "type": "electric_scooter", "lon": -76.979442, "fusion_lon": 0.0, "lat": 38.90506116666667, "rental_uris": {"android": "https://dc.lft.to/lastmile_qr_scan", "ios": "https://dc.lft.to/lastmile_qr_scan"}, "fusion_lat": 0.0, "name": "35540ad4ad20e6223fede9588e5deea4", "bike_id": "35540ad4ad20e6223fede9588e5deea4"}, {"is_disabled": 0, "is_reserved": 0, "type": "electric_scooter", "lon": -77.02221083333333, "fusion_lon": 0.0, "lat": 38.9105535, "rental_uris": {"android": "https://dc.lft.to/lastmile_qr_scan", "ios": "https://dc.lft.to/lastmile_qr_scan"}, "fusion_lat": 0.0, "name": "bd9a38e55f4073384fa3343ed28418ad", "bike_id": "bd9a38e55f4073384fa3343ed28418ad"}, {"is_disabled": 0, "is_reserved": 0, "type": "electric_scooter", "lon": -77.0200755, "fusion_lon": 0.0, "lat": 38.92412516666667, "rental_uris": {"android": "https://dc.lft.to/lastmile_qr_scan", "ios": "https://dc.lft.to/lastmile_qr_scan"}, "fusion_lat": 0.0, "name": "435fccd1fc043f1708265ebd0b74733f", "bike_id": "435fccd1fc043f1708265ebd0b74733f"}, {"is_disabled": 0, "is_reserved": 0, "type": "electric_scooter", "lon": -77.04436033333333, "fusion_lon": 0.0, "lat": 38.9053915, "rental_uris": {"android": "https://dc.lft.to/lastmile_qr_scan", "ios": "https://dc.lft.to/lastmile_qr_scan"}, "fusion_lat": 0.0, "name": "358a8617c6bea5d1836da76fde6e2261", "bike_id": "358a8617c6bea5d1836da76fde6e2261"}, {"is_disabled": 0, "is_reserved": 0, "type": "electric_scooter", "lon": -77.003354, "fusion_lon": 0.0, "lat": 38.87499783333333, "rental_uris": {"android": "https://dc.lft.to/lastmile_qr_scan", "ios": "https://dc.lft.to/lastmile_qr_scan"}, "fusion_lat": 0.0, "name": "780fc531e0f9eb618c30055e4e15846e", "bike_id": "780fc531e0f9eb618c30055e4e15846e"}, {"is_disabled": 0, "is_reserved": 0, "type": "electric_scooter", "lon": -77.02184816666667, "fusion_lon": 0.0, "lat": 38.901066666666665, "rental_uris": {"android": "https://dc.lft.to/lastmile_qr_scan", "ios": "https://dc.lft.to/lastmile_qr_scan"}, "fusion_lat": 0.0, "name": "0a09ac16796e70df9b145c365503886d", "bike_id": "0a09ac16796e70df9b145c365503886d"}, {"is_disabled": 0, "is_reserved": 0, "type": "electric_scooter", "lon": -77.0217565, "fusion_lon": 0.0, "lat": 38.89404283333333, "rental_uris": {"android": "https://dc.lft.to/lastmile_qr_scan", "ios": "https://dc.lft.to/lastmile_qr_scan"}, "fusion_lat": 0.0, "name": "8dfff25c79dc25eb057a23f88fcb2e5f", "bike_id": "8dfff25c79dc25eb057a23f88fcb2e5f"}, {"is_disabled": 0, "is_reserved": 0, "type": "electric_scooter", "lon": -77.0277835, "fusion_lon": 0.0, "lat": 38.892233833333336, "rental_uris": {"android": "https://dc.lft.to/lastmile_qr_scan", "ios": "https://dc.lft.to/lastmile_qr_scan"}, "fusion_lat": 0.0, "name": "8104d878e48fc1cec607801106c4f871", "bike_id": "8104d878e48fc1cec607801106c4f871"}, {"is_disabled": 0, "is_reserved": 0, "type": "electric_scooter", "lon": -76.98809316666667, "fusion_lon": 0.0, "lat": 38.908258833333335, "rental_uris": {"android": "https://dc.lft.to/lastmile_qr_scan", "ios": "https://dc.lft.to/lastmile_qr_scan"}, "fusion_lat": 0.0, "name": "28b311205ea7b7ee122184bb4ca1c773", "bike_id": "28b311205ea7b7ee122184bb4ca1c773"}, {"is_disabled": 0, "is_reserved": 0, "type": "electric_scooter", "lon": -77.03791133333333, "fusion_lon": 0.0, "lat": 38.936075333333335, "rental_uris": {"android": "https://dc.lft.to/lastmile_qr_scan", "ios": "https://dc.lft.to/lastmile_qr_scan"}, "fusion_lat": 0.0, "name": "32959354fdf1e844e8fbf8eca95201fc", "bike_id": "32959354fdf1e844e8fbf8eca95201fc"}, {"is_disabled": 0, "is_reserved": 0, "type": "electric_scooter", "lon": -77.02001883333334, "fusion_lon": 0.0, "lat": 38.9156145, "rental_uris": {"android": "https://dc.lft.to/lastmile_qr_scan", "ios": "https://dc.lft.to/lastmile_qr_scan"}, "fusion_lat": 0.0, "name": "74ebabc4da84f5e79bd3efa5716c7014", "bike_id": "74ebabc4da84f5e79bd3efa5716c7014"}, {"is_disabled": 0, "is_reserved": 0, "type": "electric_scooter", "lon": -76.99852116666666, "fusion_lon": 0.0, "lat": 38.900291333333335, "rental_uris": {"android": "https://dc.lft.to/lastmile_qr_scan", "ios": "https://dc.lft.to/lastmile_qr_scan"}, "fusion_lat": 0.0, "name": "c5b35402f26ee716884961d12b659e69", "bike_id": "c5b35402f26ee716884961d12b659e69"}, {"is_disabled": 0, "is_reserved": 0, "type": "electric_scooter", "lon": -76.91238083333333, "fusion_lon": 0.0, "lat": 38.893957666666665, "rental_uris": {"android": "https://dc.lft.to/lastmile_qr_scan", "ios": "https://dc.lft.to/lastmile_qr_scan"}, "fusion_lat": 0.0, "name": "69a1d5bc2aaad11b3df49eb15168d19f", "bike_id": "69a1d5bc2aaad11b3df49eb15168d19f"}, {"is_disabled": 0, "is_reserved": 0, "type": "electric_scooter", "lon": -77.01853, "fusion_lon": 0.0, "lat": 38.9737235, "rental_uris": {"android": "https://dc.lft.to/lastmile_qr_scan", "ios": "https://dc.lft.to/lastmile_qr_scan"}, "fusion_lat": 0.0, "name": "98aedbcb8f39c8be39a8042b646ad481", "bike_id": "98aedbcb8f39c8be39a8042b646ad481"}, {"is_disabled": 0, "is_reserved": 0, "type": "electric_scooter", "lon": -77.0242685, "fusion_lon": 0.0, "lat": 38.920549666666666, "rental_uris": {"android": "https://dc.lft.to/lastmile_qr_scan", "ios": "https://dc.lft.to/lastmile_qr_scan"}, "fusion_lat": 0.0, "name": "44920937091cea7321bdb03dd0e48c02", "bike_id": "44920937091cea7321bdb03dd0e48c02"}, {"is_disabled": 0, "is_reserved": 0, "type": "electric_scooter", "lon": -76.97183, "fusion_lon": 0.0, "lat": 38.91263516666667, "rental_uris": {"android": "https://dc.lft.to/lastmile_qr_scan", "ios": "https://dc.lft.to/lastmile_qr_scan"}, "fusion_lat": 0.0, "name": "ad5ee46a40bf8b00b4addd0c88e79866", "bike_id": "ad5ee46a40bf8b00b4addd0c88e79866"}, {"is_disabled": 0, "is_reserved": 0, "type": "electric_bike", "lon": -77.09831316666667, "fusion_lon": 0.0, "lat": 38.857903, "rental_uris": {"android": "https://dc.lft.to/lastmile_qr_scan", "ios": "https://dc.lft.to/lastmile_qr_scan"}, "fusion_lat": 0.0, "name": "50a4935db64447f0cac5e7cdba896df9", "bike_id": "50a4935db64447f0cac5e7cdba896df9"}, {"is_disabled": 0, "is_reserved": 0, "type": "electric_scooter", "lon": -76.99082616666666, "fusion_lon": 0.0, "lat": 38.904233, "rental_uris": {"android": "https://dc.lft.to/lastmile_qr_scan", "ios": "https://dc.lft.to/lastmile_qr_scan"}, "fusion_lat": 0.0, "name": "8dd8e521d011f46d38da99e584993119", "bike_id": "8dd8e521d011f46d38da99e584993119"}, {"is_disabled": 0, "is_reserved": 0, "type": "electric_scooter", "lon": -77.02172466666667, "fusion_lon": 0.0, "lat": 38.942939333333335, "rental_uris": {"android": "https://dc.lft.to/lastmile_qr_scan", "ios": "https://dc.lft.to/lastmile_qr_scan"}, "fusion_lat": 0.0, "name": "cc4f63e7c05375fecc7759daaf38ce5e", "bike_id": "cc4f63e7c05375fecc7759daaf38ce5e"}, {"is_disabled": 0, "is_reserved": 0, "type": "electric_bike", "lon": -77.02499916666666, "fusion_lon": 0.0, "lat": 38.974028833333335, "rental_uris": {"android": "https://dc.lft.to/lastmile_qr_scan", "ios": "https://dc.lft.to/lastmile_qr_scan"}, "fusion_lat": 0.0, "name": "59d08947e5461898438009e19c380376", "bike_id": "59d08947e5461898438009e19c380376"}, {"is_disabled": 0, "is_reserved": 0, "type": "electric_scooter", "lon": -77.03956966666667, "fusion_lon": 0.0, "lat": 38.892425833333334, "rental_uris": {"android": "https://dc.lft.to/lastmile_qr_scan", "ios": "https://dc.lft.to/lastmile_qr_scan"}, "fusion_lat": 0.0, "name": "93f911736597896c64922b8fb819a58a", "bike_id": "93f911736597896c64922b8fb819a58a"}, {"is_disabled": 0, "is_reserved": 0, "type": "electric_scooter", "lon": -77.04642583333333, "fusion_lon": 0.0, "lat": 38.9044605, "rental_uris": {"android": "https://dc.lft.to/lastmile_qr_scan", "ios": "https://dc.lft.to/lastmile_qr_scan"}, "fusion_lat": 0.0, "name": "b957f35fb70992d699e899e83a888c48", "bike_id": "b957f35fb70992d699e899e83a888c48"},