{"data": {"bikes": [{"rental_uris": {"android": "https://dc.lft.to/lastmile_qr_scan", "ios": "https://dc.lft.to/lastmile_qr_scan"}, "lat": 38.887064, "type": "electric_scooter", "name": "a72e91ce42249d8b840317255e8a5d6b", "fusion_lon": 0.0, "fusion_lat": 0.0, "is_reserved": 0, "bike_id": "a72e91ce42249d8b840317255e8a5d6b", "lon": -77.02176133333333, "is_disabled": 0}, {"rental_uris": {"android": "https://dc.lft.to/lastmile_qr_scan", "ios": "https://dc.lft.to/lastmile_qr_scan"}, "lat": 38.89224883333333, "type": "electric_scooter", "name": "ca76e0078f528d5cd8d5542b2d96a71b", "fusion_lon": 0.0, "fusion_lat": 0.0, "is_reserved": 0, "bike_id": "ca76e0078f528d5cd8d5542b2d96a71b", "lon": -77.0240935, "is_disabled": 0}, {"rental_uris": {"android": "https://dc.lft.to/lastmile_qr_scan", "ios": "https://dc.lft.to/lastmile_qr_scan"}, "lat": 38.928801, "type": "electric_scooter", "name": "6680371f08e28ff96e26e74508b6d0d5", "fusion_lon": 0.0, "fusion_lat": 0.0, "is_reserved": 0, "bike_id": "6680371f08e28ff96e26e74508b6d0d5", "lon": -77.0136215, "is_disabled": 0}, {"rental_uris": {"android": "https://dc.lft.to/lastmile_qr_scan", "ios": "https://dc.lft.to/lastmile_qr_scan"}, "lat": 38.902737, "type": "electric_scooter", "name": "bb69ad2adc95bba9b5a6fa681454401e", "fusion_lon": 0.0, "fusion_lat": 0.0, "is_reserved": 0, "bike_id": "bb69ad2adc95bba9b5a6fa681454401e", "lon": -77.03865683333333, "is_disabled": 0}, {"rental_uris": {"android": "https://dc.lft.to/lastmile_qr_scan", "ios": "https://dc.lft.to/lastmile_qr_scan"}, "lat": 38.893919833333335, "type": "electric_scooter", "name": "4d0e60946f6457eb52e65b8cceaa31e7", "fusion_lon": 0.0, "fusion_lat": 0.0, "is_reserved": 0, "bike_id": "4d0e60946f6457eb52e65b8cceaa31e7", "lon": -77.04654, "is_disabled": 0}, {"rental_uris": {"android": "https://dc.lft.to/lastmile_qr_scan", "ios": "https://dc.lft.to/lastmile_qr_scan"}, "lat": 38.92726566666666, "type": "electric_scooter", "name": "812f3d6e7198400a733bf81365716837", "fusion_lon": 0.0, "fusion_lat": 0.0, "is_reserved": 0, "bike_id": "812f3d6e7198400a733bf81365716837", "lon": -77.05137583333334, "is_disabled": 0}, {"rental_uris": {"android": "https://dc.lft.to/lastmile_qr_scan", "ios": "https://dc.lft.to/lastmile_qr_scan"}, "lat": 38.904369, "type": "electric_scooter", "name": "712860fb72d7df04466154a5a56515bc", "fusion_lon": 0.0, "fusion_lat": 0.0, "is_reserved": 0, "bike_id": "712860fb72d7df04466154a5a56515bc", "lon": -77.04661116666666, "is_disabled": 0}, {"rental_uris": {"android": "https://dc.lft.to/lastmile_qr_scan", "ios": "https://dc.lft.to/lastmile_qr_scan"}, "lat": 38.959285666666666, "type": "electric_bike", "name": "7bc209ac9eb6e9a28c1b4dbbe75d73e2", "fusion_lon": 0.0, "fusion_lat": 0.0, "is_reserved": 0, "bike_id": "7bc209ac9eb6e9a28c1b4dbbe75d73e2", "lon": -76.92533883333333, "is_disabled": 0}, {"rental_uris": {"android": "https://dc.lft.to/lastmile_qr_scan", "ios": "https://dc.lft.to/lastmile_qr_scan"}, "lat": 38.923801833333336, "type": "electric_scooter", "name": "c8403ea96e33b8ca21e20bc457b4077f", "fusion_lon": 0.0, "fusion_lat": 0.0, "is_reserved": 0, "bike_id": "c8403ea96e33b8ca21e20bc457b4077f", "lon": -77.03066366666667, "is_disabled": 0}, {"rental_uris": {"android": "https://dc.lft.to/lastmile_qr_scan", "ios": "https://dc.lft.to/lastmile_qr_scan"}, "lat": 38.942628166666665, "type": "electric_scooter", "name": "a460292c72ca8ef41f7f9f8f52790737", "fusion_lon": 0.0, "fusion_lat": 0.0, "is_reserved": 0, "bike_id": "a460292c72ca8ef41f7f9f8f52790737", "lon": -77.02840733333333, "is_disabled": 0}, {"rental_uris": {"android": "https://dc.lft.to/lastmile_qr_scan", "ios": "https://dc.lft.to/lastmile_qr_scan"}, "lat": 38.923222, "type": "electric_scooter", "name": "3c503df7ec0709ec2d9a1d0b2c41930e", "fusion_lon": 0.0, "fusion_lat": 0.0, "is_reserved": 0, "bike_id": "3c503df7ec0709ec2d9a1d0b2c41930e", "lon": -77.01949983333333, "is_disabled": 0}, {"rental_uris": {"android": "https://dc.lft.to/lastmile_qr_scan", "ios": "https://dc.lft.to/lastmile_qr_scan"}, "lat": 38.94149316666667, "type": "electric_scooter", "name": "36fadb076d7fd2194381b700aeb0cd09", "fusion_lon": 0.0, "fusion_lat": 0.0, "is_reserved": 0, "bike_id": "36fadb076d7fd2194381b700aeb0cd09", "lon": -77.02519133333334, "is_disabled": 0}, {"rental_uris": {"android": "https://dc.lft.to/lastmile_qr_scan", "ios": "https://dc.lft.to/lastmile_qr_scan"}, "lat": 38.840553666666665, "type": "electric_scooter", "name": "73071844faa5a8b305874ba8be3a912c", "fusion_lon": 0.0, "fusion_lat": 0.0, "is_reserved": 0, "bike_id": "73071844faa5a8b305874ba8be3a912c", "lon": -76.97668350000001, "is_disabled": 0}, {"rental_uris": {"android": "https://dc.lft.to/lastmile_qr_scan", "ios": "https://dc.lft.to/lastmile_qr_scan"}, "lat": 38.89223, "type": "electric_scooter", "name": "ffa0ad8b87bdfaf17161e421c51df976", "fusion_lon": 0.0, "fusion_lat": 0.0, "is_reserved": 0, "bike_id": "ffa0ad8b87bdfaf17161e421c51df976", "lon": -77.0222015, "is_disabled": 0}, {"rental_uris": {"android": "https://dc.lft.to/lastmile_qr_scan", "ios": "https://dc.lft.to/lastmile_qr_scan"}, "lat": 38.90237666666667, "type": "electric_scooter", "name": "8f065464a28c0840886dbf41421fbbeb", "fusion_lon": 0.0, "fusion_lat": 0.0, "is_reserved": 0, "bike_id": "8f065464a28c0840886dbf41421fbbeb", "lon": -77.00198733333333, "is_disabled": 0}, {"rental_uris": {"android": "https://dc.lft.to/lastmile_qr_scan", "ios": "https://dc.lft.to/lastmile_qr_scan"}, "lat": 38.830414833333336, "type": "electric_bike", "name": "70c82d645ead424ffb1ec567f5ca8549", "fusion_lon": 0.0, "fusion_lat": 0.0, "is_reserved": 0, "bike_id": "70c82d645ead424ffb1ec567f5ca8549", "lon": -77.00811933333334, "is_disabled": 0}, {"rental_uris": {"android": "https://dc.lft.to/lastmile_qr_scan", "ios": "https://dc.lft.to/lastmile_qr_scan"}, "lat": 38.9244695, "type": "electric_scooter", "name": "5aed67dff72d3a861e1433f0ba81a7aa", "fusion_lon": 0.0, "fusion_lat": 0.0, "is_reserved": 0, "bike_id": "5aed67dff72d3a861e1433f0ba81a7aa", "lon": -77.02141933333333, "is_disabled": 0}, {"rental_uris": {"android": "https://dc.lft.to/lastmile_qr_scan", "ios": "https://dc.lft.to/lastmile_qr_scan"}, "lat": 38.934479, "type": "electric_scooter", "name": "6a3412e0ee512376179e75b68a677d1f", "fusion_lon": 0.0, "fusion_lat": 0.0, "is_reserved": 0, "bike_id": "6a3412e0ee512376179e75b68a677d1f", "lon": -77.08966416666667, "is_disabled": 0}, {"rental_uris": {"android": "https://dc.lft.to/lastmile_qr_scan", "ios": "https://dc.lft.to/lastmile_qr_scan"}, "lat": 38.917858, "type": "electric_scooter", "name": "efd12f63219915c75b69e8aba0364176", "fusion_lon": 0.0, "fusion_lat": 0.0, "is_reserved": 0, "bike_id": "efd12f63219915c75b69e8aba0364176", "lon": -77.04663216666667, "is_disabled": 0}, {"rental_uris": {"android": "https://dc.lft.to/lastmile_qr_scan", "ios": "https://dc.lft.to/lastmile_qr_scan"}, "lat": 38.9199975, "type": "electric_scooter", "name": "858e585ebbba99ed3153cfcda6a0bce9", "fusion_lon": 0.0, "fusion_lat": 0.0, "is_reserved": 0, "bike_id": "858e585ebbba99ed3153cfcda6a0bce9", "lon": -77.01770983333333, "is_disabled": 0}, {"rental_uris": {"android": "https://dc.lft.to/lastmile_qr_scan", "ios": "https://dc.lft.to/lastmile_qr_scan"}, "lat": 38.949765, "type": "electric_scooter", "name": "08336f5b5e1ee189b6d3e39f53f5798f", "fusion_lon": 0.0, "fusion_lat": 0.0, "is_reserved": 0, "bike_id": "08336f5b5e1ee189b6d3e39f53f5798f", "lon": -77.0243315, "is_disabled": 0}, {"rental_uris": {"android": "https://dc.lft.to/lastmile_qr_scan", "ios": "https://dc.lft.to/lastmile_qr_scan"}, "lat": 38.90969, "type": "electric_scooter", "name": "8dcb56d02d16973c919cf0bf5c72d8ec", "fusion_lon": 0.0, "fusion_lat": 0.0, "is_reserved": 0, "bike_id": "8dcb56d02d16973c919cf0bf5c72d8ec", "lon": -77.042355, "is_disabled": 0}, {"rental_uris": {"android": "https://dc.lft.to/lastmile_qr_scan", "ios": "https://dc.lft.to/lastmile_qr_scan"}, "lat": 38.926133666666665, "type": "electric_scooter", "name": "9e46651526dcdf600218c5f4147e59a8", "fusion_lon": 0.0, "fusion_lat": 0.0, "is_reserved": 0, "bike_id": "9e46651526dcdf600218c5f4147e59a8", "lon": -77.02157983333333, "is_disabled": 0}, {"rental_uris": {"android": "https://dc.lft.to/lastmile_qr_scan", "ios": "https://dc.lft.to/lastmile_qr_scan"}, "lat": 38.9085285, "type": "electric_scooter", "name": "6fd1f2b711a84636aebf5a6156e6e3c7", "fusion_lon": 0.0, "fusion_lat": 0.0, "is_reserved": 0, "bike_id": "6fd1f2b711a84636aebf5a6156e6e3c7", "lon": -77.00999283333333, "is_disabled": 0}, {"rental_uris": {"android": "https://dc.lft.to/lastmile_qr_scan", "ios": "https://dc.lft.to/lastmile_qr_scan"}, "lat": 38.92671566666667, "type": "electric_scooter", "name": "ad93ea62b521042a3c13fda875f4844d", "fusion_lon": 0.0, "fusion_lat": 0.0, "is_reserved": 0, "bike_id": "ad93ea62b521042a3c13fda875f4844d", "lon": -77.01524166666667, "is_disabled": 0}, {"rental_uris": {"android": "https://dc.lft.to/lastmile_qr_scan", "ios": "https://dc.lft.to/lastmile_qr_scan"}, "lat": 38.97155, "type": "electric_bike", "name": "14dd1fc9dcdb54b394d8b5f02433bec6", "fusion_lon": 0.0, "fusion_lat": 0.0, "is_reserved": 0, "bike_id": "14dd1fc9dcdb54b394d8b5f02433bec6", "lon": -76.98363716666667, "is_disabled": 0}, {"rental_uris": {"android": "https://dc.lft.to/lastmile_qr_scan", "ios": "https://dc.lft.to/lastmile_qr_scan"}, "lat": 38.892435666666664, "type": "electric_scooter", "name": "4e46c1314605027c5178c3954e2c515e", "fusion_lon": 0.0, "fusion_lat": 0.0, "is_reserved": 0, "bike_id": "4e46c1314605027c5178c3954e2c515e", "lon": -77.0318045, "is_disabled": 0}, {"rental_uris": {"android": "https://dc.lft.to/lastmile_qr_scan", "ios": "https://dc.lft.to/lastmile_qr_scan"}, "lat": 38.8966985, "type": "electric_scooter", "name": "c691468f6fdf27ced603123f2094d36f", "fusion_lon": 0.0, "fusion_lat": 0.0, "is_reserved": 0, "bike_id": "c691468f6fdf27ced603123f2094d36f", "lon": -76.93205166666667, "is_disabled": 0}, {"rental_uris": {"android": "https://dc.lft.to/lastmile_qr_scan", "ios": "https://dc.lft.to/lastmile_qr_scan"}, "lat": 38.880386666666666, "type": "electric_scooter", "name": "ae1ca35eb8c050cd5a52ff48d98048cf", "fusion_lon": 0.0, "fusion_lat": 0.0, "is_reserved": 0, "bike_id": "ae1ca35eb8c050cd5a52ff48d98048cf", "lon": -76.92723316666667, "is_disabled": 0}, {"rental_uris": {"android": "https://dc.lft.to/lastmile_qr_scan", "ios": "https://dc.lft.to/lastmile_qr_scan"}, "lat": 38.923894, "type": "electric_scooter", "name": "3f5c87e0174c144ff5a46ae8d1439753", "fusion_lon": 0.0, "fusion_lat": 0.0, "is_reserved": 0, "bike_id": "3f5c87e0174c144ff5a46ae8d1439753", "lon": -77.02452833333334, "is_disabled": 0}, {"rental_uris": {"android": "https://dc.lft.to/lastmile_qr_scan", "ios": "https://dc.lft.to/lastmile_qr_scan"}, "lat": 38.923664333333335, "type": "electric_scooter", "name": "bb711f8344184d1d47c50e79c84d4d38", "fusion_lon": 0.0, "fusion_lat": 0.0, "is_reserved": 0, "bike_id": "bb711f8344184d1d47c50e79c84d4d38", "lon": -77.05133516666666, "is_disabled": 0}, {"rental_uris": {"android": "https://dc.lft.to/lastmile_qr_scan", "ios": "https://dc.lft.to/lastmile_qr_scan"}, "lat": 38.9039145, "type": "electric_scooter", "name": "5a23433a135f62a637f74281f67cf6fa", "fusion_lon": 0.0, "fusion_lat": 0.0, "is_reserved": 0, "bike_id": "5a23433a135f62a637f74281f67cf6fa", "lon": -77.04678, "is_disabled": 0}, {"rental_uris": {"android": "https://dc.lft.to/lastmile_qr_scan", "ios": "https://dc.lft.to/lastmile_qr_scan"}, "lat": 38.904152833333335, "type": "electric_scooter", "name": "d1bb08f3d8d86b4dadadf2d8a4072f3a", "fusion_lon": 0.0, "fusion_lat": 0.0, "is_reserved": 0, "bike_id": "d1bb08f3d8d86b4dadadf2d8a4072f3a", "lon": -77.03428416666667, "is_disabled": 0}, {"rental_uris": {"android": "https://dc.lft.to/lastmile_qr_scan", "ios": "https://dc.lft.to/lastmile_qr_scan"}, "lat": 38.927597, "type": "electric_scooter", "name": "b66e4a769e2ea04f0da454723da93a24", "fusion_lon": 0.0, "fusion_lat": 0.0, "is_reserved": 0, "bike_id": "b66e4a769e2ea04f0da454723da93a24", "lon": -77.032603, "is_disabled": 0}, {"rental_uris": {"android": "https://dc.lft.to/lastmile_qr_scan", "ios": "https://dc.lft.to/lastmile_qr_scan"}, "lat": 38.90731533333334, "type": "electric_scooter", "name": "bf07008a7de5b2581e058327fe6ec521", "fusion_lon": 0.0, "fusion_lat": 0.0, "is_reserved": 0, "bike_id": "bf07008a7de5b2581e058327fe6ec521", "lon": -77.03203783333333, "is_disabled": 0}, {"rental_uris": {"android": "https://dc.lft.to/lastmile_qr_scan", "ios": "https://dc.lft.to/lastmile_qr_scan"}, "lat": 38.90247183333334, "type": "electric_scooter", "name": "c371db8cdf62f343c9778e4e6ffd2cc5", "fusion_lon": 0.0, "fusion_lat": 0.0, "is_reserved": 0, "bike_id": "c371db8cdf62f343c9778e4e6ffd2cc5", "lon": -77.0018375, "is_disabled": 0}, {"rental_uris": {"android": "https://dc.lft.to/lastmile_qr_scan", "ios": "https://dc.lft.to/lastmile_qr_scan"}, "lat": 38.928972333333334, "type": "electric_scooter", "name": "e37b54cdc3473b697cc1d7c407bfdcca", "fusion_lon": 0.0, "fusion_lat": 0.0, "is_reserved": 0, "bike_id": "e37b54cdc3473b697cc1d7c407bfdcca", "lon": -77.01655033333333, "is_disabled": 0}, {"rental_uris": {"android": "https://dc.lft.to/lastmile_qr_scan", "ios": "https://dc.lft.to/lastmile_qr_scan"}, "lat": 38.92231783333333, "type": "electric_scooter", "name": "8d035b6f02a5d7370f21d08d5ea289a3", "fusion_lon": 0.0, "fusion_lat": 0.0, "is_reserved": 0, "bike_id": "8d035b6f02a5d7370f21d08d5ea289a3", "lon": -77.0220795, "is_disabled": 0}, {"rental_uris": {"android": "https://dc.lft.to/lastmile_qr_scan", "ios": "https://dc.lft.to/lastmile_qr_scan"}, "lat": 38.9264925, "type": "electric_bike", "name": "454d3aeee43df781f37c147a59748bf7", "fusion_lon": 0.0, "fusion_lat": 0.0, "is_reserved": 0, "bike_id": "454d3aeee43df781f37c147a59748bf7", "lon": -77.09017983333334, "is_disabled": 0}, {"rental_uris": {"android": "https://dc.lft.to/lastmile_qr_scan", "ios": "https://dc.lft.to/lastmile_qr_scan"}, "lat": 38.884009666666664, "type": "electric_bike", "name": "febb8178661a84fcada23770f8d7788f", "fusion_lon": 0.0, "fusion_lat": 0.0, "is_reserved": 0, "bike_id": "febb8178661a84fcada23770f8d7788f", "lon": -77.0303665, "is_disabled": 0}, {"rental_uris": {"android": "https://dc.lft.to/lastmile_qr_scan", "ios": "https://dc.lft.to/lastmile_qr_scan"}, "lat": 38.923136666666664, "type": "electric_scooter", "name": "60f350995c0237446a550d7445771675", "fusion_lon": 0.0, "fusion_lat": 0.0, "is_reserved": 0, "bike_id": "60f350995c0237446a550d7445771675", "lon": -77.0290325, "is_disabled": 0}, {"rental_uris": {"android": "https://dc.lft.to/lastmile_qr_scan", "ios": "https://dc.lft.to/lastmile_qr_scan"}, "lat": 38.95134083333333, "type": "electric_scooter", "name": "6dd46c6a44410c4c3339d33d0dd1f4f4", "fusion_lon": 0.0, "fusion_lat": 0.0, "is_reserved": 0, "bike_id": "6dd46c6a44410c4c3339d33d0dd1f4f4", "lon": -77.02725066666666, "is_disabled": 0}, {"rental_uris": {"android": "https://dc.lft.to/lastmile_qr_scan", "ios": "https://dc.lft.to/lastmile_qr_scan"}, "lat": 38.902653, "type": "electric_scooter", "name": "6bda7b78d246d097cae268f0b3d54858", "fusion_lon": 0.0, "fusion_lat": 0.0, "is_reserved": 0, "bike_id": "6bda7b78d246d097cae268f0b3d54858", "lon": -77.00326066666666, "is_disabled": 0}, {"rental_uris": {"android": "https://dc.lft.to/lastmile_qr_scan", "ios": "https://dc.lft.to/lastmile_qr_scan"}, "lat": 38.9268495, "type": "electric_scooter", "name": "32750fc908355de950f4d43bd1ad3e3b", "fusion_lon": 0.0, "fusion_lat": 0.0, "is_reserved": 0, "bike_id": "32750fc908355de950f4d43bd1ad3e3b", "lon": -77.01573316666666, "is_disabled": 0}, {"rental_uris": {"android": "https://dc.lft.to/lastmile_qr_scan", "ios": "https://dc.lft.to/lastmile_qr_scan"}, "lat": 38.949224, "type": "electric_bike", "name": "8f7386e4c8f2d93caf90381d72a2d816", "fusion_lon": 0.0, "fusion_lat": 0.0, "is_reserved": 0, "bike_id": "8f7386e4c8f2d93caf90381d72a2d816", "lon": -77.007971, "is_disabled": 0}, {"rental_uris": {"android": "https://dc.lft.to/lastmile_qr_scan", "ios": "https://dc.lft.to/lastmile_qr_scan"}, "lat": 38.917679666666665, "type": "electric_scooter", "name": "f40cdc8c187c3566923399e60910610a", "fusion_lon": 0.0, "fusion_lat": 0.0, "is_reserved": 0, "bike_id": "f40cdc8c187c3566923399e60910610a", "lon": -77.02314483333333, "is_disabled": 0}, {"rental_uris": {"android": "https://dc.lft.to/lastmile_qr_scan", "ios": "https://dc.lft.to/lastmile_qr_scan"}, "lat": 38.914760666666666, "type": "electric_scooter", "name": "5ebfa6b905bfeb4c0d4ca5553e6a5efd", "fusion_lon": 0.0, "fusion_lat": 0.0, "is_reserved": 0, "bike_id": "5ebfa6b905bfeb4c0d4ca5553e6a5efd", "lon": -77.03207066666667, "is_disabled": 0}, {"rental_uris": {"android": "https://dc.lft.to/lastmile_qr_scan", "ios": "https://dc.lft.to/lastmile_qr_scan"}, "lat": 38.920105166666666, "type": "electric_scooter", "name": "f27dc1ac687c08ee313c4ad08b93f564", "fusion_lon": 0.0, "fusion_lat": 0.0, "is_reserved": 0, "bike_id": "f27dc1ac687c08ee313c4ad08b93f564", "lon": -77.03781633333334, "is_disabled": 0}, {"rental_uris": {"android": "https://dc.lft.to/lastmile_qr_scan", "ios": "https://dc.lft.to/lastmile_qr_scan"}, "lat": 38.89455533333334, "type": "electric_scooter", "name": "df25e74a4d75ed6f4cd954c2e94888d0", "fusion_lon": 0.0, "fusion_lat": 0.0, "is_reserved": 0, "bike_id": "df25e74a4d75ed6f4cd954c2e94888d0", "lon": -77.02681866666667, "is_disabled": 0}, {"rental_uris": {"android": "https://dc.lft.to/lastmile_qr_scan", "ios": "https://dc.lft.to/lastmile_qr_scan"}, "lat": 38.87978866666667, "type": "electric_bike", "name": "b8ff68ede32a00a2e3166b348642fe8d", "fusion_lon": 0.0, "fusion_lat": 0.0, "is_reserved": 0, "bike_id": "b8ff68ede32a00a2e3166b348642fe8d", "lon": -76.98469016666667, "is_disabled": 0}, {"rental_uris": {"android": "https://dc.lft.to/lastmile_qr_scan", "ios": "https://dc.lft.to/lastmile_qr_scan"}, "lat": 38.9067475, "type": "electric_scooter", "name": "aebec4a5fadb5dc6280916945df20227", "fusion_lon": 0.0, "fusion_lat": 0.0, "is_reserved": 0, "bike_id": "aebec4a5fadb5dc6280916945df20227", "lon": -77.04880766666666, "is_disabled": 0}, {"rental_uris": {"android": "https://dc.lft.to/lastmile_qr_scan", "ios": "https://dc.lft.to/lastmile_qr_scan"}, "lat": 38.92356983333333, "type": "electric_scooter", "name": "b75aad1eed027e31a4e168040c74aff7", "fusion_lon": 0.0, "fusion_lat": 0.0, "is_reserved": 0, "bike_id": "b75aad1eed027e31a4e168040c74aff7", "lon": -77.02097433333333, "is_disabled": 0}, {"rental_uris": {"android": "https://dc.lft.to/lastmile_qr_scan", "ios": "https://dc.lft.to/lastmile_qr_scan"}, "lat": 38.904035, "type": "electric_scooter", "name": "1585e38120b9d2a0eed4348964123308", "fusion_lon": 0.0, "fusion_lat": 0.0, "is_reserved": 0, "bike_id": "1585e38120b9d2a0eed4348964123308", "lon": -77.0324885, "is_disabled": 0}, {"rental_uris": {"android": "https://dc.lft.to/lastmile_qr_scan", "ios": "https://dc.lft.to/lastmile_qr_scan"}, "lat": 38.87657166666666, "type": "electric_scooter", "name": "76ccaaa84524a8b5052a57aff5327fea", "fusion_lon": 0.0, "fusion_lat": 0.0, "is_reserved": 0, "bike_id": "76ccaaa84524a8b5052a57aff5327fea", "lon": -77.00062633333333, "is_disabled": 0}, {"rental_uris": {"android": "https://dc.lft.to/lastmile_qr_scan", "ios": "https://dc.lft.to/lastmile_qr_scan"}, "lat": 38.908068, "type": "electric_scooter", "name": "9a2745d651b72815d542fa6540eb3b92", "fusion_lon": 0.0, "fusion_lat": 0.0, "is_reserved": 0, "bike_id": "9a2745d651b72815d542fa6540eb3b92", "lon": -77.08395966666667, "is_disabled": 0}, {"rental_uris": {"android": "https://dc.lft.to/lastmile_qr_scan", "ios": "https://dc.lft.to/lastmile_qr_scan"}, "lat": 38.9059055, "type": "electric_scooter", "name": "c3b5f30cdac2e2fa9f367a3dd122084f", "fusion_lon": 0.0, "fusion_lat": 0.0, "is_reserved": 0, "bike_id": "c3b5f30cdac2e2fa9f367a3dd122084f", "lon": -77.04147116666667, "is_disabled": 0}, {"rental_uris": {"android": "https://dc.lft.to/lastmile_qr_scan", "ios": "https://dc.lft.to/lastmile_qr_scan"}, "lat": 38.86281866666667, "type": "electric_bike", "name": "7759d87adf73c3735b0c676cd41f071e", "fusion_lon": 0.0, "fusion_lat": 0.0, "is_reserved": 0, "bike_id": "7759d87adf73c3735b0c676cd41f071e", "lon": -76.945168, "is_disabled": 0}, {"rental_uris": {"android": "https://dc.lft.to/lastmile_qr_scan", "ios": "https://dc.lft.to/lastmile_qr_scan"}, "lat": 38.90861316666667, "type": "electric_bike", "name": "91dfc430f38869250299c0f876292e20", "fusion_lon": 0.0, "fusion_lat": 0.0, "is_reserved": 0, "bike_id": "91dfc430f38869250299c0f876292e20", "lon": -77.08078266666666, "is_disabled": 0}, {"rental_uris": {"android": "https://dc.lft.to/lastmile_qr_scan", "ios": "https://dc.lft.to/lastmile_qr_scan"}, "lat": 38.85575583333333, "type": "electric_bike", "name": "acd75b5d9924eff892a56d874b50ddc6", "fusion_lon": 0.0, "fusion_lat": 0.0, "is_reserved": 0, "bike_id": "acd75b5d9924eff892a56d874b50ddc6", "lon": -77.05333966666667, "is_disabled": 0}, {"rental_uris": {"android": "https://dc.lft.to/lastmile_qr_scan", "ios": "https://dc.lft.to/lastmile_qr_scan"}, "lat": 38.97551516666667, "type": "electric_scooter", "name": "815072d1b9a11fb45135f0e801173a61", "fusion_lon": 0.0, "fusion_lat": 0.0, "is_reserved": 0, "bike_id": "815072d1b9a11fb45135f0e801173a61", "lon": -77.0263895, "is_disabled": 0}, {"rental_uris": {"android": "https://dc.lft.to/lastmile_qr_scan", "ios": "https://dc.lft.to/lastmile_qr_scan"}, "lat": 38.934598, "type": "electric_scooter", "name": "f775aa03cbdcdf8bb5908ec917729e82", "fusion_lon": 0.0, "fusion_lat": 0.0, "is_reserved": 0, "bike_id": "f775aa03cbdcdf8bb5908ec917729e82", "lon": -77.08635916666667, "is_disabled": 0}, {"rental_uris": {"android": "https://dc.lft.to/lastmile_qr_scan", "ios": "https://dc.lft.to/lastmile_qr_scan"}, "lat": 38.87119666666667, "type": "electric_scooter", "name": "f9a9a74a0dcfbd59f9dfb9f77b339a8e", "fusion_lon": 0.0, "fusion_lat": 0.0, "is_reserved": 0, "bike_id": "f9a9a74a0dcfbd59f9dfb9f77b339a8e", "lon": -77.00906766666667, "is_disabled": 0}, {"rental_uris": {"android": "https://dc.lft.to/lastmile_qr_scan", "ios": "https://dc.lft.to/lastmile_qr_scan"}, "lat": 38.91057133333333, "type": "electric_scooter", "name": "3d442c416ef1a0bd540a62e1d3d4368c", "fusion_lon": 0.0, "fusion_lat": 0.0, "is_reserved": 0, "bike_id": "3d442c416ef1a0bd540a62e1d3d4368c", "lon": -77.021835, "is_disabled": 0}, {"rental_uris": {"android": "https://dc.lft.to/lastmile_qr_scan", "ios": "https://dc.lft.to/lastmile_qr_scan"}, "lat": 38.917221833333336, "type": "electric_scooter", "name": "de55a3c9d5a047a8d3969fbc21c72ab2", "fusion_lon": 0.0, "fusion_lat": 0.0, "is_reserved": 0, "bike_id": "de55a3c9d5a047a8d3969fbc21c72ab2", "lon": -77.02289133333333, "is_disabled": 0}, {"rental_uris": {"android": "https://dc.lft.to/lastmile_qr_scan", "ios": "https://dc.lft.to/lastmile_qr_scan"}, "lat": 38.928143666666664, "type": "electric_scooter", "name": "6ca6cb182087d742e64836e20f9d3e0c", "fusion_lon": 0.0, "fusion_lat": 0.0, "is_reserved": 0, "bike_id": "6ca6cb182087d742e64836e20f9d3e0c", "lon": -77.02328383333334, "is_disabled": 0}, {"rental_uris": {"android": "https://dc.lft.to/lastmile_qr_scan", "ios": "https://dc.lft.to/lastmile_qr_scan"}, "lat": 38.904893666666666, "type": "electric_scooter", "name": "5a748c810066ab79f4690d556fdd8842", "fusion_lon": 0.0, "fusion_lat": 0.0, "is_reserved": 0, "bike_id": "5a748c810066ab79f4690d556fdd8842", "lon": -77.04864466666666, "is_disabled": 0}, {"rental_uris": {"android": "https://dc.lft.to/lastmile_qr_scan", "ios": "https://dc.lft.to/lastmile_qr_scan"}, "lat": 38.90220683333333, "type": "electric_bike", "name": "f97d4d04e0e6ff18be5d2f37ebc89616", "fusion_lon": 0.0, "fusion_lat": 0.0, "is_reserved": 0, "bike_id": "f97d4d04e0e6ff18be5d2f37ebc89616", "lon": -76.9317605, "is_disabled": 0}, {"rental_uris": {"android": "https://dc.lft.to/lastmile_qr_scan", "ios": "https://dc.lft.to/lastmile_qr_scan"}, "lat": 38.924434833333336, "type": "electric_scooter", "name": "b9de017f383ddefe832816ec0628588b", "fusion_lon": 0.0, "fusion_lat": 0.0, "is_reserved": 0, "bike_id": "b9de017f383ddefe832816ec0628588b", "lon": -77.02150833333333, "is_disabled": 0}, {"rental_uris": {"android": "https://dc.lft.to/lastmile_qr_scan", "ios": "https://dc.lft.to/lastmile_qr_scan"}, "lat": 38.90495033333333, "type": "electric_scooter", "name": "f08f7c65272b95c16883864c36b9b3e4", "fusion_lon": 0.0, "fusion_lat": 0.0, "is_reserved": 0, "bike_id": "f08f7c65272b95c16883864c36b9b3e4", "lon": -77.02977416666667, "is_disabled": 0}, {"rental_uris": {"android": "https://dc.lft.to/lastmile_qr_scan", "ios": "https://dc.lft.to/lastmile_qr_scan"}, "lat": 38.90941466666666, "type": "electric_scooter", "name": "b8ae61308ab082a3cc007e788bb7f12c", "fusion_lon": 0.0, "fusion_lat": 0.0, "is_reserved": 0, "bike_id": "b8ae61308ab082a3cc007e788bb7f12c", "lon": -76.983064, "is_disabled": 0}, {"rental_uris": {"android": "https://dc.lft.to/lastmile_qr_scan", "ios": "https://dc.lft.to/lastmile_qr_scan"}, "lat": 38.905199, "type": "electric_scooter", "name": "be7bf92bb7be9433d13a2eae3feb47f4", "fusion_lon": 0.0, "fusion_lat": 0.0, "is_reserved": 0, "bike_id": "be7bf92bb7be9433d13a2eae3feb47f4", "lon": -77.0604555, "is_disabled": 0}, {"rental_uris": {"android": "https://dc.lft.to/lastmile_qr_scan", "ios": "https://dc.lft.to/lastmile_qr_scan"}, "lat": 38.838677833333335, "type": "electric_bike", "name": "21f4e62d32fc7b3c67a9c00277a83f11", "fusion_lon": 0.0, "fusion_lat": 0.0, "is_reserved": 0, "bike_id": "21f4e62d32fc7b3c67a9c00277a83f11", "lon": -76.996972, "is_disabled": 0}, {"rental_uris": {"android": "https://dc.lft.to/lastmile_qr_scan", "ios": "https://dc.lft.to/lastmile_qr_scan"}, "lat": 38.940956666666665, "type": "electric_scooter", "name": "f7ac4c18c5cbfc8253503999f465363b", "fusion_lon": 0.0, "fusion_lat": 0.0, "is_reserved": 0, "bike_id": "f7ac4c18c5cbfc8253503999f465363b", "lon": -77.0298505, "is_disabled": 0}, {"rental_uris": {"android": "https://dc.lft.to/lastmile_qr_scan", "ios": "https://dc.lft.to/lastmile_qr_scan"}, "lat": 38.900563, "type": "electric_bike", "name": "8269e3e69e7370e706cd4ff3359d3419", "fusion_lon": 0.0, "fusion_lat": 0.0, "is_reserved": 0, "bike_id": "8269e3e69e7370e706cd4ff3359d3419", "lon": -77.0471675, "is_disabled": 0}, {"rental_uris": {"android": "https://dc.lft.to/lastmile_qr_scan", "ios": "https://dc.lft.to/lastmile_qr_scan"}, "lat": 38.905635333333336, "type": "electric_scooter", "name": "e72e3a6f605acec31ce90d5fedf1fbef", "fusion_lon": 0.0, "fusion_lat": 0.0, "is_reserved": 0, "bike_id": "e72e3a6f605acec31ce90d5fedf1fbef", "lon": -77.039643, "is_disabled": 0}, {"rental_uris": {"android": "https://dc.lft.to/lastmile_qr_scan", "ios": "https://dc.lft.to/lastmile_qr_scan"}, "lat": 38.89223783333333, "type": "electric_scooter", "name": "b919e120c1c5d61b52bf27f3b0db4920", "fusion_lon": 0.0, "fusion_lat": 0.0, "is_reserved": 0, "bike_id": "b919e120c1c5d61b52bf27f3b0db4920", "lon": -77.03130666666667, "is_disabled": 0}, {"rental_uris": {"android": "https://dc.lft.to/lastmile_qr_scan", "ios": "https://dc.lft.to/lastmile_qr_scan"}, "lat": 38.94730066666666, "type": "electric_scooter", "name": "754360f7c7da5695a3b4c3d74e9a91df", "fusion_lon": 0.0, "fusion_lat": 0.0, "is_reserved": 0, "bike_id": "754360f7c7da5695a3b4c3d74e9a91df", "lon": -77.06548766666667, "is_disabled": 0}, {"rental_uris": {"android": "https://dc.lft.to/lastmile_qr_scan", "ios": "https://dc.lft.to/lastmile_qr_scan"}, "lat": 38.8993965, "type": "electric_scooter", "name": "58cb358c05693ffda091a662fc5ef89b", "fusion_lon": 0.0, "fusion_lat": 0.0, "is_reserved": 0, "bike_id": "58cb358c05693ffda091a662fc5ef89b", "lon": -77.04101366666667, "is_disabled": 0}, {"rental_uris": {"android": "https://dc.lft.to/lastmile_qr_scan", "ios": "https://dc.lft.to/lastmile_qr_scan"}, "lat": 38.903836166666665, "type": "electric_scooter", "name": "7ecc5bccc6d4e89ced91fc962e9e8df5", "fusion_lon": 0.0, "fusion_lat": 0.0, "is_reserved": 0, "bike_id": "7ecc5bccc6d4e89ced91fc962e9e8df5", "lon": -77.03183366666667, "is_disabled": 0}, {"rental_uris": {"android": "https://dc.lft.to/lastmile_qr_scan", "ios": "https://dc.lft.to/lastmile_qr_scan"}, "lat": 38.88513416666667, "type": "electric_scooter", "name": "e67572f3170bef1aa0fc7b2720a14cfe", "fusion_lon": 0.0, "fusion_lat": 0.0, "is_reserved": 0, "bike_id": "e67572f3170bef1aa0fc7b2720a14cfe", "lon": -77.00560216666666, "is_disabled": 0}, {"rental_uris": {"android": "https://dc.lft.to/lastmile_qr_scan", "ios": "https://dc.lft.to/lastmile_qr_scan"}, "lat": 38.899105166666665, "type": "electric_scooter", "name": "6e8c777283d75364c1209dddefc4f08a", "fusion_lon": 0.0, "fusion_lat": 0.0, "is_reserved": 0, "bike_id": "6e8c777283d75364c1209dddefc4f08a", "lon": -77.03327133333333, "is_disabled": 0}, {"rental_uris": {"android": "https://dc.lft.to/lastmile_qr_scan", "ios": "https://dc.lft.to/lastmile_qr_scan"}, "lat": 38.902424833333335, "type": "electric_scooter", "name": "3c790de64574ae1a11f2abfd74dd09d4", "fusion_lon": 0.0, "fusion_lat": 0.0, "is_reserved": 0, "bike_id": "3c790de64574ae1a11f2abfd74dd09d4", "lon": -77.032567, "is_disabled": 0}, {"rental_uris": {"android": "https://dc.lft.to/lastmile_qr_scan", "ios": "https://dc.lft.to/lastmile_qr_scan"}, "lat": 38.9167205, "type": "electric_scooter", "name": "6b8fe819ef9964ac49dc554a3c1dff1b", "fusion_lon": 0.0, "fusion_lat": 0.0, "is_reserved": 0, "bike_id": "6b8fe819ef9964ac49dc554a3c1dff1b", "lon": -77.03212066666667, "is_disabled": 0}, {"rental_uris": {"android": "https://dc.lft.to/lastmile_qr_scan", "ios": "https://dc.lft.to/lastmile_qr_scan"}, "lat": 38.907951833333335, "type": "electric_scooter", "name": "b97c1050716df962ef6f6cf02979ff4b", "fusion_lon": 0.0, "fusion_lat": 0.0, "is_reserved": 0, "bike_id": "b97c1050716df962ef6f6cf02979ff4b", "lon": -77.06429916666667, "is_disabled": 0}, {"rental_uris": {"android": "https://dc.lft.to/lastmile_qr_scan", "ios": "https://dc.lft.to/lastmile_qr_scan"}, "lat": 38.92439666666667, "type": "electric_scooter", "name": "a98c8a649c9e2ab63d56652e8b722fa1", "fusion_lon": 0.0, "fusion_lat": 0.0, "is_reserved": 0, "bike_id": "a98c8a649c9e2ab63d56652e8b722fa1", "lon": -77.020229, "is_disabled": 0}, {"rental_uris": {"android": "https://dc.lft.to/lastmile_qr_scan", "ios": "https://dc.lft.to/lastmile_qr_scan"}, "lat": 38.89744, "type": "electric_scooter", "name": "f3eb3cfdad105fee32dee6e60007dc6d", "fusion_lon": 0.0, "fusion_lat": 0.0, "is_reserved": 0, "bike_id": "f3eb3cfdad105fee32dee6e60007dc6d", "lon": -77.044235, "is_disabled": 0}, {"rental_uris": {"android": "https://dc.lft.to/lastmile_qr_scan", "ios": "https://dc.lft.to/lastmile_qr_scan"}, "lat": 38.89462783333333, "type": "electric_scooter", "name": "872040b6f6e2772aadc30b7e30363c34", "fusion_lon": 0.0, "fusion_lat": 0.0, "is_reserved": 0, "bike_id": "872040b6f6e2772aadc30b7e30363c34", "lon": -77.021054, "is_disabled": 0}, {"rental_uris": {"android": "https://dc.lft.to/lastmile_qr_scan", "ios": "https://dc.lft.to/lastmile_qr_scan"}, "lat": 38.900350333333336, "type": "electric_scooter", "name": "a37efcd10140181c76e8c884ea6d9c8e", "fusion_lon": 0.0, "fusion_lat": 0.0, "is_reserved": 0, "bike_id": "a37efcd10140181c76e8c884ea6d9c8e", "lon": -76.98854266666666, "is_disabled": 0}, {"rental_uris": {"android": "https://dc.lft.to/lastmile_qr_scan", "ios": "https://dc.lft.to/lastmile_qr_scan"}, "lat": 38.90004533333333, "type": "electric_scooter", "name": "a5e9e46804a6103a9676e4c792be66f7", "fusion_lon": 0.0, "fusion_lat": 0.0, "is_reserved": 0, "bike_id": "a5e9e46804a6103a9676e4c792be66f7", "lon": -77.04126233333334, "is_disabled": 0}, {"rental_uris": {"android": "https://dc.lft.to/lastmile_qr_scan", "ios": "https://dc.lft.to/lastmile_qr_scan"}, "lat": 38.899129, "type": "electric_scooter", "name": "466a0ea7cbc23d5bd043ca50e334b2fd", "fusion_lon": 0.0, "fusion_lat": 0.0, "is_reserved": 0, "bike_id": "466a0ea7cbc23d5bd043ca50e334b2fd", "lon": -77.03378783333334, "is_disabled": 0}, {"rental_uris": {"android": "https://dc.lft.to/lastmile_qr_scan", "ios": "https://dc.lft.to/lastmile_qr_scan"}, "lat": 38.90141216666667, "type": "electric_scooter", "name": "90eb47f21c3b3b1d42d7ed41a48a2e73", "fusion_lon": 0.0, "fusion_lat": 0.0, "is_reserved": 0, "bike_id": "90eb47f21c3b3b1d42d7ed41a48a2e73", "lon": -77.02928966666667, "is_disabled": 0}, {"rental_uris": {"android": "https://dc.lft.to/lastmile_qr_scan", "ios": "https://dc.lft.to/lastmile_qr_scan"}, "lat": 38.910675, "type": "electric_scooter", "name": "d2fd279b274ef528e14f1635c5c83c45", "fusion_lon": 0.0, "fusion_lat": 0.0, "is_reserved": 0, "bike_id": "d2fd279b274ef528e14f1635c5c83c45", "lon": -77.04377916666667, "is_disabled": 0}, {"rental_uris": {"android": "https://dc.lft.to/lastmile_qr_scan", "ios": "https://dc.lft.to/lastmile_qr_scan"}, "lat": 38.92629866666667, "type": "electric_scooter", "name": "ab6dee1cccc5477cfc0d34e25cea32fc", "fusion_lon": 0.0, "fusion_lat": 0.0, "is_reserved": 0, "bike_id": "ab6dee1cccc5477cfc0d34e25cea32fc", "lon": -77.07315583333333, "is_disabled": 0}, {"rental_uris": {"android": "https://dc.lft.to/lastmile_qr_scan", "ios": "https://dc.lft.to/lastmile_qr_scan"}, "lat": 38.922657, "type": "electric_scooter", "name": "5a66d40bd041dae8cdb6b933691ee105", "fusion_lon": 0.0, "fusion_lat": 0.0, "is_reserved": 0, "bike_id": "5a66d40bd041dae8cdb6b933691ee105", "lon": -77.01942916666667, "is_disabled": 0}, {"rental_uris": {"android": "https://dc.lft.to/lastmile_qr_scan", "ios": "https://dc.lft.to/lastmile_qr_scan"}, "lat": 38.908701, "type": "electric_scooter", "name": "07ef72663f441da6fa1a4d7996cdbcd9", "fusion_lon": 0.0, "fusion_lat": 0.0, "is_reserved": 0, "bike_id": "07ef72663f441da6fa1a4d7996cdbcd9", "lon": -77.03753583333334, "is_disabled": 0}, {"rental_uris": {"android": "https://dc.lft.to/lastmile_qr_scan", "ios": "https://dc.lft.to/lastmile_qr_scan"}, "lat": 38.93662416666667, "type": "electric_scooter", "name": "c1db23c796c4c25a0a477deba3741ca5", "fusion_lon": 0.0, "fusion_lat": 0.0, "is_reserved": 0, "bike_id": "c1db23c796c4c25a0a477deba3741ca5", "lon": -77.066079, "is_disabled": 0}, {"rental_uris": {"android": "https://dc.lft.to/lastmile_qr_scan", "ios": "https://dc.lft.to/lastmile_qr_scan"}, "lat": 38.92155183333333, "type": "electric_scooter", "name": "07dbb00b38d2cd62fbe5fc50d4b9c962", "fusion_lon": 0.0, "fusion_lat": 0.0, "is_reserved": 0, "bike_id": "07dbb00b38d2cd62fbe5fc50d4b9c962", "lon": -77.035091, "is_disabled": 0}, {"rental_uris": {"android": "https://dc.lft.to/lastmile_qr_scan", "ios": "https://dc.lft.to/lastmile_qr_scan"}, "lat": 38.89984283333333, "type": "electric_scooter", "name": "aa34f8b9be44d73df0cf323e799951b3", "fusion_lon": 0.0, "fusion_lat": 0.0, "is_reserved": 0, "bike_id": "aa34f8b9be44d73df0cf323e799951b3", "lon": -77.03938633333334, "is_disabled": 0}, {"rental_uris": {"android": "https://dc.lft.to/lastmile_qr_scan", "ios": "https://dc.lft.to/lastmile_qr_scan"}, "lat": 38.91610683333333, "type": "electric_scooter", "name": "9a7d6f30ee6c77060f91d045a9499903", "fusion_lon": 0.0, "fusion_lat": 0.0, "is_reserved": 0, "bike_id": "9a7d6f30ee6c77060f91d045a9499903", "lon": -77.02294983333333, "is_disabled": 0}, {"rental_uris": {"android": "https://dc.lft.to/lastmile_qr_scan", "ios": "https://dc.lft.to/lastmile_qr_scan"}, "lat": 38.92512033333333, "type": "electric_scooter", "name": "0db11b7d849b811e67c812a828239ac5", "fusion_lon": 0.0, "fusion_lat": 0.0, "is_reserved": 0, "bike_id": "0db11b7d849b811e67c812a828239ac5", "lon": -77.0022315, "is_disabled": 0}, {"rental_uris": {"android": "https://dc.lft.to/lastmile_qr_scan", "ios": "https://dc.lft.to/lastmile_qr_scan"}, "lat": 38.9007035, "type": "electric_scooter", "name": "c81fad56929cad42a24bf1ed17355a73", "fusion_lon": 0.0, "fusion_lat": 0.0, "is_reserved": 0, "bike_id": "c81fad56929cad42a24bf1ed17355a73", "lon": -77.0488905, "is_disabled": 0}, {"rental_uris": {"android": "https://dc.lft.to/lastmile_qr_scan", "ios": "https://dc.lft.to/lastmile_qr_scan"}, "lat": 38.88715466666667, "type": "electric_scooter", "name": "c714f97f293d7c4dcc3f1795937e0d5b", "fusion_lon": 0.0, "fusion_lat": 0.0, "is_reserved": 0, "bike_id": "c714f97f293d7c4dcc3f1795937e0d5b", "lon": -77.02826516666667, "is_disabled": 0}, {"rental_uris": {"android": "https://dc.lft.to/lastmile_qr_scan", "ios": "https://dc.lft.to/lastmile_qr_scan"}, "lat": 38.873762666666664, "type": "electric_scooter", "name": "72368c306f343d0fb73fde6a4d0224bc", "fusion_lon": 0.0, "fusion_lat": 0.0, "is_reserved": 0, "bike_id": "72368c306f343d0fb73fde6a4d0224bc", "lon": -77.0009605, "is_disabled": 0}, {"rental_uris": {"android": "https://dc.lft.to/lastmile_qr_scan", "ios": "https://dc.lft.to/lastmile_qr_scan"}, "lat": 38.88656666666667, "type": "electric_scooter", "name": "119bdf42f01472087a149a9db629d6e7", "fusion_lon": 0.0, "fusion_lat": 0.0, "is_reserved": 0, "bike_id": "119bdf42f01472087a149a9db629d6e7", "lon": -77.00204, "is_disabled": 0}, {"rental_uris": {"android": "https://dc.lft.to/lastmile_qr_scan", "ios": "https://dc.lft.to/lastmile_qr_scan"}, "lat": 38.92924433333334, "type": "electric_scooter", "name": "393d373e0c51f765118aeb0893838695", "fusion_lon": 0.0, "fusion_lat": 0.0, "is_reserved": 0, "bike_id": "393d373e0c51f765118aeb0893838695", "lon": -77.03274933333333, "is_disabled": 0}, {"rental_uris": {"android": "https://dc.lft.to/lastmile_qr_scan", "ios": "https://dc.lft.to/lastmile_qr_scan"}, "lat": 38.92021966666667, "type": "electric_scooter", "name": "7e5778dba58bc0cb6cd77be75b86c410", "fusion_lon": 0.0, "fusion_lat": 0.0, "is_reserved": 0, "bike_id": "7e5778dba58bc0cb6cd77be75b86c410", "lon": -77.03098516666667, "is_disabled": 0}, {"rental_uris": {"android": "https://dc.lft.to/lastmile_qr_scan", "ios": "https://dc.lft.to/lastmile_qr_scan"}, "lat": 38.95761483333333, "type": "electric_scooter", "name": "6bc6452b11bdc2c1c0ed3158478672ee", "fusion_lon": 0.0, "fusion_lat": 0.0, "is_reserved": 0, "bike_id": "6bc6452b11bdc2c1c0ed3158478672ee", "lon": -77.00913016666667, "is_disabled": 0}, {"rental_uris": {"android": "https://dc.lft.to/lastmile_qr_scan", "ios": "https://dc.lft.to/lastmile_qr_scan"}, "lat": 38.923324, "type": "electric_scooter", "name": "4f7885069029663c14f919a4c2a248a0", "fusion_lon": 0.0, "fusion_lat": 0.0, "is_reserved": 0, "bike_id": "4f7885069029663c14f919a4c2a248a0", "lon": -77.03499666666667, "is_disabled": 0}, {"rental_uris": {"android": "https://dc.lft.to/lastmile_qr_scan", "ios": "https://dc.lft.to/lastmile_qr_scan"}, "lat": 38.89613816666667, "type": "electric_scooter", "name": "410ab96cabcadd01dbb4af4b0e8142b6", "fusion_lon": 0.0, "fusion_lat": 0.0, "is_reserved": 0, "bike_id": "410ab96cabcadd01dbb4af4b0e8142b6", "lon": -77.02209233333333, "is_disabled": 0}, {"rental_uris": {"android": "https://dc.lft.to/lastmile_qr_scan", "ios": "https://dc.lft.to/lastmile_qr_scan"}, "lat": 38.925758333333334, "type": "electric_scooter", "name": "1d6dce17e2a17786f87e2aa9ebdc33a0", "fusion_lon": 0.0, "fusion_lat": 0.0, "is_reserved": 0, "bike_id": "1d6dce17e2a17786f87e2aa9ebdc33a0", "lon": -77.0256795, "is_disabled": 0}, {"rental_uris": {"android": "https://dc.lft.to/lastmile_qr_scan", "ios": "https://dc.lft.to/lastmile_qr_scan"}, "lat": 38.92271216666666, "type": "electric_scooter", "name": "03c39d8559864485eeacbedef00e06d1", "fusion_lon": 0.0, "fusion_lat": 0.0, "is_reserved": 0, "bike_id": "03c39d8559864485eeacbedef00e06d1", "lon": -77.0194995, "is_disabled": 0}, {"rental_uris": {"android": "https://dc.lft.to/lastmile_qr_scan", "ios": "https://dc.lft.to/lastmile_qr_scan"}, "lat": 38.92772166666666, "type": "electric_scooter", "name": "41ece3f2a3477f0f5b61f8778930eb6c", "fusion_lon": 0.0, "fusion_lat": 0.0, "is_reserved": 0, "bike_id": "41ece3f2a3477f0f5b61f8778930eb6c", "lon": -77.027386, "is_disabled": 0}, {"rental_uris": {"android": "https://dc.lft.to/lastmile_qr_scan", "ios": "https://dc.lft.to/lastmile_qr_scan"}, "lat": 38.916818666666664, "type": "electric_scooter", "name": "a574a31f1b1910dfa3a3fc6e7e2ff866", "fusion_lon": 0.0, "fusion_lat": 0.0, "is_reserved": 0, "bike_id": "a574a31f1b1910dfa3a3fc6e7e2ff866", "lon": -77.02968483333333, "is_disabled": 0}, {"rental_uris": {"android": "https://dc.lft.to/lastmile_qr_scan", "ios": "https://dc.lft.to/lastmile_qr_scan"}, "lat": 38.91556083333333, "type": "electric_scooter", "name": "fc98e4048e29707e7cfca2809fdd86e0", "fusion_lon": 0.0, "fusion_lat": 0.0, "is_reserved": 0, "bike_id": "fc98e4048e29707e7cfca2809fdd86e0", "lon": -77.05204916666666, "is_disabled": 0}, {"rental_uris": {"android": "https://dc.lft.to/lastmile_qr_scan", "ios": "https://dc.lft.to/lastmile_qr_scan"}, "lat": 38.9004865, "type": "electric_bike", "name": "2deb2506ecd365312b92a14099937948", "fusion_lon": 0.0, "fusion_lat": 0.0, "is_reserved": 0, "bike_id": "2deb2506ecd365312b92a14099937948", "lon": -77.043356, "is_disabled": 0}, {"rental_uris": {"android": "https://dc.lft.to/lastmile_qr_scan", "ios": "https://dc.lft.to/lastmile_qr_scan"}, "lat": 38.911924166666665, "type": "electric_scooter", "name": "bf053bfa06637b686cb5423362447954", "fusion_lon": 0.0, "fusion_lat": 0.0, "is_reserved": 0, "bike_id": "bf053bfa06637b686cb5423362447954", "lon": -77.04287883333333, "is_disabled": 0}, {"rental_uris": {"android": "https://dc.lft.to/lastmile_qr_scan", "ios": "https://dc.lft.to/lastmile_qr_scan"}, "lat": 38.89510033333333, "type": "electric_scooter", "name": "ed076d9c099654ea2fe4fbaa9c24094b", "fusion_lon": 0.0, "fusion_lat": 0.0, "is_reserved": 0, "bike_id": "ed076d9c099654ea2fe4fbaa9c24094b", "lon": -77.04188333333333, "is_disabled": 0}, {"rental_uris": {"android": "https://dc.lft.to/lastmile_qr_scan", "ios": "https://dc.lft.to/lastmile_qr_scan"}, "lat": 38.892237333333334, "type": "electric_scooter", "name": "75bab9fa5a7f949ad7db34614272b33c", "fusion_lon": 0.0, "fusion_lat": 0.0, "is_reserved": 0, "bike_id": "75bab9fa5a7f949ad7db34614272b33c", "lon": -77.03131316666666, "is_disabled": 0}, {"rental_uris": {"android": "https://dc.lft.to/lastmile_qr_scan", "ios": "https://dc.lft.to/lastmile_qr_scan"}, "lat": 38.896498, "type": "electric_scooter", "name": "6d6180a7613ac6d6eec43b5f58ec5dba", "fusion_lon": 0.0, "fusion_lat": 0.0, "is_reserved": 0, "bike_id": "6d6180a7613ac6d6eec43b5f58ec5dba", "lon": -77.02393566666667, "is_disabled": 0}, {"rental_uris": {"android": "https://dc.lft.to/lastmile_qr_scan", "ios": "https://dc.lft.to/lastmile_qr_scan"}, "lat": 38.87462633333333, "type": "electric_scooter", "name": "a9d3c0d148860491367bffddd16cd4c6", "fusion_lon": 0.0, "fusion_lat": 0.0, "is_reserved": 0, "bike_id": "a9d3c0d148860491367bffddd16cd4c6", "lon": -77.009394, "is_disabled": 0}, {"rental_uris": {"android": "https://dc.lft.to/lastmile_qr_scan", "ios": "https://dc.lft.to/lastmile_qr_scan"}, "lat": 38.898881, "type": "electric_scooter", "name": "6e9039ffc7cf64f70a3a7f8cbec3e11e", "fusion_lon": 0.0, "fusion_lat": 0.0, "is_reserved": 0, "bike_id": "6e9039ffc7cf64f70a3a7f8cbec3e11e", "lon": -76.93172716666666, "is_disabled": 0}, {"rental_uris": {"android": "https://dc.lft.to/lastmile_qr_scan", "ios": "https://dc.lft.to/lastmile_qr_scan"}, "lat": 38.92425766666667, "type": "electric_scooter", "name": "415bcc78363e18a8c418ab517fc7355e", "fusion_lon": 0.0, "fusion_lat": 0.0, "is_reserved": 0, "bike_id": "415bcc78363e18a8c418ab517fc7355e", "lon": -77.019461, "is_disabled": 0}, {"rental_uris": {"android": "https://dc.lft.to/lastmile_qr_scan", "ios": "https://dc.lft.to/lastmile_qr_scan"}, "lat": 38.89221933333334, "type": "electric_scooter", "name": "ae5d45279c17c7ef194643732073fbbf", "fusion_lon": 0.0, "fusion_lat": 0.0, "is_reserved": 0, "bike_id": "ae5d45279c17c7ef194643732073fbbf", "lon": -77.02160216666667, "is_disabled": 0}, {"rental_uris": {"android": "https://dc.lft.to/lastmile_qr_scan", "ios": "https://dc.lft.to/lastmile_qr_scan"}, "lat": 38.885391, "type": "electric_bike", "name": "ef3167c13b091dbdbfe599d0a9cf505f", "fusion_lon": 0.0, "fusion_lat": 0.0, "is_reserved": 0, "bike_id": "ef3167c13b091dbdbfe599d0a9cf505f", "lon": -77.1169145, "is_disabled": 0}, {"rental_uris": {"android": "https://dc.lft.to/lastmile_qr_scan", "ios": "https://dc.lft.to/lastmile_qr_scan"}, "lat": 38.900372833333336, "type": "electric_scooter", "name": "9faf8584ef4269a0d40b05e56fbaea55", "fusion_lon": 0.0, "fusion_lat": 0.0, "is_reserved": 0, "bike_id": "9faf8584ef4269a0d40b05e56fbaea55", "lon": -77.015946, "is_disabled": 0}, {"rental_uris": {"android": "https://dc.lft.to/lastmile_qr_scan", "ios": "https://dc.lft.to/lastmile_qr_scan"}, "lat": 38.8987365, "type": "electric_scooter", "name": "7e97a963d7c4ec4b8d63aa8bed0ef943", "fusion_lon": 0.0, "fusion_lat": 0.0, "is_reserved": 0, "bike_id": "7e97a963d7c4ec4b8d63aa8bed0ef943", "lon": -77.03009716666666, "is_disabled": 0}, {"rental_uris": {"android": "https://dc.lft.to/lastmile_qr_scan", "ios": "https://dc.lft.to/lastmile_qr_scan"}, "lat": 38.87996533333333, "type": "electric_scooter", "name": "874d5f7ee9c657080f242b5cdd3b8f89", "fusion_lon": 0.0, "fusion_lat": 0.0, "is_reserved": 0, "bike_id": "874d5f7ee9c657080f242b5cdd3b8f89", "lon": -76.98544733333334, "is_disabled": 0}, {"rental_uris": {"android": "https://dc.lft.to/lastmile_qr_scan", "ios": "https://dc.lft.to/lastmile_qr_scan"}, "lat": 38.89223883333333, "type": "electric_scooter", "name": "a10674c9af4ce68469f36fd7b0667c61", "fusion_lon": 0.0, "fusion_lat": 0.0, "is_reserved": 0, "bike_id": "a10674c9af4ce68469f36fd7b0667c61", "lon": -77.04863833333333, "is_disabled": 0}, {"rental_uris": {"android": "https://dc.lft.to/lastmile_qr_scan", "ios": "https://dc.lft.to/lastmile_qr_scan"}, "lat": 38.88660083333333, "type": "electric_bike", "name": "69c738fdb355b2124d3707edea3ff76b", "fusion_lon": 0.0, "fusion_lat": 0.0, "is_reserved": 0, "bike_id": "69c738fdb355b2124d3707edea3ff76b", "lon": -77.16228666666666, "is_disabled": 0}, {"rental_uris": {"android": "https://dc.lft.to/lastmile_qr_scan", "ios": "https://dc.lft.to/lastmile_qr_scan"}, "lat": 38.96511016666667, "type": "electric_bike", "name": "491d9f6af4a9de47718c46219dac449a", "fusion_lon": 0.0, "fusion_lat": 0.0, "is_reserved": 0, "bike_id": "491d9f6af4a9de47718c46219dac449a", "lon": -77.0336285, "is_disabled": 0}, {"rental_uris": {"android": "https://dc.lft.to/lastmile_qr_scan", "ios": "https://dc.lft.to/lastmile_qr_scan"}, "lat": 38.890354333333335, "type": "electric_scooter", "name": "9d004d7c94d3e7ceb08640ad25f134bb", "fusion_lon": 0.0, "fusion_lat": 0.0, "is_reserved": 0, "bike_id": "9d004d7c94d3e7ceb08640ad25f134bb", "lon": -76.93751366666666, "is_disabled": 0}, {"rental_uris": {"android": "https://dc.lft.to/lastmile_qr_scan", "ios": "https://dc.lft.to/lastmile_qr_scan"}, "lat": 38.92613216666667, "type": "electric_scooter", "name": "ca4793e9f65a4289f4072acb45c107db", "fusion_lon": 0.0, "fusion_lat": 0.0, "is_reserved": 0, "bike_id": "ca4793e9f65a4289f4072acb45c107db", "lon": -77.02159166666667, "is_disabled": 0}, {"rental_uris": {"android": "https://dc.lft.to/lastmile_qr_scan", "ios": "https://dc.lft.to/lastmile_qr_scan"}, "lat": 38.87862366666667, "type": "electric_scooter", "name": "02eb4788065d5db92c13f5a75c6f90bf", "fusion_lon": 0.0, "fusion_lat": 0.0, "is_reserved": 0, "bike_id": "02eb4788065d5db92c13f5a75c6f90bf", "lon": -76.9916055, "is_disabled": 0}, {"rental_uris": {"android": "https://dc.lft.to/lastmile_qr_scan", "ios": "https://dc.lft.to/lastmile_qr_scan"}, "lat": 38.898316333333334, "type": "electric_scooter", "name": "0bba5ee23e1c624269fd30176d307688", "fusion_lon": 0.0, "fusion_lat": 0.0, "is_reserved": 0, "bike_id": "0bba5ee23e1c624269fd30176d307688", "lon": -76.9463575, "is_disabled": 0}, {"rental_uris": {"android": "https://dc.lft.to/lastmile_qr_scan", "ios": "https://dc.lft.to/lastmile_qr_scan"}, "lat": 38.90796516666666, "type": "electric_scooter", "name": "2847bcdeab15638b13ebde303f3593ea", "fusion_lon": 0.0, "fusion_lat": 0.0, "is_reserved": 0, "bike_id": "2847bcdeab15638b13ebde303f3593ea", "lon": -77.04981366666667, "is_disabled": 0}, {"rental_uris": {"android": "https://dc.lft.to/lastmile_qr_scan", "ios": "https://dc.lft.to/lastmile_qr_scan"}, "lat": 38.918225166666666, "type": "electric_scooter", "name": "88ce9fd61d4373a39265a01b23d33987", "fusion_lon": 0.0, "fusion_lat": 0.0, "is_reserved": 0, "bike_id": "88ce9fd61d4373a39265a01b23d33987", "lon": -77.0476275, "is_disabled": 0}, {"rental_uris": {"android": "https://dc.lft.to/lastmile_qr_scan", "ios": "https://dc.lft.to/lastmile_qr_scan"}, "lat": 38.9352685, "type": "electric_scooter", "name": "01d64634681241ba6931657aa6371dc4", "fusion_lon": 0.0, "fusion_lat": 0.0, "is_reserved": 0, "bike_id": "01d64634681241ba6931657aa6371dc4", "lon": -77.072675, "is_disabled": 0}, {"rental_uris": {"android": "https://dc.lft.to/lastmile_qr_scan", "ios": "https://dc.lft.to/lastmile_qr_scan"}, "lat": 38.90389366666667, "type": "electric_scooter", "name": "4af52a365c589a29c55900c4afbebe6c", "fusion_lon": 0.0, "fusion_lat": 0.0, "is_reserved": 0, "bike_id": "4af52a365c589a29c55900c4afbebe6c", "lon": -77.04668833333334, "is_disabled": 0}, {"rental_uris": {"android": "https://dc.lft.to/lastmile_qr_scan", "ios": "https://dc.lft.to/lastmile_qr_scan"}, "lat": 38.93628133333333, "type": "electric_scooter", "name": "5bdb48f029661ea8049b0e0275904e71", "fusion_lon": 0.0, "fusion_lat": 0.0, "is_reserved": 0, "bike_id": "5bdb48f029661ea8049b0e0275904e71", "lon": -77.073029, "is_disabled": 0}, {"rental_uris": {"android": "https://dc.lft.to/lastmile_qr_scan", "ios": "https://dc.lft.to/lastmile_qr_scan"}, "lat": 38.926141666666666, "type": "electric_scooter", "name": "11e2df6911a3c383ebdc34c8c61ef540", "fusion_lon": 0.0, "fusion_lat": 0.0, "is_reserved": 0, "bike_id": "11e2df6911a3c383ebdc34c8c61ef540", "lon": -77.02157583333333, "is_disabled": 0}, {"rental_uris": {"android": "https://dc.lft.to/lastmile_qr_scan", "ios": "https://dc.lft.to/lastmile_qr_scan"}, "lat": 38.88122383333334, "type": "electric_scooter", "name": "1f5b84d200a411dd5c60444564568cd0", "fusion_lon": 0.0, "fusion_lat": 0.0, "is_reserved": 0, "bike_id": "1f5b84d200a411dd5c60444564568cd0", "lon": -76.992964, "is_disabled": 0}, {"rental_uris": {"android": "https://dc.lft.to/lastmile_qr_scan", "ios": "https://dc.lft.to/lastmile_qr_scan"}, "lat": 38.89226816666667, "type": "electric_scooter", "name": "2c567082656514b47c3cebefbcead4de", "fusion_lon": 0.0, "fusion_lat": 0.0, "is_reserved": 0, "bike_id": "2c567082656514b47c3cebefbcead4de", "lon": -77.0030985, "is_disabled": 0}, {"rental_uris": {"android": "https://dc.lft.to/lastmile_qr_scan", "ios": "https://dc.lft.to/lastmile_qr_scan"}, "lat": 38.90155016666667, "type": "electric_scooter", "name": "f2672c7d515d526d9e7a4a1749640859", "fusion_lon": 0.0, "fusion_lat": 0.0, "is_reserved": 0, "bike_id": "f2672c7d515d526d9e7a4a1749640859", "lon": -77.02921383333333, "is_disabled": 0}, {"rental_uris": {"android": "https://dc.lft.to/lastmile_qr_scan", "ios": "https://dc.lft.to/lastmile_qr_scan"}, "lat": 38.92092366666667, "type": "electric_scooter", "name": "e60873c6deeaa437728b9fceafbdcd42", "fusion_lon": 0.0, "fusion_lat": 0.0, "is_reserved": 0, "bike_id": "e60873c6deeaa437728b9fceafbdcd42", "lon": -77.023022, "is_disabled": 0}, {"rental_uris": {"android": "https://dc.lft.to/lastmile_qr_scan", "ios": "https://dc.lft.to/lastmile_qr_scan"}, "lat": 38.881415, "type": "electric_scooter", "name": "a229ed0d31047d91a704394679efa075", "fusion_lon": 0.0, "fusion_lat": 0.0, "is_reserved": 0, "bike_id": "a229ed0d31047d91a704394679efa075", "lon": -76.99619066666666, "is_disabled": 0}, {"rental_uris": {"android": "https://dc.lft.to/lastmile_qr_scan", "ios": "https://dc.lft.to/lastmile_qr_scan"}, "lat": 38.90632216666667, "type": "electric_scooter", "name": "9a0b2538c7b614f9c5e182c2fb2ec61f", "fusion_lon": 0.0, "fusion_lat": 0.0, "is_reserved": 0, "bike_id": "9a0b2538c7b614f9c5e182c2fb2ec61f", "lon": -77.04334316666667, "is_disabled": 0}, {"rental_uris": {"android": "https://dc.lft.to/lastmile_qr_scan", "ios": "https://dc.lft.to/lastmile_qr_scan"}, "lat": 38.920382000000004, "type": "electric_bike", "name": "474ef9a0d6a8efedfac0c861864ca7c6", "fusion_lon": 0.0, "fusion_lat": 0.0, "is_reserved": 0, "bike_id": "474ef9a0d6a8efedfac0c861864ca7c6", "lon": -76.97956183333334, "is_disabled": 0}, {"rental_uris": {"android": "https://dc.lft.to/lastmile_qr_scan", "ios": "https://dc.lft.to/lastmile_qr_scan"}, "lat": 38.852184, "type": "electric_scooter", "name": "eb49d46d6c0216af61c081e62863aafb", "fusion_lon": 0.0, "fusion_lat": 0.0, "is_reserved": 0, "bike_id": "eb49d46d6c0216af61c081e62863aafb", "lon": -76.9937175, "is_disabled": 0}, {"rental_uris": {"android": "https://dc.lft.to/lastmile_qr_scan", "ios": "https://dc.lft.to/lastmile_qr_scan"}, "lat": 38.90501166666667, "type": "electric_scooter", "name": "4294211400f9fbe46baf4bd2471eea9f", "fusion_lon": 0.0, "fusion_lat": 0.0, "is_reserved": 0, "bike_id": "4294211400f9fbe46baf4bd2471eea9f", "lon": -77.03475416666667, "is_disabled": 0}, {"rental_uris": {"android": "https://dc.lft.to/lastmile_qr_scan", "ios": "https://dc.lft.to/lastmile_qr_scan"}, "lat": 38.89482016666667, "type": "electric_scooter", "name": "e4d26b32f1898d0a59d4384643cc1ee4", "fusion_lon": 0.0, "fusion_lat": 0.0, "is_reserved": 0, "bike_id": "e4d26b32f1898d0a59d4384643cc1ee4", "lon": -77.04193416666666, "is_disabled": 0}, {"rental_uris": {"android": "https://dc.lft.to/lastmile_qr_scan", "ios": "https://dc.lft.to/lastmile_qr_scan"}, "lat": 38.85564633333333, "type": "electric_bike", "name": "8ad650d12e7d7822c560a2d5d2862f25", "fusion_lon": 0.0, "fusion_lat": 0.0, "is_reserved": 0, "bike_id": "8ad650d12e7d7822c560a2d5d2862f25", "lon": -77.06328466666666, "is_disabled": 0}, {"rental_uris": {"android": "https://dc.lft.to/lastmile_qr_scan", "ios": "https://dc.lft.to/lastmile_qr_scan"}, "lat": 38.8421795, "type": "electric_bike", "name": "c69d58e583a24cef2d0ffdce1dcf6d23", "fusion_lon": 0.0, "fusion_lat": 0.0, "is_reserved": 0, "bike_id": "c69d58e583a24cef2d0ffdce1dcf6d23", "lon": -76.94895716666667, "is_disabled": 0}, {"rental_uris": {"android": "https://dc.lft.to/lastmile_qr_scan", "ios": "https://dc.lft.to/lastmile_qr_scan"}, "lat": 38.925962, "type": "electric_scooter", "name": "6f9cbff98b6be5f15aa604723dbf397f", "fusion_lon": 0.0, "fusion_lat": 0.0, "is_reserved": 0, "bike_id": "6f9cbff98b6be5f15aa604723dbf397f", "lon": -77.02578333333334, "is_disabled": 0}, {"rental_uris": {"android": "https://dc.lft.to/lastmile_qr_scan", "ios": "https://dc.lft.to/lastmile_qr_scan"}, "lat": 38.92335083333333, "type": "electric_scooter", "name": "ad7eef81224dda724afed1a5334d43e7", "fusion_lon": 0.0, "fusion_lat": 0.0, "is_reserved": 0, "bike_id": "ad7eef81224dda724afed1a5334d43e7", "lon": -77.05677483333334, "is_disabled": 0}, {"rental_uris": {"android": "https://dc.lft.to/lastmile_qr_scan", "ios": "https://dc.lft.to/lastmile_qr_scan"}, "lat": 38.920862666666665, "type": "electric_scooter", "name": "b9d9041677d9c333ac6971f00021880d", "fusion_lon": 0.0, "fusion_lat": 0.0, "is_reserved": 0, "bike_id": "b9d9041677d9c333ac6971f00021880d", "lon": -77.02531583333334, "is_disabled": 0}, {"rental_uris": {"android": "https://dc.lft.to/lastmile_qr_scan", "ios": "https://dc.lft.to/lastmile_qr_scan"}, "lat": 38.905341666666665, "type": "electric_scooter", "name": "4f7a1697cf83cb68e454b00b164e1b9d", "fusion_lon": 0.0, "fusion_lat": 0.0, "is_reserved": 0, "bike_id": "4f7a1697cf83cb68e454b00b164e1b9d", "lon": -77.05008083333334, "is_disabled": 0}, {"rental_uris": {"android": "https://dc.lft.to/lastmile_qr_scan", "ios": "https://dc.lft.to/lastmile_qr_scan"}, "lat": 38.8624835, "type": "electric_scooter", "name": "e55588a00aca21c76739392cf7beebfe", "fusion_lon": 0.0, "fusion_lat": 0.0, "is_reserved": 0, "bike_id": "e55588a00aca21c76739392cf7beebfe", "lon": -76.99501833333333, "is_disabled": 0}, {"rental_uris": {"android": "https://dc.lft.to/lastmile_qr_scan", "ios": "https://dc.lft.to/lastmile_qr_scan"}, "lat": 38.91112566666666, "type": "electric_scooter", "name": "4b01a31d75de6f9a7d672e8724869396", "fusion_lon": 0.0, "fusion_lat": 0.0, "is_reserved": 0, "bike_id": "4b01a31d75de6f9a7d672e8724869396", "lon": -77.02602433333334, "is_disabled": 0}, {"rental_uris": {"android": "https://dc.lft.to/lastmile_qr_scan", "ios": "https://dc.lft.to/lastmile_qr_scan"}, "lat": 38.907572333333334, "type": "electric_scooter", "name": "38ba13e5696ae896f6c0a2764ab08ff1", "fusion_lon": 0.0, "fusion_lat": 0.0, "is_reserved": 0, "bike_id": "38ba13e5696ae896f6c0a2764ab08ff1", "lon": -77.04524466666666, "is_disabled": 0}, {"rental_uris": {"android": "https://dc.lft.to/lastmile_qr_scan", "ios": "https://dc.lft.to/lastmile_qr_scan"}, "lat": 38.90574066666667, "type": "electric_scooter", "name": "54665f8348493aaf52266bfb2688d4b9", "fusion_lon": 0.0, "fusion_lat": 0.0, "is_reserved": 0, "bike_id": "54665f8348493aaf52266bfb2688d4b9", "lon": -77.04338133333333, "is_disabled": 0}, {"rental_uris": {"android": "https://dc.lft.to/lastmile_qr_scan", "ios": "https://dc.lft.to/lastmile_qr_scan"}, "lat": 38.89832533333333, "type": "electric_scooter", "name": "49d1cdf75f7fc2a1d5e4dc490fc6947c", "fusion_lon": 0.0, "fusion_lat": 0.0, "is_reserved": 0, "bike_id": "49d1cdf75f7fc2a1d5e4dc490fc6947c", "lon": -76.94637433333334, "is_disabled": 0}, {"rental_uris": {"android": "https://dc.lft.to/lastmile_qr_scan", "ios": "https://dc.lft.to/lastmile_qr_scan"}, "lat": 38.902302166666665, "type": "electric_scooter", "name": "0f9338dd2cff66ac81fa30ba7fda8b09", "fusion_lon": 0.0, "fusion_lat": 0.0, "is_reserved": 0, "bike_id": "0f9338dd2cff66ac81fa30ba7fda8b09", "lon": -77.045426, "is_disabled": 0}, {"rental_uris": {"android": "https://dc.lft.to/lastmile_qr_scan", "ios": "https://dc.lft.to/lastmile_qr_scan"}, "lat": 38.88487166666667, "type": "electric_scooter", "name": "fa1077859036124a3018de7f237acd73", "fusion_lon": 0.0, "fusion_lat": 0.0, "is_reserved": 0, "bike_id": "fa1077859036124a3018de7f237acd73", "lon": -77.00698516666667, "is_disabled": 0}, {"rental_uris": {"android": "https://dc.lft.to/lastmile_qr_scan", "ios": "https://dc.lft.to/lastmile_qr_scan"}, "lat": 38.93217833333333, "type": "electric_scooter", "name": "4d8429b39173753b3e3508bf07bf6f17", "fusion_lon": 0.0, "fusion_lat": 0.0, "is_reserved": 0, "bike_id": "4d8429b39173753b3e3508bf07bf6f17", "lon": -76.99683116666667, "is_disabled": 0}, {"rental_uris": {"android": "https://dc.lft.to/lastmile_qr_scan", "ios": "https://dc.lft.to/lastmile_qr_scan"}, "lat": 38.91572583333333, "type": "electric_scooter", "name": "2a4cc14745931c4676bca0822dbb4417", "fusion_lon": 0.0, "fusion_lat": 0.0, "is_reserved": 0, "bike_id": "2a4cc14745931c4676bca0822dbb4417", "lon": -77.03199583333334, "is_disabled": 0}, {"rental_uris": {"android": "https://dc.lft.to/lastmile_qr_scan", "ios": "https://dc.lft.to/lastmile_qr_scan"}, "lat": 38.891972333333335, "type": "electric_scooter", "name": "321df8bbc4c8ce481fd906dc75e0bb76", "fusion_lon": 0.0, "fusion_lat": 0.0, "is_reserved": 0, "bike_id": "321df8bbc4c8ce481fd906dc75e0bb76", "lon": -77.00297733333333, "is_disabled": 0}, {"rental_uris": {"android": "https://dc.lft.to/lastmile_qr_scan", "ios": "https://dc.lft.to/lastmile_qr_scan"}, "lat": 38.89004633333333, "type": "electric_scooter", "name": "be57e5850263f5f2cdeacb38ba894912", "fusion_lon": 0.0, "fusion_lat": 0.0, "is_reserved": 0, "bike_id": "be57e5850263f5f2cdeacb38ba894912", "lon": -76.93748816666667, "is_disabled": 0}, {"rental_uris": {"android": "https://dc.lft.to/lastmile_qr_scan", "ios": "https://dc.lft.to/lastmile_qr_scan"}, "lat": 38.89938383333333, "type": "electric_scooter", "name": "512dad83bbcc8e9b99cd86bfa61897d6", "fusion_lon": 0.0, "fusion_lat": 0.0, "is_reserved": 0, "bike_id": "512dad83bbcc8e9b99cd86bfa61897d6", "lon": -77.02037966666667, "is_disabled": 0}, {"rental_uris": {"android": "https://dc.lft.to/lastmile_qr_scan", "ios": "https://dc.lft.to/lastmile_qr_scan"}, "lat": 38.92415233333333, "type": "electric_scooter", "name": "f1f31e6648831606502fbfbc101ecdd0", "fusion_lon": 0.0, "fusion_lat": 0.0, "is_reserved": 0, "bike_id": "f1f31e6648831606502fbfbc101ecdd0", "lon": -77.05064516666667, "is_disabled": 0}, {"rental_uris": {"android": "https://dc.lft.to/lastmile_qr_scan", "ios": "https://dc.lft.to/lastmile_qr_scan"}, "lat": 38.956201, "type": "electric_scooter", "name": "863012e7d34627b494037fc7b3706421", "fusion_lon": 0.0, "fusion_lat": 0.0, "is_reserved": 0, "bike_id": "863012e7d34627b494037fc7b3706421", "lon": -77.027896, "is_disabled": 0}, {"rental_uris": {"android": "https://dc.lft.to/lastmile_qr_scan", "ios": "https://dc.lft.to/lastmile_qr_scan"}, "lat": 38.905966, "type": "electric_scooter", "name": "52b6a23c58342a67ceb839ec95124dcf", "fusion_lon": 0.0, "fusion_lat": 0.0, "is_reserved": 0, "bike_id": "52b6a23c58342a67ceb839ec95124dcf", "lon": -77.0450915, "is_disabled": 0}, {"rental_uris": {"android": "https://dc.lft.to/lastmile_qr_scan", "ios": "https://dc.lft.to/lastmile_qr_scan"}, "lat": 38.903902, "type": "electric_scooter", "name": "6e8c25d816f7291466eee65d0fe85243", "fusion_lon": 0.0, "fusion_lat": 0.0, "is_reserved": 0, "bike_id": "6e8c25d816f7291466eee65d0fe85243", "lon": -77.04468716666666, "is_disabled": 0}, {"rental_uris": {"android": "https://dc.lft.to/lastmile_qr_scan", "ios": "https://dc.lft.to/lastmile_qr_scan"}, "lat": 38.93252833333333, "type": "electric_scooter", "name": "bcb3584202c048103e6c144cff3f4b68", "fusion_lon": 0.0, "fusion_lat": 0.0, "is_reserved": 0, "bike_id": "bcb3584202c048103e6c144cff3f4b68", "lon": -77.03272216666667, "is_disabled": 0}, {"rental_uris": {"android": "https://dc.lft.to/lastmile_qr_scan", "ios": "https://dc.lft.to/lastmile_qr_scan"}, "lat": 38.903172833333336, "type": "electric_scooter", "name": "72eba94c6d3248c497fc3f7bd1806311", "fusion_lon": 0.0, "fusion_lat": 0.0, "is_reserved": 0, "bike_id": "72eba94c6d3248c497fc3f7bd1806311", "lon": -77.051296, "is_disabled": 0}, {"rental_uris": {"android": "https://dc.lft.to/lastmile_qr_scan", "ios": "https://dc.lft.to/lastmile_qr_scan"}, "lat": 38.91915616666667, "type": "electric_scooter", "name": "f867539d6e1b9887bffcc2a8348b9313", "fusion_lon": 0.0, "fusion_lat": 0.0, "is_reserved": 0, "bike_id": "f867539d6e1b9887bffcc2a8348b9313", "lon": -77.04806783333333, "is_disabled": 0}, {"rental_uris": {"android": "https://dc.lft.to/lastmile_qr_scan", "ios": "https://dc.lft.to/lastmile_qr_scan"}, "lat": 38.88839083333333, "type": "electric_scooter", "name": "15c430244d185acea4d987ef9002497f", "fusion_lon": 0.0, "fusion_lat": 0.0, "is_reserved": 0, "bike_id": "15c430244d185acea4d987ef9002497f", "lon": -76.9771225, "is_disabled": 0}, {"rental_uris": {"android": "https://dc.lft.to/lastmile_qr_scan", "ios": "https://dc.lft.to/lastmile_qr_scan"}, "lat": 38.90683466666667, "type": "electric_scooter", "name": "b6a2b52c9947a137df73223bbfe6d720", "fusion_lon": 0.0, "fusion_lat": 0.0, "is_reserved": 0, "bike_id": "b6a2b52c9947a137df73223bbfe6d720", "lon": -77.03672416666667, "is_disabled": 0}, {"rental_uris": {"android": "https://dc.lft.to/lastmile_qr_scan", "ios": "https://dc.lft.to/lastmile_qr_scan"}, "lat": 38.92816033333333, "type": "electric_scooter", "name": "d44d8ffdde055c4937d6fefd0eb9f3f0", "fusion_lon": 0.0, "fusion_lat": 0.0, "is_reserved": 0, "bike_id": "d44d8ffdde055c4937d6fefd0eb9f3f0", "lon": -77.02330716666667, "is_disabled": 0}, {"rental_uris": {"android": "https://dc.lft.to/lastmile_qr_scan", "ios": "https://dc.lft.to/lastmile_qr_scan"}, "lat": 38.905008, "type": "electric_scooter", "name": "edec7efe66dab7951216b8f7698953e2", "fusion_lon": 0.0, "fusion_lat": 0.0, "is_reserved": 0, "bike_id": "edec7efe66dab7951216b8f7698953e2", "lon": -77.029619, "is_disabled": 0}, {"rental_uris": {"android": "https://dc.lft.to/lastmile_qr_scan", "ios": "https://dc.lft.to/lastmile_qr_scan"}, "lat": 38.9054725, "type": "electric_scooter", "name": "200657e68afa7e0ebf229bf5974982c1", "fusion_lon": 0.0, "fusion_lat": 0.0, "is_reserved": 0, "bike_id": "200657e68afa7e0ebf229bf5974982c1", "lon": -77.02196516666666, "is_disabled": 0}, {"rental_uris": {"android": "https://dc.lft.to/lastmile_qr_scan", "ios": "https://dc.lft.to/lastmile_qr_scan"}, "lat": 38.875918166666665, "type": "electric_scooter", "name": "c173049a88cf223c593c4ebc905b7741", "fusion_lon": 0.0, "fusion_lat": 0.0, "is_reserved": 0, "bike_id": "c173049a88cf223c593c4ebc905b7741", "lon": -77.0057965, "is_disabled": 0}, {"rental_uris": {"android": "https://dc.lft.to/lastmile_qr_scan", "ios": "https://dc.lft.to/lastmile_qr_scan"}, "lat": 38.923382333333336, "type": "electric_scooter", "name": "f1b38feb25e37bf0790273dc0f1dd37c", "fusion_lon": 0.0, "fusion_lat": 0.0, "is_reserved": 0, "bike_id": "f1b38feb25e37bf0790273dc0f1dd37c", "lon": -77.0350285, "is_disabled": 0}, {"rental_uris": {"android": "https://dc.lft.to/lastmile_qr_scan", "ios": "https://dc.lft.to/lastmile_qr_scan"}, "lat": 38.9126955, "type": "electric_scooter", "name": "5257be1114d1d9848b74ea492cf745ee", "fusion_lon": 0.0, "fusion_lat": 0.0, "is_reserved": 0, "bike_id": "5257be1114d1d9848b74ea492cf745ee", "lon": -77.02224983333333, "is_disabled": 0}, {"rental_uris": {"android": "https://dc.lft.to/lastmile_qr_scan", "ios": "https://dc.lft.to/lastmile_qr_scan"}, "lat": 38.898732833333334, "type": "electric_scooter", "name": "01e472c4a81a59b64e8ee4b8294afbba", "fusion_lon": 0.0, "fusion_lat": 0.0, "is_reserved": 0, "bike_id": "01e472c4a81a59b64e8ee4b8294afbba", "lon": -77.02849733333333, "is_disabled": 0}, {"rental_uris": {"android": "https://dc.lft.to/lastmile_qr_scan", "ios": "https://dc.lft.to/lastmile_qr_scan"}, "lat": 38.92666166666667, "type": "electric_scooter", "name": "d09f0e8607835a8b7d04cfb6e8717096", "fusion_lon": 0.0, "fusion_lat": 0.0, "is_reserved": 0, "bike_id": "d09f0e8607835a8b7d04cfb6e8717096", "lon": -77.06012583333333, "is_disabled": 0}, {"rental_uris": {"android": "https://dc.lft.to/lastmile_qr_scan", "ios": "https://dc.lft.to/lastmile_qr_scan"}, "lat": 38.877879166666666, "type": "electric_scooter", "name": "e52ce4b338f23c75b0b593cc9064328d", "fusion_lon": 0.0, "fusion_lat": 0.0, "is_reserved": 0, "bike_id": "e52ce4b338f23c75b0b593cc9064328d", "lon": -76.99405083333333, "is_disabled": 0}, {"rental_uris": {"android": "https://dc.lft.to/lastmile_qr_scan", "ios": "https://dc.lft.to/lastmile_qr_scan"}, "lat": 38.903703, "type": "electric_scooter", "name": "59ce24d060ffd33bc94b164a488e7461", "fusion_lon": 0.0, "fusion_lat": 0.0, "is_reserved": 0, "bike_id": "59ce24d060ffd33bc94b164a488e7461", "lon": -77.04156866666666, "is_disabled": 0}, {"rental_uris": {"android": "https://dc.lft.to/lastmile_qr_scan", "ios": "https://dc.lft.to/lastmile_qr_scan"}, "lat": 38.8402995, "type": "electric_bike", "name": "6504466ddbc12d69c8f552aa98e7d588", "fusion_lon": 0.0, "fusion_lat": 0.0, "is_reserved": 0, "bike_id": "6504466ddbc12d69c8f552aa98e7d588", "lon": -76.98857083333333, "is_disabled": 0}, {"rental_uris": {"android": "https://dc.lft.to/lastmile_qr_scan", "ios": "https://dc.lft.to/lastmile_qr_scan"}, "lat": 38.90940533333333, "type": "electric_scooter", "name": "bdb4e9e8c666a7e5f5436610123e3ec0", "fusion_lon": 0.0, "fusion_lat": 0.0, "is_reserved": 0, "bike_id": "bdb4e9e8c666a7e5f5436610123e3ec0", "lon": -77.032033, "is_disabled": 0}, {"rental_uris": {"android": "https://dc.lft.to/lastmile_qr_scan", "ios": "https://dc.lft.to/lastmile_qr_scan"}, "lat": 38.917113666666665, "type": "electric_scooter", "name": "7d4759b0812aaf7ac77367ebfe858c55", "fusion_lon": 0.0, "fusion_lat": 0.0, "is_reserved": 0, "bike_id": "7d4759b0812aaf7ac77367ebfe858c55", "lon": -77.03661866666667, "is_disabled": 0}, {"rental_uris": {"android": "https://dc.lft.to/lastmile_qr_scan", "ios": "https://dc.lft.to/lastmile_qr_scan"}, "lat": 38.906687833333336, "type": "electric_scooter", "name": "30fbb93d761aabd8e5824efba147db89", "fusion_lon": 0.0, "fusion_lat": 0.0, "is_reserved": 0, "bike_id": "30fbb93d761aabd8e5824efba147db89", "lon": -77.037923, "is_disabled": 0}, {"rental_uris": {"android": "https://dc.lft.to/lastmile_qr_scan", "ios": "https://dc.lft.to/lastmile_qr_scan"}, "lat": 38.9220525, "type": "electric_scooter", "name": "6d4a993abc7f187c279ae395a0f45f47", "fusion_lon": 0.0, "fusion_lat": 0.0, "is_reserved": 0, "bike_id": "6d4a993abc7f187c279ae395a0f45f47", "lon": -77.0203425, "is_disabled": 0}, {"rental_uris": {"android": "https://dc.lft.to/lastmile_qr_scan", "ios": "https://dc.lft.to/lastmile_qr_scan"}, "lat": 38.95654416666667, "type": "electric_scooter", "name": "a9c59e79a02628f06d1e5f932d6f3922", "fusion_lon": 0.0, "fusion_lat": 0.0, "is_reserved": 0, "bike_id": "a9c59e79a02628f06d1e5f932d6f3922", "lon": -77.012374, "is_disabled": 0}, {"rental_uris": {"android": "https://dc.lft.to/lastmile_qr_scan", "ios": "https://dc.lft.to/lastmile_qr_scan"}, "lat": 38.896391333333334, "type": "electric_scooter", "name": "6652695ed9ee7a34fd5c66bedbf885f1", "fusion_lon": 0.0, "fusion_lat": 0.0, "is_reserved": 0, "bike_id": "6652695ed9ee7a34fd5c66bedbf885f1", "lon": -77.040549, "is_disabled": 0}, {"rental_uris": {"android": "https://dc.lft.to/lastmile_qr_scan", "ios": "https://dc.lft.to/lastmile_qr_scan"}, "lat": 38.91709683333333, "type": "electric_scooter", "name": "98a7d2b77ab8cb242359d5f9bab26076", "fusion_lon": 0.0, "fusion_lat": 0.0, "is_reserved": 0, "bike_id": "98a7d2b77ab8cb242359d5f9bab26076", "lon": -77.03216066666667, "is_disabled": 0}, {"rental_uris": {"android": "https://dc.lft.to/lastmile_qr_scan", "ios": "https://dc.lft.to/lastmile_qr_scan"}, "lat": 38.91259733333333, "type": "electric_scooter", "name": "223f40e453f3cc42398489f3b35cff47", "fusion_lon": 0.0, "fusion_lat": 0.0, "is_reserved": 0, "bike_id": "223f40e453f3cc42398489f3b35cff47", "lon": -77.074589, "is_disabled": 0}, {"rental_uris": {"android": "https://dc.lft.to/lastmile_qr_scan", "ios": "https://dc.lft.to/lastmile_qr_scan"}, "lat": 38.9033925, "type": "electric_scooter", "name": "f6f2a8f24590e15e46ea92d3237aecdd", "fusion_lon": 0.0, "fusion_lat": 0.0, "is_reserved": 0, "bike_id": "f6f2a8f24590e15e46ea92d3237aecdd", "lon": -76.97573183333333, "is_disabled": 0}, {"rental_uris": {"android": "https://dc.lft.to/lastmile_qr_scan", "ios": "https://dc.lft.to/lastmile_qr_scan"}, "lat": 38.9517755, "type": "electric_scooter", "name": "528453d2349e686049b41274911c29d1", "fusion_lon": 0.0, "fusion_lat": 0.0, "is_reserved": 0, "bike_id": "528453d2349e686049b41274911c29d1", "lon": -77.06891016666667, "is_disabled": 0}, {"rental_uris": {"android": "https://dc.lft.to/lastmile_qr_scan", "ios": "https://dc.lft.to/lastmile_qr_scan"}, "lat": 38.89525533333333, "type": "electric_scooter", "name": "e7de1657976e64f757b5d040a388c34b", "fusion_lon": 0.0, "fusion_lat": 0.0, "is_reserved": 0, "bike_id": "e7de1657976e64f757b5d040a388c34b", "lon": -77.01982816666667, "is_disabled": 0}, {"rental_uris": {"android": "https://dc.lft.to/lastmile_qr_scan", "ios": "https://dc.lft.to/lastmile_qr_scan"}, "lat": 38.894915166666664, "type": "electric_scooter", "name": "d5e68ac68f6c8de45ceddc3fb17def71", "fusion_lon": 0.0, "fusion_lat": 0.0, "is_reserved": 0, "bike_id": "d5e68ac68f6c8de45ceddc3fb17def71", "lon": -76.94893483333334, "is_disabled": 0}, {"rental_uris": {"android": "https://dc.lft.to/lastmile_qr_scan", "ios": "https://dc.lft.to/lastmile_qr_scan"}, "lat": 38.8921905, "type": "electric_scooter", "name": "279d8ef0da65b9b0300d24f38f4f9ce3", "fusion_lon": 0.0, "fusion_lat": 0.0, "is_reserved": 0, "bike_id": "279d8ef0da65b9b0300d24f38f4f9ce3", "lon": -77.02619416666667, "is_disabled": 0}, {"rental_uris": {"android": "https://dc.lft.to/lastmile_qr_scan", "ios": "https://dc.lft.to/lastmile_qr_scan"}, "lat": 38.93974033333333, "type": "electric_scooter", "name": "086d9b1517d2d94fb99be20ab97e986c", "fusion_lon": 0.0, "fusion_lat": 0.0, "is_reserved": 0, "bike_id": "086d9b1517d2d94fb99be20ab97e986c", "lon": -77.034277, "is_disabled": 0}, {"rental_uris": {"android": "https://dc.lft.to/lastmile_qr_scan", "ios": "https://dc.lft.to/lastmile_qr_scan"}, "lat": 38.88252083333333, "type": "electric_scooter", "name": "49ae5f9d94b657688a9fba3d94417a28", "fusion_lon": 0.0, "fusion_lat": 0.0, "is_reserved": 0, "bike_id": "49ae5f9d94b657688a9fba3d94417a28", "lon": -77.00358333333334, "is_disabled": 0}, {"rental_uris": {"android": "https://dc.lft.to/lastmile_qr_scan", "ios": "https://dc.lft.to/lastmile_qr_scan"}, "lat": 38.83745366666667, "type": "electric_scooter", "name": "d40e56d07245e01793370e81bf07c049", "fusion_lon": 0.0, "fusion_lat": 0.0, "is_reserved": 0, "bike_id": "d40e56d07245e01793370e81bf07c049", "lon": -76.99865366666667, "is_disabled": 0}, {"rental_uris": {"android": "https://dc.lft.to/lastmile_qr_scan", "ios": "https://dc.lft.to/lastmile_qr_scan"}, "lat": 38.90992933333333, "type": "electric_scooter", "name": "6b742d816c3741443e92f92bb1ac2c12", "fusion_lon": 0.0, "fusion_lat": 0.0, "is_reserved": 0, "bike_id": "6b742d816c3741443e92f92bb1ac2c12", "lon": -77.0444155, "is_disabled": 0}, {"rental_uris": {"android": "https://dc.lft.to/lastmile_qr_scan", "ios": "https://dc.lft.to/lastmile_qr_scan"}, "lat": 38.884240166666665, "type": "electric_scooter", "name": "c4a3343c2432c1696bd9ab1d9d2167ec", "fusion_lon": 0.0, "fusion_lat": 0.0, "is_reserved": 0, "bike_id": "c4a3343c2432c1696bd9ab1d9d2167ec", "lon": -76.9969215, "is_disabled": 0}, {"rental_uris": {"android": "https://dc.lft.to/lastmile_qr_scan", "ios": "https://dc.lft.to/lastmile_qr_scan"}, "lat": 39.003806, "type": "electric_bike", "name": "12445affa423b3a3d1fe076d78ff73fc", "fusion_lon": 0.0, "fusion_lat": 0.0, "is_reserved": 0, "bike_id": "12445affa423b3a3d1fe076d78ff73fc", "lon": -77.01288783333334, "is_disabled": 0}, {"rental_uris": {"android": "https://dc.lft.to/lastmile_qr_scan", "ios": "https://dc.lft.to/lastmile_qr_scan"}, "lat": 38.903825833333336, "type": "electric_scooter", "name": "224f5f373186d7e404092af93f363d4b", "fusion_lon": 0.0, "fusion_lat": 0.0, "is_reserved": 0, "bike_id": "224f5f373186d7e404092af93f363d4b", "lon": -77.04658416666666, "is_disabled": 0}, {"rental_uris": {"android": "https://dc.lft.to/lastmile_qr_scan", "ios": "https://dc.lft.to/lastmile_qr_scan"}, "lat": 38.888428166666664, "type": "electric_scooter", "name": "a98755630fe184265c1370f5d1142409", "fusion_lon": 0.0, "fusion_lat": 0.0, "is_reserved": 0, "bike_id": "a98755630fe184265c1370f5d1142409", "lon": -76.97715966666667, "is_disabled": 0}, {"rental_uris": {"android": "https://dc.lft.to/lastmile_qr_scan", "ios": "https://dc.lft.to/lastmile_qr_scan"}, "lat": 38.90167616666667, "type": "electric_scooter", "name": "4733c9fa1929f747b25fe0769f9d5b5e", "fusion_lon": 0.0, "fusion_lat": 0.0, "is_reserved": 0, "bike_id": "4733c9fa1929f747b25fe0769f9d5b5e", "lon": -77.02221866666666, "is_disabled": 0}, {"rental_uris": {"android": "https://dc.lft.to/lastmile_qr_scan", "ios": "https://dc.lft.to/lastmile_qr_scan"}, "lat": 38.892210666666664, "type": "electric_scooter", "name": "5f31e26e19d1c6f702b5ee1c97125c2c", "fusion_lon": 0.0, "fusion_lat": 0.0, "is_reserved": 0, "bike_id": "5f31e26e19d1c6f702b5ee1c97125c2c", "lon": -77.02160033333334, "is_disabled": 0}, {"rental_uris": {"android": "https://dc.lft.to/lastmile_qr_scan", "ios": "https://dc.lft.to/lastmile_qr_scan"}, "lat": 38.905739833333335, "type": "electric_scooter", "name": "661aaa32d2ad17b498c1a9a67f38ca70", "fusion_lon": 0.0, "fusion_lat": 0.0, "is_reserved": 0, "bike_id": "661aaa32d2ad17b498c1a9a67f38ca70", "lon": -77.034411, "is_disabled": 0}, {"rental_uris": {"android": "https://dc.lft.to/lastmile_qr_scan", "ios": "https://dc.lft.to/lastmile_qr_scan"}, "lat": 38.908356166666664, "type": "electric_scooter", "name": "f20ec5568acfb9be8cba62ca956cc2a8", "fusion_lon": 0.0, "fusion_lat": 0.0, "is_reserved": 0, "bike_id": "f20ec5568acfb9be8cba62ca956cc2a8", "lon": -77.03551733333333, "is_disabled": 0}, {"rental_uris": {"android": "https://dc.lft.to/lastmile_qr_scan", "ios": "https://dc.lft.to/lastmile_qr_scan"}, "lat": 38.92694016666667, "type": "electric_scooter", "name": "cc6630da40d1334e9c60b601c8d85a12", "fusion_lon": 0.0, "fusion_lat": 0.0, "is_reserved": 0, "bike_id": "cc6630da40d1334e9c60b601c8d85a12", "lon": -77.01478566666667, "is_disabled": 0}, {"rental_uris": {"android": "https://dc.lft.to/lastmile_qr_scan", "ios": "https://dc.lft.to/lastmile_qr_scan"}, "lat": 38.92931866666667, "type": "electric_scooter", "name": "36cf77066cbacac8187644338fa0f176", "fusion_lon": 0.0, "fusion_lat": 0.0, "is_reserved": 0, "bike_id": "36cf77066cbacac8187644338fa0f176", "lon": -77.00672916666667, "is_disabled": 0}, {"rental_uris": {"android": "https://dc.lft.to/lastmile_qr_scan", "ios": "https://dc.lft.to/lastmile_qr_scan"}, "lat": 38.897288833333334, "type": "electric_scooter", "name": "9758d8315363d681b0af354f73c2853c", "fusion_lon": 0.0, "fusion_lat": 0.0, "is_reserved": 0, "bike_id": "9758d8315363d681b0af354f73c2853c", "lon": -76.99511616666666, "is_disabled": 0}, {"rental_uris": {"android": "https://dc.lft.to/lastmile_qr_scan", "ios": "https://dc.lft.to/lastmile_qr_scan"}, "lat": 38.957864, "type": "electric_scooter", "name": "5962630537d8cbbbc36ecbe892c2f387", "fusion_lon": 0.0, "fusion_lat": 0.0, "is_reserved": 0, "bike_id": "5962630537d8cbbbc36ecbe892c2f387", "lon": -77.0283095, "is_disabled": 0}, {"rental_uris": {"android": "https://dc.lft.to/lastmile_qr_scan", "ios": "https://dc.lft.to/lastmile_qr_scan"}, "lat": 38.8922415, "type": "electric_scooter", "name": "c567020d2be20ee1db5b72f1b1fa801f", "fusion_lon": 0.0, "fusion_lat": 0.0, "is_reserved": 0, "bike_id": "c567020d2be20ee1db5b72f1b1fa801f", "lon": -77.04498933333333, "is_disabled": 0}, {"rental_uris": {"android": "https://dc.lft.to/lastmile_qr_scan", "ios": "https://dc.lft.to/lastmile_qr_scan"}, "lat": 38.92313683333333, "type": "electric_scooter", "name": "718974ee7ccd3e3a29cf8b3998d5217a", "fusion_lon": 0.0, "fusion_lat": 0.0, "is_reserved": 0, "bike_id": "718974ee7ccd3e3a29cf8b3998d5217a", "lon": -77.042202, "is_disabled": 0}, {"rental_uris": {"android": "https://dc.lft.to/lastmile_qr_scan", "ios": "https://dc.lft.to/lastmile_qr_scan"}, "lat": 38.9018615, "type": "electric_scooter", "name": "2e81e6eb744bc0d1e7295d4cc6d4528b", "fusion_lon": 0.0, "fusion_lat": 0.0, "is_reserved": 0, "bike_id": "2e81e6eb744bc0d1e7295d4cc6d4528b", "lon": -77.033796, "is_disabled": 0}, {"rental_uris": {"android": "https://dc.lft.to/lastmile_qr_scan", "ios": "https://dc.lft.to/lastmile_qr_scan"}, "lat": 38.9346155, "type": "electric_scooter", "name": "b3e779145a7255f39938d0f49852249d", "fusion_lon": 0.0, "fusion_lat": 0.0, "is_reserved": 0, "bike_id": "b3e779145a7255f39938d0f49852249d", "lon": -77.058091, "is_disabled": 0}, {"rental_uris": {"android": "https://dc.lft.to/lastmile_qr_scan", "ios": "https://dc.lft.to/lastmile_qr_scan"}, "lat": 38.90361816666667, "type": "electric_scooter", "name": "30288148d6d9c5b5cd9328f008e6eae8", "fusion_lon": 0.0, "fusion_lat": 0.0, "is_reserved": 0, "bike_id": "30288148d6d9c5b5cd9328f008e6eae8", "lon": -77.0375195, "is_disabled": 0}, {"rental_uris": {"android": "https://dc.lft.to/lastmile_qr_scan", "ios": "https://dc.lft.to/lastmile_qr_scan"}, "lat": 38.906901166666664, "type": "electric_scooter", "name": "87d61b4dea143b9813c8c3d2b21eee11", "fusion_lon": 0.0, "fusion_lat": 0.0, "is_reserved": 0, "bike_id": "87d61b4dea143b9813c8c3d2b21eee11", "lon": -77.053251, "is_disabled": 0}, {"rental_uris": {"android": "https://dc.lft.to/lastmile_qr_scan", "ios": "https://dc.lft.to/lastmile_qr_scan"}, "lat": 38.882818666666665, "type": "electric_bike", "name": "34eb5e4f5e760b76f81d399dac2698fb", "fusion_lon": 0.0, "fusion_lat": 0.0, "is_reserved": 0, "bike_id": "34eb5e4f5e760b76f81d399dac2698fb", "lon": -76.93232783333333, "is_disabled": 0}, {"rental_uris": {"android": "https://dc.lft.to/lastmile_qr_scan", "ios": "https://dc.lft.to/lastmile_qr_scan"}, "lat": 38.918781833333334, "type": "electric_bike", "name": "7107b34e174affee72b4900c0c96408d", "fusion_lon": 0.0, "fusion_lat": 0.0, "is_reserved": 0, "bike_id": "7107b34e174affee72b4900c0c96408d", "lon": -76.96435233333334, "is_disabled": 0}, {"rental_uris": {"android": "https://dc.lft.to/lastmile_qr_scan", "ios": "https://dc.lft.to/lastmile_qr_scan"}, "lat": 38.938661, "type": "electric_scooter", "name": "6c70ca6a5b5babb4f03abd74be7d2c5e", "fusion_lon": 0.0, "fusion_lat": 0.0, "is_reserved": 0, "bike_id": "6c70ca6a5b5babb4f03abd74be7d2c5e", "lon": -77.03043933333333, "is_disabled": 0}, {"rental_uris": {"android": "https://dc.lft.to/lastmile_qr_scan", "ios": "https://dc.lft.to/lastmile_qr_scan"}, "lat": 38.93690016666667, "type": "electric_bike", "name": "926479cb1c6aef58b1600bd95a3158be", "fusion_lon": 0.0, "fusion_lat": 0.0, "is_reserved": 0, "bike_id": "926479cb1c6aef58b1600bd95a3158be", "lon": -76.990598, "is_disabled": 0}, {"rental_uris": {"android": "https://dc.lft.to/lastmile_qr_scan", "ios": "https://dc.lft.to/lastmile_qr_scan"}, "lat": 38.8470265, "type": "electric_bike", "name": "f7f20ec25fb8997c79c4471439f839a5", "fusion_lon": 0.0, "fusion_lat": 0.0, "is_reserved": 0, "bike_id": "f7f20ec25fb8997c79c4471439f839a5", "lon": -76.99616016666667, "is_disabled": 0}, {"rental_uris": {"android": "https://dc.lft.to/lastmile_qr_scan", "ios": "https://dc.lft.to/lastmile_qr_scan"}, "lat": 38.9177735, "type": "electric_scooter", "name": "3917a4b7fa27c3c17ffdb2f9cd6c928e", "fusion_lon": 0.0, "fusion_lat": 0.0, "is_reserved": 0, "bike_id": "3917a4b7fa27c3c17ffdb2f9cd6c928e", "lon": -77.02309566666666, "is_disabled": 0}, {"rental_uris": {"android": "https://dc.lft.to/lastmile_qr_scan", "ios": "https://dc.lft.to/lastmile_qr_scan"}, "lat": 38.8976285, "type": "electric_scooter", "name": "bc55f7e0a5d1420787693bad07d7e911", "fusion_lon": 0.0, "fusion_lat": 0.0, "is_reserved": 0, "bike_id": "bc55f7e0a5d1420787693bad07d7e911", "lon": -77.0332405, "is_disabled": 0}, {"rental_uris": {"android": "https://dc.lft.to/lastmile_qr_scan", "ios": "https://dc.lft.to/lastmile_qr_scan"}, "lat": 38.90216266666667, "type": "electric_scooter", "name": "1f09ad61d79718a9381b0871b23b6f90", "fusion_lon": 0.0, "fusion_lat": 0.0, "is_reserved": 0, "bike_id": "1f09ad61d79718a9381b0871b23b6f90", "lon": -77.0512415, "is_disabled": 0}, {"rental_uris": {"android": "https://dc.lft.to/lastmile_qr_scan", "ios": "https://dc.lft.to/lastmile_qr_scan"}, "lat": 38.9023815, "type": "electric_scooter", "name": "b4a32fb323e22203ce0ebfffbf6f7e45", "fusion_lon": 0.0, "fusion_lat": 0.0, "is_reserved": 0, "bike_id": "b4a32fb323e22203ce0ebfffbf6f7e45", "lon": -77.00194316666666, "is_disabled": 0}, {"rental_uris": {"android": "https://dc.lft.to/lastmile_qr_scan", "ios": "https://dc.lft.to/lastmile_qr_scan"}, "lat": 38.924160666666666, "type": "electric_scooter", "name": "a5ece031a88df75c76d1081f6d9842f8", "fusion_lon": 0.0, "fusion_lat": 0.0, "is_reserved": 0, "bike_id": "a5ece031a88df75c76d1081f6d9842f8", "lon": -77.050628, "is_disabled": 0}, {"rental_uris": {"android": "https://dc.lft.to/lastmile_qr_scan", "ios": "https://dc.lft.to/lastmile_qr_scan"}, "lat": 38.924603166666664, "type": "electric_scooter", "name": "322eddb993320f1e72afb2f0c8674828", "fusion_lon": 0.0, "fusion_lat": 0.0, "is_reserved": 0, "bike_id": "322eddb993320f1e72afb2f0c8674828", "lon": -77.0328865, "is_disabled": 0}, {"rental_uris": {"android": "https://dc.lft.to/lastmile_qr_scan", "ios": "https://dc.lft.to/lastmile_qr_scan"}, "lat": 38.91936233333333, "type": "electric_scooter", "name": "6049d9a8c6eb64944f70656d9e6bc124", "fusion_lon": 0.0, "fusion_lat": 0.0, "is_reserved": 0, "bike_id": "6049d9a8c6eb64944f70656d9e6bc124", "lon": -77.03170733333333, "is_disabled": 0}, {"rental_uris": {"android": "https://dc.lft.to/lastmile_qr_scan", "ios": "https://dc.lft.to/lastmile_qr_scan"}, "lat": 38.929691, "type": "electric_scooter", "name": "ca24f5092bb1245a1305eb589000b2bc", "fusion_lon": 0.0, "fusion_lat": 0.0, "is_reserved": 0, "bike_id": "ca24f5092bb1245a1305eb589000b2bc", "lon": -77.04200083333333, "is_disabled": 0}, {"rental_uris": {"android": "https://dc.lft.to/lastmile_qr_scan", "ios": "https://dc.lft.to/lastmile_qr_scan"}, "lat": 38.91031483333333, "type": "electric_scooter", "name": "e25ef61745a0e13d9349d202e2857217", "fusion_lon": 0.0, "fusion_lat": 0.0, "is_reserved": 0, "bike_id": "e25ef61745a0e13d9349d202e2857217", "lon": -77.03188183333333, "is_disabled": 0}, {"rental_uris": {"android": "https://dc.lft.to/lastmile_qr_scan", "ios": "https://dc.lft.to/lastmile_qr_scan"}, "lat": 38.92452383333333, "type": "electric_scooter", "name": "ffc626aa1578c324b049c51e2579d4d0", "fusion_lon": 0.0, "fusion_lat": 0.0, "is_reserved": 0, "bike_id": "ffc626aa1578c324b049c51e2579d4d0", "lon": -77.02246233333334, "is_disabled": 0}, {"rental_uris": {"android": "https://dc.lft.to/lastmile_qr_scan", "ios": "https://dc.lft.to/lastmile_qr_scan"}, "lat": 38.924425166666666, "type": "electric_scooter", "name": "f3a2a549a998b6454a02cf088743e61b", "fusion_lon": 0.0, "fusion_lat": 0.0, "is_reserved": 0, "bike_id": "f3a2a549a998b6454a02cf088743e61b", "lon": -77.04389316666666, "is_disabled": 0}, {"rental_uris": {"android": "https://dc.lft.to/lastmile_qr_scan", "ios": "https://dc.lft.to/lastmile_qr_scan"}, "lat": 38.9378685, "type": "electric_scooter", "name": "9161c902e999eb22507dbdbd53dc06b9", "fusion_lon": 0.0, "fusion_lat": 0.0, "is_reserved": 0, "bike_id": "9161c902e999eb22507dbdbd53dc06b9", "lon": -77.02479616666666, "is_disabled": 0}, {"rental_uris": {"android": "https://dc.lft.to/lastmile_qr_scan", "ios": "https://dc.lft.to/lastmile_qr_scan"}, "lat": 38.904556666666664, "type": "electric_scooter", "name": "1f36d1fe1cdff653ff33baafaa1b5d24", "fusion_lon": 0.0, "fusion_lat": 0.0, "is_reserved": 0, "bike_id": "1f36d1fe1cdff653ff33baafaa1b5d24", "lon": -76.994582, "is_disabled": 0}, {"rental_uris": {"android": "https://dc.lft.to/lastmile_qr_scan", "ios": "https://dc.lft.to/lastmile_qr_scan"}, "lat": 38.900532, "type": "electric_scooter", "name": "cce2490a3d3a3d68b8aff476cbbc96c2", "fusion_lon": 0.0, "fusion_lat": 0.0, "is_reserved": 0, "bike_id": "cce2490a3d3a3d68b8aff476cbbc96c2", "lon": -77.01596033333334, "is_disabled": 0}, {"rental_uris": {"android": "https://dc.lft.to/lastmile_qr_scan", "ios": "https://dc.lft.to/lastmile_qr_scan"}, "lat": 38.913283666666665, "type": "electric_scooter", "name": "3e1a4b35815a4958ddb41e7e7e076011", "fusion_lon": 0.0, "fusion_lat": 0.0, "is_reserved": 0, "bike_id": "3e1a4b35815a4958ddb41e7e7e076011", "lon": -77.031832, "is_disabled": 0}, {"rental_uris": {"android": "https://dc.lft.to/lastmile_qr_scan", "ios": "https://dc.lft.to/lastmile_qr_scan"}, "lat": 38.91231283333333, "type": "electric_scooter", "name": "dd4fb7b939519b651abe48459b77df95", "fusion_lon": 0.0, "fusion_lat": 0.0, "is_reserved": 0, "bike_id": "dd4fb7b939519b651abe48459b77df95", "lon": -77.07747066666667, "is_disabled": 0}, {"rental_uris": {"android": "https://dc.lft.to/lastmile_qr_scan", "ios": "https://dc.lft.to/lastmile_qr_scan"}, "lat": 38.92239983333333, "type": "electric_scooter", "name": "16ab543436e10f6e567ca01c0aa31997", "fusion_lon": 0.0, "fusion_lat": 0.0, "is_reserved": 0, "bike_id": "16ab543436e10f6e567ca01c0aa31997", "lon": -77.028484, "is_disabled": 0}, {"rental_uris": {"android": "https://dc.lft.to/lastmile_qr_scan", "ios": "https://dc.lft.to/lastmile_qr_scan"}, "lat": 38.901012333333334, "type": "electric_scooter", "name": "5038cae34d21a837cde17e8ccb860588", "fusion_lon": 0.0, "fusion_lat": 0.0, "is_reserved": 0, "bike_id": "5038cae34d21a837cde17e8ccb860588", "lon": -77.05785483333334, "is_disabled": 0}, {"rental_uris": {"android": "https://dc.lft.to/lastmile_qr_scan", "ios": "https://dc.lft.to/lastmile_qr_scan"}, "lat": 38.926020333333334, "type": "electric_scooter", "name": "72ca7c8a8668a6801e56483622304345", "fusion_lon": 0.0, "fusion_lat": 0.0, "is_reserved": 0, "bike_id": "72ca7c8a8668a6801e56483622304345", "lon": -77.02153866666667, "is_disabled": 0}, {"rental_uris": {"android": "https://dc.lft.to/lastmile_qr_scan", "ios": "https://dc.lft.to/lastmile_qr_scan"}, "lat": 38.92829866666667, "type": "electric_scooter", "name": "3f5e5ff100509f332342aca021c635a2", "fusion_lon": 0.0, "fusion_lat": 0.0, "is_reserved": 0, "bike_id": "3f5e5ff100509f332342aca021c635a2", "lon": -77.054104, "is_disabled": 0}, {"rental_uris": {"android": "https://dc.lft.to/lastmile_qr_scan", "ios": "https://dc.lft.to/lastmile_qr_scan"}, "lat": 38.9037005, "type": "electric_scooter", "name": "1793582f9675dc7c36baa15b1f78eb9c", "fusion_lon": 0.0, "fusion_lat": 0.0, "is_reserved": 0, "bike_id": "1793582f9675dc7c36baa15b1f78eb9c", "lon": -77.041801, "is_disabled": 0}, {"rental_uris": {"android": "https://dc.lft.to/lastmile_qr_scan", "ios": "https://dc.lft.to/lastmile_qr_scan"}, "lat": 38.8839305, "type": "electric_scooter", "name": "c425833381abe8de5e4a22e2d5965f10", "fusion_lon": 0.0, "fusion_lat": 0.0, "is_reserved": 0, "bike_id": "c425833381abe8de5e4a22e2d5965f10", "lon": -76.93036483333333, "is_disabled": 0}, {"rental_uris": {"android": "https://dc.lft.to/lastmile_qr_scan", "ios": "https://dc.lft.to/lastmile_qr_scan"}, "lat": 38.90421833333333, "type": "electric_scooter", "name": "7954de7e002ed1e8354b451134382ba4", "fusion_lon": 0.0, "fusion_lat": 0.0, "is_reserved": 0, "bike_id": "7954de7e002ed1e8354b451134382ba4", "lon": -77.0383705, "is_disabled": 0}, {"rental_uris": {"android": "https://dc.lft.to/lastmile_qr_scan", "ios": "https://dc.lft.to/lastmile_qr_scan"}, "lat": 38.896930833333336, "type": "electric_scooter", "name": "8e79472e24701101432649329a2cb809", "fusion_lon": 0.0, "fusion_lat": 0.0, "is_reserved": 0, "bike_id": "8e79472e24701101432649329a2cb809", "lon": -77.02675233333333, "is_disabled": 0}, {"rental_uris": {"android": "https://dc.lft.to/lastmile_qr_scan", "ios": "https://dc.lft.to/lastmile_qr_scan"}, "lat": 38.92477433333333, "type": "electric_scooter", "name": "4c493aaf3323307a19f5faf6a2c30a65", "fusion_lon": 0.0, "fusion_lat": 0.0, "is_reserved": 0, "bike_id": "4c493aaf3323307a19f5faf6a2c30a65", "lon": -77.02215833333334, "is_disabled": 0}, {"rental_uris": {"android": "https://dc.lft.to/lastmile_qr_scan", "ios": "https://dc.lft.to/lastmile_qr_scan"}, "lat": 38.886616833333335, "type": "electric_scooter", "name": "62d721c10374b04c071da08b95de8e4a", "fusion_lon": 0.0, "fusion_lat": 0.0, "is_reserved": 0, "bike_id": "62d721c10374b04c071da08b95de8e4a", "lon": -76.93676583333334, "is_disabled": 0}, {"rental_uris": {"android": "https://dc.lft.to/lastmile_qr_scan", "ios": "https://dc.lft.to/lastmile_qr_scan"}, "lat": 38.921420833333336, "type": "electric_scooter", "name": "e0d4cba48cf7f1874a2a22e9f282c2b8", "fusion_lon": 0.0, "fusion_lat": 0.0, "is_reserved": 0, "bike_id": "e0d4cba48cf7f1874a2a22e9f282c2b8", "lon": -77.01804966666667, "is_disabled": 0}, {"rental_uris": {"android": "https://dc.lft.to/lastmile_qr_scan", "ios": "https://dc.lft.to/lastmile_qr_scan"}, "lat": 38.9244875, "type": "electric_scooter", "name": "ad4834aa28216291cfcce8a4051a36cf", "fusion_lon": 0.0, "fusion_lat": 0.0, "is_reserved": 0, "bike_id": "ad4834aa28216291cfcce8a4051a36cf", "lon": -77.0213415, "is_disabled": 0}, {"rental_uris": {"android": "https://dc.lft.to/lastmile_qr_scan", "ios": "https://dc.lft.to/lastmile_qr_scan"}, "lat": 38.901467833333335, "type": "electric_scooter", "name": "f8beccfb64c728c4a8425b73a77c7ec1", "fusion_lon": 0.0, "fusion_lat": 0.0, "is_reserved": 0, "bike_id": "f8beccfb64c728c4a8425b73a77c7ec1", "lon": -77.00893766666667, "is_disabled": 0}, {"rental_uris": {"android": "https://dc.lft.to/lastmile_qr_scan", "ios": "https://dc.lft.to/lastmile_qr_scan"}, "lat": 38.92612616666667, "type": "electric_scooter", "name": "f5b2e107de9ab0771ef0c2509ca5a015", "fusion_lon": 0.0, "fusion_lat": 0.0, "is_reserved": 0, "bike_id": "f5b2e107de9ab0771ef0c2509ca5a015", "lon": -77.02159683333333, "is_disabled": 0}, {"rental_uris": {"android": "https://dc.lft.to/lastmile_qr_scan", "ios": "https://dc.lft.to/lastmile_qr_scan"}, "lat": 38.95704333333333, "type": "electric_bike", "name": "686c66b76f84b83f4447d7fa48fb10ae", "fusion_lon": 0.0, "fusion_lat": 0.0, "is_reserved": 0, "bike_id": "686c66b76f84b83f4447d7fa48fb10ae", "lon": -77.35972716666667, "is_disabled": 0}, {"rental_uris": {"android": "https://dc.lft.to/lastmile_qr_scan", "ios": "https://dc.lft.to/lastmile_qr_scan"}, "lat": 38.90615366666667, "type": "electric_scooter", "name": "ae79d6d85b4388ffd22bb2cb688da801", "fusion_lon": 0.0, "fusion_lat": 0.0, "is_reserved": 0, "bike_id": "ae79d6d85b4388ffd22bb2cb688da801", "lon": -76.97795316666667, "is_disabled": 0}, {"rental_uris": {"android": "https://dc.lft.to/lastmile_qr_scan", "ios": "https://dc.lft.to/lastmile_qr_scan"}, "lat": 38.92070666666667, "type": "electric_scooter", "name": "be1cffe4d86b70793810c6afe65ffb16", "fusion_lon": 0.0, "fusion_lat": 0.0, "is_reserved": 0, "bike_id": "be1cffe4d86b70793810c6afe65ffb16", "lon": -77.04551066666667, "is_disabled": 0}, {"rental_uris": {"android": "https://dc.lft.to/lastmile_qr_scan", "ios": "https://dc.lft.to/lastmile_qr_scan"}, "lat": 39.08432066666666, "type": "electric_bike", "name": "b1ca7b4fec27921ac3f401d88ceaa2e1", "fusion_lon": 0.0, "fusion_lat": 0.0, "is_reserved": 0, "bike_id": "b1ca7b4fec27921ac3f401d88ceaa2e1", "lon": -76.95144983333333, "is_disabled": 0}, {"rental_uris": {"android": "https://dc.lft.to/lastmile_qr_scan", "ios": "https://dc.lft.to/lastmile_qr_scan"}, "lat": 38.9017425, "type": "electric_scooter", "name": "d755b416a46132ca238ef98a275362a5", "fusion_lon": 0.0, "fusion_lat": 0.0, "is_reserved": 0, "bike_id": "d755b416a46132ca238ef98a275362a5", "lon": -76.98076766666667, "is_disabled": 0}, {"rental_uris": {"android": "https://dc.lft.to/lastmile_qr_scan", "ios": "https://dc.lft.to/lastmile_qr_scan"}, "lat": 38.9072355, "type": "electric_scooter", "name": "311fad5da779545db4e84cf695eb76fb", "fusion_lon": 0.0, "fusion_lat": 0.0, "is_reserved": 0, "bike_id": "311fad5da779545db4e84cf695eb76fb", "lon": -77.04045816666667, "is_disabled": 0}, {"rental_uris": {"android": "https://dc.lft.to/lastmile_qr_scan", "ios": "https://dc.lft.to/lastmile_qr_scan"}, "lat": 38.903776666666666, "type": "electric_scooter", "name": "03192f84c177b6a553131d30df789388", "fusion_lon": 0.0, "fusion_lat": 0.0, "is_reserved": 0, "bike_id": "03192f84c177b6a553131d30df789388", "lon": -77.03851433333334, "is_disabled": 0}, {"rental_uris": {"android": "https://dc.lft.to/lastmile_qr_scan", "ios": "https://dc.lft.to/lastmile_qr_scan"}, "lat": 38.8937605, "type": "electric_scooter", "name": "da9bd620cb9c814dc0fc62b3b45b4795", "fusion_lon": 0.0, "fusion_lat": 0.0, "is_reserved": 0, "bike_id": "da9bd620cb9c814dc0fc62b3b45b4795", "lon": -77.00342433333333, "is_disabled": 0}, {"rental_uris": {"android": "https://dc.lft.to/lastmile_qr_scan", "ios": "https://dc.lft.to/lastmile_qr_scan"}, "lat": 38.921631, "type": "electric_scooter", "name": "6f63fa097eb9700fa743f332788a86cf", "fusion_lon": 0.0, "fusion_lat": 0.0, "is_reserved": 0, "bike_id": "6f63fa097eb9700fa743f332788a86cf", "lon": -77.0332135, "is_disabled": 0}, {"rental_uris": {"android": "https://dc.lft.to/lastmile_qr_scan", "ios": "https://dc.lft.to/lastmile_qr_scan"}, "lat": 38.94301633333333, "type": "electric_scooter", "name": "f68a507fd6ac3ccd5e9cdcc8af67a894", "fusion_lon": 0.0, "fusion_lat": 0.0, "is_reserved": 0, "bike_id": "f68a507fd6ac3ccd5e9cdcc8af67a894", "lon": -77.02790916666666, "is_disabled": 0}, {"rental_uris": {"android": "https://dc.lft.to/lastmile_qr_scan", "ios": "https://dc.lft.to/lastmile_qr_scan"}, "lat": 38.89011083333333, "type": "electric_scooter", "name": "eaeaf99e9a83b9a46a161950800e50d5", "fusion_lon": 0.0, "fusion_lat": 0.0, "is_reserved": 0, "bike_id": "eaeaf99e9a83b9a46a161950800e50d5", "lon": -76.937441, "is_disabled": 0}, {"rental_uris": {"android": "https://dc.lft.to/lastmile_qr_scan", "ios": "https://dc.lft.to/lastmile_qr_scan"}, "lat": 38.905183, "type": "electric_scooter", "name": "23158a206d7dc26f8f9f088bd25b0db7", "fusion_lon": 0.0, "fusion_lat": 0.0, "is_reserved": 0, "bike_id": "23158a206d7dc26f8f9f088bd25b0db7", "lon": -77.04155933333334, "is_disabled": 0}, {"rental_uris": {"android": "https://dc.lft.to/lastmile_qr_scan", "ios": "https://dc.lft.to/lastmile_qr_scan"}, "lat": 38.88392483333333, "type": "electric_scooter", "name": "267ac0a9c59f81b4847846632692e2db", "fusion_lon": 0.0, "fusion_lat": 0.0, "is_reserved": 0, "bike_id": "267ac0a9c59f81b4847846632692e2db", "lon": -76.99505683333334, "is_disabled": 0}, {"rental_uris": {"android": "https://dc.lft.to/lastmile_qr_scan", "ios": "https://dc.lft.to/lastmile_qr_scan"}, "lat": 38.9110945, "type": "electric_scooter", "name": "210ffad687c034bb4e59b8500d0add7f", "fusion_lon": 0.0, "fusion_lat": 0.0, "is_reserved": 0, "bike_id": "210ffad687c034bb4e59b8500d0add7f", "lon": -77.03570966666666, "is_disabled": 0}, {"rental_uris": {"android": "https://dc.lft.to/lastmile_qr_scan", "ios": "https://dc.lft.to/lastmile_qr_scan"}, "lat": 38.89593966666666, "type": "electric_scooter", "name": "17b4b5a80fb53243263cb5c6e96900fe", "fusion_lon": 0.0, "fusion_lat": 0.0, "is_reserved": 0, "bike_id": "17b4b5a80fb53243263cb5c6e96900fe", "lon": -77.02732016666667, "is_disabled": 0}, {"rental_uris": {"android": "https://dc.lft.to/lastmile_qr_scan", "ios": "https://dc.lft.to/lastmile_qr_scan"}, "lat": 38.951109333333335, "type": "electric_scooter", "name": "1e0744251be5bf2c54d1ec05ec7077e1", "fusion_lon": 0.0, "fusion_lat": 0.0, "is_reserved": 0, "bike_id": "1e0744251be5bf2c54d1ec05ec7077e1", "lon": -77.01579016666666, "is_disabled": 0}, {"rental_uris": {"android": "https://dc.lft.to/lastmile_qr_scan", "ios": "https://dc.lft.to/lastmile_qr_scan"}, "lat": 38.90120116666667, "type": "electric_scooter", "name": "c854f03d0c90438a58191ca9352a832f", "fusion_lon": 0.0, "fusion_lat": 0.0, "is_reserved": 0, "bike_id": "c854f03d0c90438a58191ca9352a832f", "lon": -77.043439, "is_disabled": 0}, {"rental_uris": {"android": "https://dc.lft.to/lastmile_qr_scan", "ios": "https://dc.lft.to/lastmile_qr_scan"}, "lat": 38.924500333333334, "type": "electric_scooter", "name": "cab87ce4e3c2908617bfcf511d887862", "fusion_lon": 0.0, "fusion_lat": 0.0, "is_reserved": 0, "bike_id": "cab87ce4e3c2908617bfcf511d887862", "lon": -77.03404133333333, "is_disabled": 0}, {"rental_uris": {"android": "https://dc.lft.to/lastmile_qr_scan", "ios": "https://dc.lft.to/lastmile_qr_scan"}, "lat": 38.875916, "type": "electric_scooter", "name": "06c6f2dcab77e43c1e44f211189dca3a", "fusion_lon": 0.0, "fusion_lat": 0.0, "is_reserved": 0, "bike_id": "06c6f2dcab77e43c1e44f211189dca3a", "lon": -77.00085383333334, "is_disabled": 0}, {"rental_uris": {"android": "https://dc.lft.to/lastmile_qr_scan", "ios": "https://dc.lft.to/lastmile_qr_scan"}, "lat": 38.908356833333336, "type": "electric_scooter", "name": "e3e452c34750e0274cf438571bf1f3cb", "fusion_lon": 0.0, "fusion_lat": 0.0, "is_reserved": 0, "bike_id": "e3e452c34750e0274cf438571bf1f3cb", "lon": -77.00221716666667, "is_disabled": 0}, {"rental_uris": {"android": "https://dc.lft.to/lastmile_qr_scan", "ios": "https://dc.lft.to/lastmile_qr_scan"}, "lat": 38.8856595, "type": "electric_scooter", "name": "1e7ab1f76d9c6317574afa9779b49b3d", "fusion_lon": 0.0, "fusion_lat": 0.0, "is_reserved": 0, "bike_id": "1e7ab1f76d9c6317574afa9779b49b3d", "lon": -77.01446666666666, "is_disabled": 0}, {"rental_uris": {"android": "https://dc.lft.to/lastmile_qr_scan", "ios": "https://dc.lft.to/lastmile_qr_scan"}, "lat": 38.91685183333333, "type": "electric_scooter", "name": "e9563339b60127da36504561d2e5f3ab", "fusion_lon": 0.0, "fusion_lat": 0.0, "is_reserved": 0, "bike_id": "e9563339b60127da36504561d2e5f3ab", "lon": -77.0121785, "is_disabled": 0}, {"rental_uris": {"android": "https://dc.lft.to/lastmile_qr_scan", "ios": "https://dc.lft.to/lastmile_qr_scan"}, "lat": 38.935528166666664, "type": "electric_scooter", "name": "869708448bcf3109503413569f8ab549", "fusion_lon": 0.0, "fusion_lat": 0.0, "is_reserved": 0, "bike_id": "869708448bcf3109503413569f8ab549", "lon": -77.08738733333334, "is_disabled": 0}, {"rental_uris": {"android": "https://dc.lft.to/lastmile_qr_scan", "ios": "https://dc.lft.to/lastmile_qr_scan"}, "lat": 38.90538566666667, "type": "electric_scooter", "name": "caae1a6131f99fb24ae84c8e208b2d2a", "fusion_lon": 0.0, "fusion_lat": 0.0, "is_reserved": 0, "bike_id": "caae1a6131f99fb24ae84c8e208b2d2a", "lon": -77.065285, "is_disabled": 0},