{"data": {"bikes": [{"is_reserved": 0, "type": "electric_scooter", "bike_id": "b0f62b704e1b3f21eeb05fda7421a603", "lat": 38.90722683333333, "lon": -77.04813133333333, "rental_uris": {"android": "https://dc.lft.to/lastmile_qr_scan", "ios": "https://dc.lft.to/lastmile_qr_scan"}, "is_disabled": 0, "fusion_lat": 0.0, "name": "b0f62b704e1b3f21eeb05fda7421a603", "fusion_lon": 0.0}, {"is_reserved": 0, "type": "electric_scooter", "bike_id": "5cf4b84a5ed8ee702deba26c6e58c9ec", "lat": 38.91647066666667, "lon": -77.03179583333333, "rental_uris": {"android": "https://dc.lft.to/lastmile_qr_scan", "ios": "https://dc.lft.to/lastmile_qr_scan"}, "is_disabled": 0, "fusion_lat": 0.0, "name": "5cf4b84a5ed8ee702deba26c6e58c9ec", "fusion_lon": 0.0}, {"is_reserved": 0, "type": "electric_scooter", "bike_id": "ba7313c0968372ea6c7cca1f7a26f8eb", "lat": 38.925786333333335, "lon": -76.99493666666666, "rental_uris": {"android": "https://dc.lft.to/lastmile_qr_scan", "ios": "https://dc.lft.to/lastmile_qr_scan"}, "is_disabled": 0, "fusion_lat": 0.0, "name": "ba7313c0968372ea6c7cca1f7a26f8eb", "fusion_lon": 0.0}, {"is_reserved": 0, "type": "electric_scooter", "bike_id": "00246000a0b3e706415c0826038d4601", "lat": 38.88611183333333, "lon": -76.99653533333333, "rental_uris": {"android": "https://dc.lft.to/lastmile_qr_scan", "ios": "https://dc.lft.to/lastmile_qr_scan"}, "is_disabled": 0, "fusion_lat": 0.0, "name": "00246000a0b3e706415c0826038d4601", "fusion_lon": 0.0}, {"is_reserved": 0, "type": "electric_scooter", "bike_id": "be2d87e28a1455aa438399a5a783c286", "lat": 38.91760583333333, "lon": -77.01219, "rental_uris": {"android": "https://dc.lft.to/lastmile_qr_scan", "ios": "https://dc.lft.to/lastmile_qr_scan"}, "is_disabled": 0, "fusion_lat": 0.0, "name": "be2d87e28a1455aa438399a5a783c286", "fusion_lon": 0.0}, {"is_reserved": 0, "type": "electric_scooter", "bike_id": "3e4c8c9900863eccff970812b4f0452e", "lat": 38.8982985, "lon": -77.02787683333334, "rental_uris": {"android": "https://dc.lft.to/lastmile_qr_scan", "ios": "https://dc.lft.to/lastmile_qr_scan"}, "is_disabled": 0, "fusion_lat": 0.0, "name": "3e4c8c9900863eccff970812b4f0452e", "fusion_lon": 0.0}, {"is_reserved": 0, "type": "electric_scooter", "bike_id": "d484c93f11b049c60ecc42238c5f50d0", "lat": 38.924387833333334, "lon": -77.03404533333334, "rental_uris": {"android": "https://dc.lft.to/lastmile_qr_scan", "ios": "https://dc.lft.to/lastmile_qr_scan"}, "is_disabled": 0, "fusion_lat": 0.0, "name": "d484c93f11b049c60ecc42238c5f50d0", "fusion_lon": 0.0}, {"is_reserved": 0, "type": "electric_scooter", "bike_id": "b6072712d1703e34eda306a130ad69fc", "lat": 38.884948666666666, "lon": -77.00713816666666, "rental_uris": {"android": "https://dc.lft.to/lastmile_qr_scan", "ios": "https://dc.lft.to/lastmile_qr_scan"}, "is_disabled": 0, "fusion_lat": 0.0, "name": "b6072712d1703e34eda306a130ad69fc", "fusion_lon": 0.0}, {"is_reserved": 0, "type": "electric_scooter", "bike_id": "61480412ee55a66bc47fa84d183ce04b", "lat": 38.9126505, "lon": -77.03155383333333, "rental_uris": {"android": "https://dc.lft.to/lastmile_qr_scan", "ios": "https://dc.lft.to/lastmile_qr_scan"}, "is_disabled": 0, "fusion_lat": 0.0, "name": "61480412ee55a66bc47fa84d183ce04b", "fusion_lon": 0.0}, {"is_reserved": 0, "type": "electric_scooter", "bike_id": "f9f1b91c25994c9e33e70654a51d45f0", "lat": 38.924515, "lon": -77.03406416666667, "rental_uris": {"android": "https://dc.lft.to/lastmile_qr_scan", "ios": "https://dc.lft.to/lastmile_qr_scan"}, "is_disabled": 0, "fusion_lat": 0.0, "name": "f9f1b91c25994c9e33e70654a51d45f0", "fusion_lon": 0.0}, {"is_reserved": 0, "type": "electric_bike", "bike_id": "f5da2a37b000a5c373235dddd9d01776", "lat": 38.91133683333334, "lon": -77.06570166666667, "rental_uris": {"android": "https://dc.lft.to/lastmile_qr_scan", "ios": "https://dc.lft.to/lastmile_qr_scan"}, "is_disabled": 0, "fusion_lat": 0.0, "name": "f5da2a37b000a5c373235dddd9d01776", "fusion_lon": 0.0}, {"is_reserved": 0, "type": "electric_scooter", "bike_id": "d8fb582dcb891f3fa014ba9268a54164", "lat": 38.903855666666665, "lon": -77.01611416666667, "rental_uris": {"android": "https://dc.lft.to/lastmile_qr_scan", "ios": "https://dc.lft.to/lastmile_qr_scan"}, "is_disabled": 0, "fusion_lat": 0.0, "name": "d8fb582dcb891f3fa014ba9268a54164", "fusion_lon": 0.0}, {"is_reserved": 0, "type": "electric_scooter", "bike_id": "c0aa34886b330c5c3d62016e273f3c4b", "lat": 38.92221416666667, "lon": -77.01806183333333, "rental_uris": {"android": "https://dc.lft.to/lastmile_qr_scan", "ios": "https://dc.lft.to/lastmile_qr_scan"}, "is_disabled": 0, "fusion_lat": 0.0, "name": "c0aa34886b330c5c3d62016e273f3c4b", "fusion_lon": 0.0}, {"is_reserved": 0, "type": "electric_scooter", "bike_id": "56a0356f62ae4a3985efa68481ca8962", "lat": 38.907324, "lon": -77.00767283333333, "rental_uris": {"android": "https://dc.lft.to/lastmile_qr_scan", "ios": "https://dc.lft.to/lastmile_qr_scan"}, "is_disabled": 0, "fusion_lat": 0.0, "name": "56a0356f62ae4a3985efa68481ca8962", "fusion_lon": 0.0}, {"is_reserved": 0, "type": "electric_scooter", "bike_id": "ac4ef26563fb1ade77dd0375da8154c0", "lat": 38.892235, "lon": -77.04866116666666, "rental_uris": {"android": "https://dc.lft.to/lastmile_qr_scan", "ios": "https://dc.lft.to/lastmile_qr_scan"}, "is_disabled": 0, "fusion_lat": 0.0, "name": "ac4ef26563fb1ade77dd0375da8154c0", "fusion_lon": 0.0}, {"is_reserved": 0, "type": "electric_scooter", "bike_id": "acdbff833ee377f2ef54a216082f91ea", "lat": 38.903795333333335, "lon": -77.021407, "rental_uris": {"android": "https://dc.lft.to/lastmile_qr_scan", "ios": "https://dc.lft.to/lastmile_qr_scan"}, "is_disabled": 0, "fusion_lat": 0.0, "name": "acdbff833ee377f2ef54a216082f91ea", "fusion_lon": 0.0}, {"is_reserved": 0, "type": "electric_scooter", "bike_id": "906130f377e9298e1774de703ff9a25c", "lat": 38.9148555, "lon": -77.002198, "rental_uris": {"android": "https://dc.lft.to/lastmile_qr_scan", "ios": "https://dc.lft.to/lastmile_qr_scan"}, "is_disabled": 0, "fusion_lat": 0.0, "name": "906130f377e9298e1774de703ff9a25c", "fusion_lon": 0.0}, {"is_reserved": 0, "type": "electric_scooter", "bike_id": "245ad9ffdf2d2d11d688e54f77ca92e3", "lat": 38.918088166666664, "lon": -77.00979, "rental_uris": {"android": "https://dc.lft.to/lastmile_qr_scan", "ios": "https://dc.lft.to/lastmile_qr_scan"}, "is_disabled": 0, "fusion_lat": 0.0, "name": "245ad9ffdf2d2d11d688e54f77ca92e3", "fusion_lon": 0.0}, {"is_reserved": 0, "type": "electric_scooter", "bike_id": "b1e1ab058c6678f4ca7e3fe86012e628", "lat": 38.93328416666667, "lon": -77.02389266666667, "rental_uris": {"android": "https://dc.lft.to/lastmile_qr_scan", "ios": "https://dc.lft.to/lastmile_qr_scan"}, "is_disabled": 0, "fusion_lat": 0.0, "name": "b1e1ab058c6678f4ca7e3fe86012e628", "fusion_lon": 0.0}, {"is_reserved": 0, "type": "electric_scooter", "bike_id": "48d01779f88b6820d3ac76c65822e12b", "lat": 38.93884933333333, "lon": -77.03286583333333, "rental_uris": {"android": "https://dc.lft.to/lastmile_qr_scan", "ios": "https://dc.lft.to/lastmile_qr_scan"}, "is_disabled": 0, "fusion_lat": 0.0, "name": "48d01779f88b6820d3ac76c65822e12b", "fusion_lon": 0.0}, {"is_reserved": 0, "type": "electric_scooter", "bike_id": "a23d0348f335916980dd589b82b725f1", "lat": 38.942435333333336, "lon": -77.03588283333333, "rental_uris": {"android": "https://dc.lft.to/lastmile_qr_scan", "ios": "https://dc.lft.to/lastmile_qr_scan"}, "is_disabled": 0, "fusion_lat": 0.0, "name": "a23d0348f335916980dd589b82b725f1", "fusion_lon": 0.0}, {"is_reserved": 0, "type": "electric_bike", "bike_id": "cf50671fc96d4910a6d33d2c95948fc9", "lat": 38.863701666666664, "lon": -76.97000033333333, "rental_uris": {"android": "https://dc.lft.to/lastmile_qr_scan", "ios": "https://dc.lft.to/lastmile_qr_scan"}, "is_disabled": 0, "fusion_lat": 0.0, "name": "cf50671fc96d4910a6d33d2c95948fc9", "fusion_lon": 0.0}, {"is_reserved": 0, "type": "electric_scooter", "bike_id": "8c89fa75284672b0caf648db57aac676", "lat": 38.9100505, "lon": -77.04010733333334, "rental_uris": {"android": "https://dc.lft.to/lastmile_qr_scan", "ios": "https://dc.lft.to/lastmile_qr_scan"}, "is_disabled": 0, "fusion_lat": 0.0, "name": "8c89fa75284672b0caf648db57aac676", "fusion_lon": 0.0}, {"is_reserved": 0, "type": "electric_scooter", "bike_id": "449348c5c3860c4b90098984fc206ef2", "lat": 38.92839133333333, "lon": -77.027327, "rental_uris": {"android": "https://dc.lft.to/lastmile_qr_scan", "ios": "https://dc.lft.to/lastmile_qr_scan"}, "is_disabled": 0, "fusion_lat": 0.0, "name": "449348c5c3860c4b90098984fc206ef2", "fusion_lon": 0.0}, {"is_reserved": 0, "type": "electric_scooter", "bike_id": "da99abc3786560f9effa7f81f8a86bcb", "lat": 38.896278833333334, "lon": -77.03224316666666, "rental_uris": {"android": "https://dc.lft.to/lastmile_qr_scan", "ios": "https://dc.lft.to/lastmile_qr_scan"}, "is_disabled": 0, "fusion_lat": 0.0, "name": "da99abc3786560f9effa7f81f8a86bcb", "fusion_lon": 0.0}, {"is_reserved": 0, "type": "electric_scooter", "bike_id": "6a6fe09bc494c844142eb0f9198716ac", "lat": 38.905382, "lon": -77.00207666666667, "rental_uris": {"android": "https://dc.lft.to/lastmile_qr_scan", "ios": "https://dc.lft.to/lastmile_qr_scan"}, "is_disabled": 0, "fusion_lat": 0.0, "name": "6a6fe09bc494c844142eb0f9198716ac", "fusion_lon": 0.0}, {"is_reserved": 0, "type": "electric_scooter", "bike_id": "52569753c01953f899e45af623862f3d", "lat": 38.89886966666667, "lon": -76.93178066666667, "rental_uris": {"android": "https://dc.lft.to/lastmile_qr_scan", "ios": "https://dc.lft.to/lastmile_qr_scan"}, "is_disabled": 0, "fusion_lat": 0.0, "name": "52569753c01953f899e45af623862f3d", "fusion_lon": 0.0}, {"is_reserved": 0, "type": "electric_scooter", "bike_id": "6439a50a220f762d2c04403226dcb67c", "lat": 38.896139, "lon": -77.04411633333333, "rental_uris": {"android": "https://dc.lft.to/lastmile_qr_scan", "ios": "https://dc.lft.to/lastmile_qr_scan"}, "is_disabled": 0, "fusion_lat": 0.0, "name": "6439a50a220f762d2c04403226dcb67c", "fusion_lon": 0.0}, {"is_reserved": 0, "type": "electric_scooter", "bike_id": "2f4e33e40bbc28b6c90f5950ed08bc2d", "lat": 38.93087716666667, "lon": -77.02409266666666, "rental_uris": {"android": "https://dc.lft.to/lastmile_qr_scan", "ios": "https://dc.lft.to/lastmile_qr_scan"}, "is_disabled": 0, "fusion_lat": 0.0, "name": "2f4e33e40bbc28b6c90f5950ed08bc2d", "fusion_lon": 0.0}, {"is_reserved": 0, "type": "electric_scooter", "bike_id": "6f9eff389d2d20fb097431fe2c302cc9", "lat": 38.90644733333333, "lon": -77.046588, "rental_uris": {"android": "https://dc.lft.to/lastmile_qr_scan", "ios": "https://dc.lft.to/lastmile_qr_scan"}, "is_disabled": 0, "fusion_lat": 0.0, "name": "6f9eff389d2d20fb097431fe2c302cc9", "fusion_lon": 0.0}, {"is_reserved": 0, "type": "electric_scooter", "bike_id": "d41444cd69acaaf46318eb9f065bd363", "lat": 38.918169166666665, "lon": -77.03026316666667, "rental_uris": {"android": "https://dc.lft.to/lastmile_qr_scan", "ios": "https://dc.lft.to/lastmile_qr_scan"}, "is_disabled": 0, "fusion_lat": 0.0, "name": "d41444cd69acaaf46318eb9f065bd363", "fusion_lon": 0.0}, {"is_reserved": 0, "type": "electric_scooter", "bike_id": "03cb44374519f733c0f6b37dc9aefaaf", "lat": 38.90065716666667, "lon": -76.92744466666667, "rental_uris": {"android": "https://dc.lft.to/lastmile_qr_scan", "ios": "https://dc.lft.to/lastmile_qr_scan"}, "is_disabled": 0, "fusion_lat": 0.0, "name": "03cb44374519f733c0f6b37dc9aefaaf", "fusion_lon": 0.0}, {"is_reserved": 0, "type": "electric_scooter", "bike_id": "96e6cf252a8989f1fb196e236dfa59f8", "lat": 38.929474166666665, "lon": -77.00412983333334, "rental_uris": {"android": "https://dc.lft.to/lastmile_qr_scan", "ios": "https://dc.lft.to/lastmile_qr_scan"}, "is_disabled": 0, "fusion_lat": 0.0, "name": "96e6cf252a8989f1fb196e236dfa59f8", "fusion_lon": 0.0}, {"is_reserved": 0, "type": "electric_scooter", "bike_id": "34ec41492cbbea3bc03e498ad82c6937", "lat": 38.87807133333333, "lon": -76.994866, "rental_uris": {"android": "https://dc.lft.to/lastmile_qr_scan", "ios": "https://dc.lft.to/lastmile_qr_scan"}, "is_disabled": 0, "fusion_lat": 0.0, "name": "34ec41492cbbea3bc03e498ad82c6937", "fusion_lon": 0.0}, {"is_reserved": 0, "type": "electric_scooter", "bike_id": "a37b780824857b2f918e75604c8561c3", "lat": 38.88723516666667, "lon": -76.9835815, "rental_uris": {"android": "https://dc.lft.to/lastmile_qr_scan", "ios": "https://dc.lft.to/lastmile_qr_scan"}, "is_disabled": 0, "fusion_lat": 0.0, "name": "a37b780824857b2f918e75604c8561c3", "fusion_lon": 0.0}, {"is_reserved": 0, "type": "electric_scooter", "bike_id": "a34c792509426cde52b75b53730a2e89", "lat": 38.9202965, "lon": -76.985432, "rental_uris": {"android": "https://dc.lft.to/lastmile_qr_scan", "ios": "https://dc.lft.to/lastmile_qr_scan"}, "is_disabled": 0, "fusion_lat": 0.0, "name": "a34c792509426cde52b75b53730a2e89", "fusion_lon": 0.0}, {"is_reserved": 0, "type": "electric_scooter", "bike_id": "fdc4f2079b328eacef9c4e6248d925de", "lat": 38.91645283333333, "lon": -77.01051883333334, "rental_uris": {"android": "https://dc.lft.to/lastmile_qr_scan", "ios": "https://dc.lft.to/lastmile_qr_scan"}, "is_disabled": 0, "fusion_lat": 0.0, "name": "fdc4f2079b328eacef9c4e6248d925de", "fusion_lon": 0.0}, {"is_reserved": 0, "type": "electric_scooter", "bike_id": "f865361269f1074e3e7643afc217c4a7", "lat": 38.89995733333333, "lon": -77.02201083333334, "rental_uris": {"android": "https://dc.lft.to/lastmile_qr_scan", "ios": "https://dc.lft.to/lastmile_qr_scan"}, "is_disabled": 0, "fusion_lat": 0.0, "name": "f865361269f1074e3e7643afc217c4a7", "fusion_lon": 0.0}, {"is_reserved": 0, "type": "electric_bike", "bike_id": "e109cc7688b73982addaf70cc1d6d11b", "lat": 38.96673333333333, "lon": -77.02301966666667, "rental_uris": {"android": "https://dc.lft.to/lastmile_qr_scan", "ios": "https://dc.lft.to/lastmile_qr_scan"}, "is_disabled": 0, "fusion_lat": 0.0, "name": "e109cc7688b73982addaf70cc1d6d11b", "fusion_lon": 0.0}, {"is_reserved": 0, "type": "electric_bike", "bike_id": "7064301daa3fe60c7ef272e7766ae668", "lat": 38.915606, "lon": -77.0201505, "rental_uris": {"android": "https://dc.lft.to/lastmile_qr_scan", "ios": "https://dc.lft.to/lastmile_qr_scan"}, "is_disabled": 0, "fusion_lat": 0.0, "name": "7064301daa3fe60c7ef272e7766ae668", "fusion_lon": 0.0}, {"is_reserved": 0, "type": "electric_bike", "bike_id": "e56c3e49d237771f5204debeddc35e9f", "lat": 38.867571833333336, "lon": -76.94535966666666, "rental_uris": {"android": "https://dc.lft.to/lastmile_qr_scan", "ios": "https://dc.lft.to/lastmile_qr_scan"}, "is_disabled": 0, "fusion_lat": 0.0, "name": "e56c3e49d237771f5204debeddc35e9f", "fusion_lon": 0.0}, {"is_reserved": 0, "type": "electric_scooter", "bike_id": "8309cbc4a51819c8d7edd11d55ee06ad", "lat": 38.9025125, "lon": -77.0533515, "rental_uris": {"android": "https://dc.lft.to/lastmile_qr_scan", "ios": "https://dc.lft.to/lastmile_qr_scan"}, "is_disabled": 0, "fusion_lat": 0.0, "name": "8309cbc4a51819c8d7edd11d55ee06ad", "fusion_lon": 0.0}, {"is_reserved": 0, "type": "electric_scooter", "bike_id": "c84fe9d4c760bb335e0206434ec6a48f", "lat": 38.871598666666664, "lon": -76.96578566666666, "rental_uris": {"android": "https://dc.lft.to/lastmile_qr_scan", "ios": "https://dc.lft.to/lastmile_qr_scan"}, "is_disabled": 0, "fusion_lat": 0.0, "name": "c84fe9d4c760bb335e0206434ec6a48f", "fusion_lon": 0.0}, {"is_reserved": 0, "type": "electric_scooter", "bike_id": "e7ec0684732ffe3f18f4fc07b479484a", "lat": 38.92294416666667, "lon": -77.033967, "rental_uris": {"android": "https://dc.lft.to/lastmile_qr_scan", "ios": "https://dc.lft.to/lastmile_qr_scan"}, "is_disabled": 0, "fusion_lat": 0.0, "name": "e7ec0684732ffe3f18f4fc07b479484a", "fusion_lon": 0.0}, {"is_reserved": 0, "type": "electric_scooter", "bike_id": "081ee5e77bd443c4013f246437ff705a", "lat": 38.92386483333333, "lon": -77.03050283333333, "rental_uris": {"android": "https://dc.lft.to/lastmile_qr_scan", "ios": "https://dc.lft.to/lastmile_qr_scan"}, "is_disabled": 0, "fusion_lat": 0.0, "name": "081ee5e77bd443c4013f246437ff705a", "fusion_lon": 0.0}, {"is_reserved": 0, "type": "electric_scooter", "bike_id": "a0913bd6704e0c0e2ce4f58e1d11c456", "lat": 38.887732166666666, "lon": -76.93261433333333, "rental_uris": {"android": "https://dc.lft.to/lastmile_qr_scan", "ios": "https://dc.lft.to/lastmile_qr_scan"}, "is_disabled": 0, "fusion_lat": 0.0, "name": "a0913bd6704e0c0e2ce4f58e1d11c456", "fusion_lon": 0.0}, {"is_reserved": 0, "type": "electric_scooter", "bike_id": "24f155099fcfcc50ea558dbd4ffc8b20", "lat": 38.94980966666667, "lon": -77.0244875, "rental_uris": {"android": "https://dc.lft.to/lastmile_qr_scan", "ios": "https://dc.lft.to/lastmile_qr_scan"}, "is_disabled": 0, "fusion_lat": 0.0, "name": "24f155099fcfcc50ea558dbd4ffc8b20", "fusion_lon": 0.0}, {"is_reserved": 0, "type": "electric_scooter", "bike_id": "e2f5bf23f121ef6a21cf0d870ef832c1", "lat": 38.911186666666666, "lon": -77.03829233333333, "rental_uris": {"android": "https://dc.lft.to/lastmile_qr_scan", "ios": "https://dc.lft.to/lastmile_qr_scan"}, "is_disabled": 0, "fusion_lat": 0.0, "name": "e2f5bf23f121ef6a21cf0d870ef832c1", "fusion_lon": 0.0}, {"is_reserved": 0, "type": "electric_bike", "bike_id": "7766ad50035622afc8510c670d7f16d3", "lat": 38.98833183333333, "lon": -77.02657933333333, "rental_uris": {"android": "https://dc.lft.to/lastmile_qr_scan", "ios": "https://dc.lft.to/lastmile_qr_scan"}, "is_disabled": 0, "fusion_lat": 0.0, "name": "7766ad50035622afc8510c670d7f16d3", "fusion_lon": 0.0}, {"is_reserved": 0, "type": "electric_scooter", "bike_id": "3f70d44732006aacbda43e549558ed25", "lat": 38.954666833333334, "lon": -77.07769366666666, "rental_uris": {"android": "https://dc.lft.to/lastmile_qr_scan", "ios": "https://dc.lft.to/lastmile_qr_scan"}, "is_disabled": 0, "fusion_lat": 0.0, "name": "3f70d44732006aacbda43e549558ed25", "fusion_lon": 0.0}, {"is_reserved": 0, "type": "electric_scooter", "bike_id": "4c71eaf1350045a2769e71f6137f4ce1", "lat": 38.914644833333334, "lon": -77.02613883333333, "rental_uris": {"android": "https://dc.lft.to/lastmile_qr_scan", "ios": "https://dc.lft.to/lastmile_qr_scan"}, "is_disabled": 0, "fusion_lat": 0.0, "name": "4c71eaf1350045a2769e71f6137f4ce1", "fusion_lon": 0.0}, {"is_reserved": 0, "type": "electric_scooter", "bike_id": "73fa2c25da4c4fc8f5af8c3f2096c3b2", "lat": 38.917196, "lon": -77.02969033333333, "rental_uris": {"android": "https://dc.lft.to/lastmile_qr_scan", "ios": "https://dc.lft.to/lastmile_qr_scan"}, "is_disabled": 0, "fusion_lat": 0.0, "name": "73fa2c25da4c4fc8f5af8c3f2096c3b2", "fusion_lon": 0.0}, {"is_reserved": 0, "type": "electric_scooter", "bike_id": "1ba40845ae59fe303cb53a443a8a575f", "lat": 38.902245666666666, "lon": -77.05317066666667, "rental_uris": {"android": "https://dc.lft.to/lastmile_qr_scan", "ios": "https://dc.lft.to/lastmile_qr_scan"}, "is_disabled": 0, "fusion_lat": 0.0, "name": "1ba40845ae59fe303cb53a443a8a575f", "fusion_lon": 0.0}, {"is_reserved": 0, "type": "electric_scooter", "bike_id": "55b5ce347814ac98ab4560e6edc766b1", "lat": 38.919157166666665, "lon": -77.03179, "rental_uris": {"android": "https://dc.lft.to/lastmile_qr_scan", "ios": "https://dc.lft.to/lastmile_qr_scan"}, "is_disabled": 0, "fusion_lat": 0.0, "name": "55b5ce347814ac98ab4560e6edc766b1", "fusion_lon": 0.0}, {"is_reserved": 0, "type": "electric_scooter", "bike_id": "34bc95203c28c530dd965b60a10389f8", "lat": 38.907906, "lon": -77.009704, "rental_uris": {"android": "https://dc.lft.to/lastmile_qr_scan", "ios": "https://dc.lft.to/lastmile_qr_scan"}, "is_disabled": 0, "fusion_lat": 0.0, "name": "34bc95203c28c530dd965b60a10389f8", "fusion_lon": 0.0}, {"is_reserved": 0, "type": "electric_scooter", "bike_id": "9c98c8c186209d62e003e4b98c08e29e", "lat": 38.89983616666667, "lon": -77.0220525, "rental_uris": {"android": "https://dc.lft.to/lastmile_qr_scan", "ios": "https://dc.lft.to/lastmile_qr_scan"}, "is_disabled": 0, "fusion_lat": 0.0, "name": "9c98c8c186209d62e003e4b98c08e29e", "fusion_lon": 0.0}, {"is_reserved": 0, "type": "electric_scooter", "bike_id": "5eb349d14c51a1e9a56dcd024174fc87", "lat": 38.9005865, "lon": -77.0486265, "rental_uris": {"android": "https://dc.lft.to/lastmile_qr_scan", "ios": "https://dc.lft.to/lastmile_qr_scan"}, "is_disabled": 0, "fusion_lat": 0.0, "name": "5eb349d14c51a1e9a56dcd024174fc87", "fusion_lon": 0.0}, {"is_reserved": 0, "type": "electric_scooter", "bike_id": "4e8b014af2a09f7250b2db580e69f598", "lat": 38.899825166666666, "lon": -77.03090383333333, "rental_uris": {"android": "https://dc.lft.to/lastmile_qr_scan", "ios": "https://dc.lft.to/lastmile_qr_scan"}, "is_disabled": 0, "fusion_lat": 0.0, "name": "4e8b014af2a09f7250b2db580e69f598", "fusion_lon": 0.0}, {"is_reserved": 0, "type": "electric_scooter", "bike_id": "7ef858db8021978a81e667f63ebe5a81", "lat": 38.9149685, "lon": -77.01222966666667, "rental_uris": {"android": "https://dc.lft.to/lastmile_qr_scan", "ios": "https://dc.lft.to/lastmile_qr_scan"}, "is_disabled": 0, "fusion_lat": 0.0, "name": "7ef858db8021978a81e667f63ebe5a81", "fusion_lon": 0.0}, {"is_reserved": 0, "type": "electric_scooter", "bike_id": "6834eace285baf217171ef56690247b3", "lat": 38.916258166666665, "lon": -77.0280345, "rental_uris": {"android": "https://dc.lft.to/lastmile_qr_scan", "ios": "https://dc.lft.to/lastmile_qr_scan"}, "is_disabled": 0, "fusion_lat": 0.0, "name": "6834eace285baf217171ef56690247b3", "fusion_lon": 0.0}, {"is_reserved": 0, "type": "electric_bike", "bike_id": "b0cb50918a28a4908f684275dfd440d0", "lat": 38.906947, "lon": -76.95253266666667, "rental_uris": {"android": "https://dc.lft.to/lastmile_qr_scan", "ios": "https://dc.lft.to/lastmile_qr_scan"}, "is_disabled": 0, "fusion_lat": 0.0, "name": "b0cb50918a28a4908f684275dfd440d0", "fusion_lon": 0.0}, {"is_reserved": 0, "type": "electric_scooter", "bike_id": "d60a67be9aa356f9de0552d811f9d3d7", "lat": 38.9242, "lon": -77.01942683333333, "rental_uris": {"android": "https://dc.lft.to/lastmile_qr_scan", "ios": "https://dc.lft.to/lastmile_qr_scan"}, "is_disabled": 0, "fusion_lat": 0.0, "name": "d60a67be9aa356f9de0552d811f9d3d7", "fusion_lon": 0.0}, {"is_reserved": 0, "type": "electric_scooter", "bike_id": "5670f7395232f4f77471b1bc1c103bac", "lat": 38.938607166666664, "lon": -77.075779, "rental_uris": {"android": "https://dc.lft.to/lastmile_qr_scan", "ios": "https://dc.lft.to/lastmile_qr_scan"}, "is_disabled": 0, "fusion_lat": 0.0, "name": "5670f7395232f4f77471b1bc1c103bac", "fusion_lon": 0.0}, {"is_reserved": 0, "type": "electric_scooter", "bike_id": "caa6491b27df94b3581e45e39c316b42", "lat": 38.883424833333336, "lon": -77.0199765, "rental_uris": {"android": "https://dc.lft.to/lastmile_qr_scan", "ios": "https://dc.lft.to/lastmile_qr_scan"}, "is_disabled": 0, "fusion_lat": 0.0, "name": "caa6491b27df94b3581e45e39c316b42", "fusion_lon": 0.0}, {"is_reserved": 0, "type": "electric_scooter", "bike_id": "919336818b3265527473d70fe8bb3bae", "lat": 38.94032416666667, "lon": -77.025132, "rental_uris": {"android": "https://dc.lft.to/lastmile_qr_scan", "ios": "https://dc.lft.to/lastmile_qr_scan"}, "is_disabled": 0, "fusion_lat": 0.0, "name": "919336818b3265527473d70fe8bb3bae", "fusion_lon": 0.0}, {"is_reserved": 0, "type": "electric_scooter", "bike_id": "07ca851e3b75fcbabe0e45a084e779d4", "lat": 38.917091666666664, "lon": -77.02678116666667, "rental_uris": {"android": "https://dc.lft.to/lastmile_qr_scan", "ios": "https://dc.lft.to/lastmile_qr_scan"}, "is_disabled": 0, "fusion_lat": 0.0, "name": "07ca851e3b75fcbabe0e45a084e779d4", "fusion_lon": 0.0}, {"is_reserved": 0, "type": "electric_scooter", "bike_id": "b2d0ece5ffe7a6feea1feb10cd598cbb", "lat": 38.93534866666667, "lon": -77.07265833333334, "rental_uris": {"android": "https://dc.lft.to/lastmile_qr_scan", "ios": "https://dc.lft.to/lastmile_qr_scan"}, "is_disabled": 0, "fusion_lat": 0.0, "name": "b2d0ece5ffe7a6feea1feb10cd598cbb", "fusion_lon": 0.0}, {"is_reserved": 0, "type": "electric_scooter", "bike_id": "b9511a938a7a2c19dd6b29e4e9c0507f", "lat": 38.90492533333333, "lon": -77.029687, "rental_uris": {"android": "https://dc.lft.to/lastmile_qr_scan", "ios": "https://dc.lft.to/lastmile_qr_scan"}, "is_disabled": 0, "fusion_lat": 0.0, "name": "b9511a938a7a2c19dd6b29e4e9c0507f", "fusion_lon": 0.0}, {"is_reserved": 0, "type": "electric_scooter", "bike_id": "3be7a3ce33e8f57a2d584b4d48531076", "lat": 38.9026895, "lon": -77.039657, "rental_uris": {"android": "https://dc.lft.to/lastmile_qr_scan", "ios": "https://dc.lft.to/lastmile_qr_scan"}, "is_disabled": 0, "fusion_lat": 0.0, "name": "3be7a3ce33e8f57a2d584b4d48531076", "fusion_lon": 0.0}, {"is_reserved": 0, "type": "electric_scooter", "bike_id": "2008c84c98c121f1972aaec00a6107fe", "lat": 38.895435666666664, "lon": -76.98334716666666, "rental_uris": {"android": "https://dc.lft.to/lastmile_qr_scan", "ios": "https://dc.lft.to/lastmile_qr_scan"}, "is_disabled": 0, "fusion_lat": 0.0, "name": "2008c84c98c121f1972aaec00a6107fe", "fusion_lon": 0.0}, {"is_reserved": 0, "type": "electric_scooter", "bike_id": "f0db9b39766f55e07b3cedfa96c117b4", "lat": 38.8988495, "lon": -76.98829633333334, "rental_uris": {"android": "https://dc.lft.to/lastmile_qr_scan", "ios": "https://dc.lft.to/lastmile_qr_scan"}, "is_disabled": 0, "fusion_lat": 0.0, "name": "f0db9b39766f55e07b3cedfa96c117b4", "fusion_lon": 0.0}, {"is_reserved": 0, "type": "electric_scooter", "bike_id": "595b6b0744492ea27e5dd5de1c4ffe64", "lat": 38.896103333333336, "lon": -77.02604933333333, "rental_uris": {"android": "https://dc.lft.to/lastmile_qr_scan", "ios": "https://dc.lft.to/lastmile_qr_scan"}, "is_disabled": 0, "fusion_lat": 0.0, "name": "595b6b0744492ea27e5dd5de1c4ffe64", "fusion_lon": 0.0}, {"is_reserved": 0, "type": "electric_scooter", "bike_id": "3eb63ff6403683ea2925253a3cf01ab5", "lat": 38.917795, "lon": -77.0231435, "rental_uris": {"android": "https://dc.lft.to/lastmile_qr_scan", "ios": "https://dc.lft.to/lastmile_qr_scan"}, "is_disabled": 0, "fusion_lat": 0.0, "name": "3eb63ff6403683ea2925253a3cf01ab5", "fusion_lon": 0.0}, {"is_reserved": 0, "type": "electric_bike", "bike_id": "38a864084d1c2a7e4ce9f9920f8aa35c", "lat": 38.840474, "lon": -77.05598216666667, "rental_uris": {"android": "https://dc.lft.to/lastmile_qr_scan", "ios": "https://dc.lft.to/lastmile_qr_scan"}, "is_disabled": 0, "fusion_lat": 0.0, "name": "38a864084d1c2a7e4ce9f9920f8aa35c", "fusion_lon": 0.0}, {"is_reserved": 0, "type": "electric_scooter", "bike_id": "c7e1575015b6fc24c49e5777e2cc68e9", "lat": 38.9154835, "lon": -77.01206133333334, "rental_uris": {"android": "https://dc.lft.to/lastmile_qr_scan", "ios": "https://dc.lft.to/lastmile_qr_scan"}, "is_disabled": 0, "fusion_lat": 0.0, "name": "c7e1575015b6fc24c49e5777e2cc68e9", "fusion_lon": 0.0}, {"is_reserved": 0, "type": "electric_scooter", "bike_id": "ba4e16e5cafa4a872ba3fd4d1318841a", "lat": 38.927504, "lon": -77.021133, "rental_uris": {"android": "https://dc.lft.to/lastmile_qr_scan", "ios": "https://dc.lft.to/lastmile_qr_scan"}, "is_disabled": 0, "fusion_lat": 0.0, "name": "ba4e16e5cafa4a872ba3fd4d1318841a", "fusion_lon": 0.0}, {"is_reserved": 0, "type": "electric_scooter", "bike_id": "624712fd59635e380058f2c78571102f", "lat": 38.894461666666665, "lon": -77.0453205, "rental_uris": {"android": "https://dc.lft.to/lastmile_qr_scan", "ios": "https://dc.lft.to/lastmile_qr_scan"}, "is_disabled": 0, "fusion_lat": 0.0, "name": "624712fd59635e380058f2c78571102f", "fusion_lon": 0.0}, {"is_reserved": 0, "type": "electric_scooter", "bike_id": "ada3d472e845afa5ec1876108d53c344", "lat": 38.900876, "lon": -76.98017383333334, "rental_uris": {"android": "https://dc.lft.to/lastmile_qr_scan", "ios": "https://dc.lft.to/lastmile_qr_scan"}, "is_disabled": 0, "fusion_lat": 0.0, "name": "ada3d472e845afa5ec1876108d53c344", "fusion_lon": 0.0}, {"is_reserved": 0, "type": "electric_scooter", "bike_id": "170ad01ff9ed33d11470f026c8444e76", "lat": 38.8957775, "lon": -77.04132533333333, "rental_uris": {"android": "https://dc.lft.to/lastmile_qr_scan", "ios": "https://dc.lft.to/lastmile_qr_scan"}, "is_disabled": 0, "fusion_lat": 0.0, "name": "170ad01ff9ed33d11470f026c8444e76", "fusion_lon": 0.0}, {"is_reserved": 0, "type": "electric_scooter", "bike_id": "b1377b17bb2f65ade21404bddab4eaad", "lat": 38.903800833333335, "lon": -77.01641216666667, "rental_uris": {"android": "https://dc.lft.to/lastmile_qr_scan", "ios": "https://dc.lft.to/lastmile_qr_scan"}, "is_disabled": 0, "fusion_lat": 0.0, "name": "b1377b17bb2f65ade21404bddab4eaad", "fusion_lon": 0.0}, {"is_reserved": 0, "type": "electric_scooter", "bike_id": "f631149b60ecbcf8d22cd8bd6d9bb7fa", "lat": 38.9187085, "lon": -77.035655, "rental_uris": {"android": "https://dc.lft.to/lastmile_qr_scan", "ios": "https://dc.lft.to/lastmile_qr_scan"}, "is_disabled": 0, "fusion_lat": 0.0, "name": "f631149b60ecbcf8d22cd8bd6d9bb7fa", "fusion_lon": 0.0}, {"is_reserved": 0, "type": "electric_scooter", "bike_id": "d7862261e53b08520cf756a81628b9af", "lat": 38.9079255, "lon": -77.04784783333334, "rental_uris": {"android": "https://dc.lft.to/lastmile_qr_scan", "ios": "https://dc.lft.to/lastmile_qr_scan"}, "is_disabled": 0, "fusion_lat": 0.0, "name": "d7862261e53b08520cf756a81628b9af", "fusion_lon": 0.0}, {"is_reserved": 0, "type": "electric_scooter", "bike_id": "3ddce7d08a11eeb62ecbd80268bd7242", "lat": 38.909698, "lon": -77.00769116666666, "rental_uris": {"android": "https://dc.lft.to/lastmile_qr_scan", "ios": "https://dc.lft.to/lastmile_qr_scan"}, "is_disabled": 0, "fusion_lat": 0.0, "name": "3ddce7d08a11eeb62ecbd80268bd7242", "fusion_lon": 0.0}, {"is_reserved": 0, "type": "electric_scooter", "bike_id": "3b5b21e17e26c530e7c0e0e4f0abae38", "lat": 38.925606333333334, "lon": -77.0375955, "rental_uris": {"android": "https://dc.lft.to/lastmile_qr_scan", "ios": "https://dc.lft.to/lastmile_qr_scan"}, "is_disabled": 0, "fusion_lat": 0.0, "name": "3b5b21e17e26c530e7c0e0e4f0abae38", "fusion_lon": 0.0}, {"is_reserved": 0, "type": "electric_scooter", "bike_id": "d9c9bd072a58c0333a368d9fb0618955", "lat": 38.8872555, "lon": -76.9837565, "rental_uris": {"android": "https://dc.lft.to/lastmile_qr_scan", "ios": "https://dc.lft.to/lastmile_qr_scan"}, "is_disabled": 0, "fusion_lat": 0.0, "name": "d9c9bd072a58c0333a368d9fb0618955", "fusion_lon": 0.0}, {"is_reserved": 0, "type": "electric_scooter", "bike_id": "988e10dc7861a400b76a390df08c8a5e", "lat": 38.92177366666667, "lon": -77.03999266666666, "rental_uris": {"android": "https://dc.lft.to/lastmile_qr_scan", "ios": "https://dc.lft.to/lastmile_qr_scan"}, "is_disabled": 0, "fusion_lat": 0.0, "name": "988e10dc7861a400b76a390df08c8a5e", "fusion_lon": 0.0}, {"is_reserved": 0, "type": "electric_scooter", "bike_id": "6a505639b210409bb26441d307e8bd64", "lat": 38.905952, "lon": -76.95058533333334, "rental_uris": {"android": "https://dc.lft.to/lastmile_qr_scan", "ios": "https://dc.lft.to/lastmile_qr_scan"}, "is_disabled": 0, "fusion_lat": 0.0, "name": "6a505639b210409bb26441d307e8bd64", "fusion_lon": 0.0}, {"is_reserved": 0, "type": "electric_scooter", "bike_id": "d543bb120aa5261f25247e79c0139ffc", "lat": 38.9025665, "lon": -77.017668, "rental_uris": {"android": "https://dc.lft.to/lastmile_qr_scan", "ios": "https://dc.lft.to/lastmile_qr_scan"}, "is_disabled": 0, "fusion_lat": 0.0, "name": "d543bb120aa5261f25247e79c0139ffc", "fusion_lon": 0.0}, {"is_reserved": 0, "type": "electric_scooter", "bike_id": "4b4528cf43ba7d1da97f0445a5f1a236", "lat": 38.90643716666666, "lon": -77.0114205, "rental_uris": {"android": "https://dc.lft.to/lastmile_qr_scan", "ios": "https://dc.lft.to/lastmile_qr_scan"}, "is_disabled": 0, "fusion_lat": 0.0, "name": "4b4528cf43ba7d1da97f0445a5f1a236", "fusion_lon": 0.0}, {"is_reserved": 0, "type": "electric_scooter", "bike_id": "58828b42d33f6142c121113c49dc6a34", "lat": 38.9141545, "lon": -77.026122, "rental_uris": {"android": "https://dc.lft.to/lastmile_qr_scan", "ios": "https://dc.lft.to/lastmile_qr_scan"}, "is_disabled": 0, "fusion_lat": 0.0, "name": "58828b42d33f6142c121113c49dc6a34", "fusion_lon": 0.0}, {"is_reserved": 0, "type": "electric_scooter", "bike_id": "37da5bef74ac7560f2c8c24db0fc53ec", "lat": 38.944418, "lon": -77.063527, "rental_uris": {"android": "https://dc.lft.to/lastmile_qr_scan", "ios": "https://dc.lft.to/lastmile_qr_scan"}, "is_disabled": 0, "fusion_lat": 0.0, "name": "37da5bef74ac7560f2c8c24db0fc53ec", "fusion_lon": 0.0}, {"is_reserved": 0, "type": "electric_scooter", "bike_id": "87774c7321d45b65b1343b58c989de21", "lat": 38.903870833333336, "lon": -77.0446225, "rental_uris": {"android": "https://dc.lft.to/lastmile_qr_scan", "ios": "https://dc.lft.to/lastmile_qr_scan"}, "is_disabled": 0, "fusion_lat": 0.0, "name": "87774c7321d45b65b1343b58c989de21", "fusion_lon": 0.0}, {"is_reserved": 0, "type": "electric_bike", "bike_id": "422b9739b984385fd0f78c884142443d", "lat": 38.8945425, "lon": -77.19132616666667, "rental_uris": {"android": "https://dc.lft.to/lastmile_qr_scan", "ios": "https://dc.lft.to/lastmile_qr_scan"}, "is_disabled": 0, "fusion_lat": 0.0, "name": "422b9739b984385fd0f78c884142443d", "fusion_lon": 0.0}, {"is_reserved": 0, "type": "electric_scooter", "bike_id": "1114d966ad8dacd6964d373a39bb30de", "lat": 38.932376833333336, "lon": -77.02959183333333, "rental_uris": {"android": "https://dc.lft.to/lastmile_qr_scan", "ios": "https://dc.lft.to/lastmile_qr_scan"}, "is_disabled": 0, "fusion_lat": 0.0, "name": "1114d966ad8dacd6964d373a39bb30de", "fusion_lon": 0.0}, {"is_reserved": 0, "type": "electric_scooter", "bike_id": "4205faeab8d6deab101f72e3ac447b56", "lat": 38.896754666666666, "lon": -76.9472925, "rental_uris": {"android": "https://dc.lft.to/lastmile_qr_scan", "ios": "https://dc.lft.to/lastmile_qr_scan"}, "is_disabled": 0, "fusion_lat": 0.0, "name": "4205faeab8d6deab101f72e3ac447b56", "fusion_lon": 0.0}, {"is_reserved": 0, "type": "electric_scooter", "bike_id": "ace2370637e41257919c6451395e31ad", "lat": 38.92327183333333, "lon": -77.03679583333333, "rental_uris": {"android": "https://dc.lft.to/lastmile_qr_scan", "ios": "https://dc.lft.to/lastmile_qr_scan"}, "is_disabled": 0, "fusion_lat": 0.0, "name": "ace2370637e41257919c6451395e31ad", "fusion_lon": 0.0}, {"is_reserved": 0, "type": "electric_scooter", "bike_id": "e6023d6e7b384b34025307231ebe98f3", "lat": 38.88394016666667, "lon": -76.9303775, "rental_uris": {"android": "https://dc.lft.to/lastmile_qr_scan", "ios": "https://dc.lft.to/lastmile_qr_scan"}, "is_disabled": 0, "fusion_lat": 0.0, "name": "e6023d6e7b384b34025307231ebe98f3", "fusion_lon": 0.0}, {"is_reserved": 0, "type": "electric_scooter", "bike_id": "2d30ebf8f0b3877f26af6f2bbcfb8fc2", "lat": 38.9133185, "lon": -77.04802366666667, "rental_uris": {"android": "https://dc.lft.to/lastmile_qr_scan", "ios": "https://dc.lft.to/lastmile_qr_scan"}, "is_disabled": 0, "fusion_lat": 0.0, "name": "2d30ebf8f0b3877f26af6f2bbcfb8fc2", "fusion_lon": 0.0}, {"is_reserved": 0, "type": "electric_scooter", "bike_id": "cea9e36a91eaa5312a4d7e8505aeb405", "lat": 38.91918533333333, "lon": -77.03407, "rental_uris": {"android": "https://dc.lft.to/lastmile_qr_scan", "ios": "https://dc.lft.to/lastmile_qr_scan"}, "is_disabled": 0, "fusion_lat": 0.0, "name": "cea9e36a91eaa5312a4d7e8505aeb405", "fusion_lon": 0.0}, {"is_reserved": 0, "type": "electric_scooter", "bike_id": "3ab8febc6095705f6e79463fa422b5a4", "lat": 38.92000016666667, "lon": -76.98611, "rental_uris": {"android": "https://dc.lft.to/lastmile_qr_scan", "ios": "https://dc.lft.to/lastmile_qr_scan"}, "is_disabled": 0, "fusion_lat": 0.0, "name": "3ab8febc6095705f6e79463fa422b5a4", "fusion_lon": 0.0}, {"is_reserved": 0, "type": "electric_scooter", "bike_id": "b5a10d3687c5f67dd1bfc3aed4e6f006", "lat": 38.887562833333334, "lon": -77.03366316666667, "rental_uris": {"android": "https://dc.lft.to/lastmile_qr_scan", "ios": "https://dc.lft.to/lastmile_qr_scan"}, "is_disabled": 0, "fusion_lat": 0.0, "name": "b5a10d3687c5f67dd1bfc3aed4e6f006", "fusion_lon": 0.0}, {"is_reserved": 0, "type": "electric_scooter", "bike_id": "43df0bc01aff889621fd6f661f01baac", "lat": 38.89871516666667, "lon": -77.02931133333334, "rental_uris": {"android": "https://dc.lft.to/lastmile_qr_scan", "ios": "https://dc.lft.to/lastmile_qr_scan"}, "is_disabled": 0, "fusion_lat": 0.0, "name": "43df0bc01aff889621fd6f661f01baac", "fusion_lon": 0.0}, {"is_reserved": 0, "type": "electric_bike", "bike_id": "e8deb1fd010f937d9254d8e3f91d132a", "lat": 38.887915, "lon": -76.92337416666666, "rental_uris": {"android": "https://dc.lft.to/lastmile_qr_scan", "ios": "https://dc.lft.to/lastmile_qr_scan"}, "is_disabled": 0, "fusion_lat": 0.0, "name": "e8deb1fd010f937d9254d8e3f91d132a", "fusion_lon": 0.0}, {"is_reserved": 0, "type": "electric_scooter", "bike_id": "a1fc1001a53cd728da8d967db454726f", "lat": 38.896164, "lon": -77.04491366666667, "rental_uris": {"android": "https://dc.lft.to/lastmile_qr_scan", "ios": "https://dc.lft.to/lastmile_qr_scan"}, "is_disabled": 0, "fusion_lat": 0.0, "name": "a1fc1001a53cd728da8d967db454726f", "fusion_lon": 0.0}, {"is_reserved": 0, "type": "electric_scooter", "bike_id": "bbf11eacc902ae4936d5810bdbcbb906", "lat": 38.97503433333333, "lon": -77.01698716666667, "rental_uris": {"android": "https://dc.lft.to/lastmile_qr_scan", "ios": "https://dc.lft.to/lastmile_qr_scan"}, "is_disabled": 0, "fusion_lat": 0.0, "name": "bbf11eacc902ae4936d5810bdbcbb906", "fusion_lon": 0.0}, {"is_reserved": 0, "type": "electric_scooter", "bike_id": "ee9d5f40882bf85c5b65c0cb0773d8a7", "lat": 38.89731316666666, "lon": -77.05475333333334, "rental_uris": {"android": "https://dc.lft.to/lastmile_qr_scan", "ios": "https://dc.lft.to/lastmile_qr_scan"}, "is_disabled": 0, "fusion_lat": 0.0, "name": "ee9d5f40882bf85c5b65c0cb0773d8a7", "fusion_lon": 0.0}, {"is_reserved": 0, "type": "electric_scooter", "bike_id": "d801a31a682f2a9b14da6897f7a206bd", "lat": 38.9242025, "lon": -77.01948083333333, "rental_uris": {"android": "https://dc.lft.to/lastmile_qr_scan", "ios": "https://dc.lft.to/lastmile_qr_scan"}, "is_disabled": 0, "fusion_lat": 0.0, "name": "d801a31a682f2a9b14da6897f7a206bd", "fusion_lon": 0.0}, {"is_reserved": 0, "type": "electric_scooter", "bike_id": "bce16dad2be458d6fd3814d3c6cb5543", "lat": 38.903984666666666, "lon": -77.062968, "rental_uris": {"android": "https://dc.lft.to/lastmile_qr_scan", "ios": "https://dc.lft.to/lastmile_qr_scan"}, "is_disabled": 0, "fusion_lat": 0.0, "name": "bce16dad2be458d6fd3814d3c6cb5543", "fusion_lon": 0.0}, {"is_reserved": 0, "type": "electric_scooter", "bike_id": "14af5c40dd17f608d5b84ea693a01dee", "lat": 38.9092605, "lon": -77.0320435, "rental_uris": {"android": "https://dc.lft.to/lastmile_qr_scan", "ios": "https://dc.lft.to/lastmile_qr_scan"}, "is_disabled": 0, "fusion_lat": 0.0, "name": "14af5c40dd17f608d5b84ea693a01dee", "fusion_lon": 0.0}, {"is_reserved": 0, "type": "electric_bike", "bike_id": "b2da83846d406505925bd87ac8b0ace0", "lat": 38.929073, "lon": -77.0974095, "rental_uris": {"android": "https://dc.lft.to/lastmile_qr_scan", "ios": "https://dc.lft.to/lastmile_qr_scan"}, "is_disabled": 0, "fusion_lat": 0.0, "name": "b2da83846d406505925bd87ac8b0ace0", "fusion_lon": 0.0}, {"is_reserved": 0, "type": "electric_scooter", "bike_id": "7393bc15eeb76dd30b128e7a45840501", "lat": 38.90563683333333, "lon": -77.009174, "rental_uris": {"android": "https://dc.lft.to/lastmile_qr_scan", "ios": "https://dc.lft.to/lastmile_qr_scan"}, "is_disabled": 0, "fusion_lat": 0.0, "name": "7393bc15eeb76dd30b128e7a45840501", "fusion_lon": 0.0}, {"is_reserved": 0, "type": "electric_scooter", "bike_id": "4db48331e7ea660eb68a3ce83ef87da5", "lat": 38.920329333333335, "lon": -77.03388916666667, "rental_uris": {"android": "https://dc.lft.to/lastmile_qr_scan", "ios": "https://dc.lft.to/lastmile_qr_scan"}, "is_disabled": 0, "fusion_lat": 0.0, "name": "4db48331e7ea660eb68a3ce83ef87da5", "fusion_lon": 0.0}, {"is_reserved": 0, "type": "electric_scooter", "bike_id": "0d0f96f2ec5cb02f2218b5f14808b335", "lat": 38.892345166666665, "lon": -77.01361733333333, "rental_uris": {"android": "https://dc.lft.to/lastmile_qr_scan", "ios": "https://dc.lft.to/lastmile_qr_scan"}, "is_disabled": 0, "fusion_lat": 0.0, "name": "0d0f96f2ec5cb02f2218b5f14808b335", "fusion_lon": 0.0}, {"is_reserved": 0, "type": "electric_scooter", "bike_id": "ea0e0592df47c7d23a1a6b52a59d9e91", "lat": 38.8921975, "lon": -77.031067, "rental_uris": {"android": "https://dc.lft.to/lastmile_qr_scan", "ios": "https://dc.lft.to/lastmile_qr_scan"}, "is_disabled": 0, "fusion_lat": 0.0, "name": "ea0e0592df47c7d23a1a6b52a59d9e91", "fusion_lon": 0.0}, {"is_reserved": 0, "type": "electric_bike", "bike_id": "64424ace31e4bc41c4523b859446e753", "lat": 38.836084166666666, "lon": -77.00382683333333, "rental_uris": {"android": "https://dc.lft.to/lastmile_qr_scan", "ios": "https://dc.lft.to/lastmile_qr_scan"}, "is_disabled": 0, "fusion_lat": 0.0, "name": "64424ace31e4bc41c4523b859446e753", "fusion_lon": 0.0}, {"is_reserved": 0, "type": "electric_scooter", "bike_id": "7c18f2ae61da7707fcf7564c082eefda", "lat": 38.90575116666667, "lon": -77.03074683333334, "rental_uris": {"android": "https://dc.lft.to/lastmile_qr_scan", "ios": "https://dc.lft.to/lastmile_qr_scan"}, "is_disabled": 0, "fusion_lat": 0.0, "name": "7c18f2ae61da7707fcf7564c082eefda", "fusion_lon": 0.0}, {"is_reserved": 0, "type": "electric_scooter", "bike_id": "53b0670f7cb155a74ea4a6e06f7563c4", "lat": 38.88726416666667, "lon": -76.98375783333333, "rental_uris": {"android": "https://dc.lft.to/lastmile_qr_scan", "ios": "https://dc.lft.to/lastmile_qr_scan"}, "is_disabled": 0, "fusion_lat": 0.0, "name": "53b0670f7cb155a74ea4a6e06f7563c4", "fusion_lon": 0.0}, {"is_reserved": 0, "type": "electric_scooter", "bike_id": "df19a62e94093c0f3fbd82b3b39d52cd", "lat": 38.89367383333333, "lon": -77.00333766666667, "rental_uris": {"android": "https://dc.lft.to/lastmile_qr_scan", "ios": "https://dc.lft.to/lastmile_qr_scan"}, "is_disabled": 0, "fusion_lat": 0.0, "name": "df19a62e94093c0f3fbd82b3b39d52cd", "fusion_lon": 0.0}, {"is_reserved": 0, "type": "electric_scooter", "bike_id": "2328c2971a46e355aa564d1cf0a91655", "lat": 38.9240865, "lon": -77.02974716666667, "rental_uris": {"android": "https://dc.lft.to/lastmile_qr_scan", "ios": "https://dc.lft.to/lastmile_qr_scan"}, "is_disabled": 0, "fusion_lat": 0.0, "name": "2328c2971a46e355aa564d1cf0a91655", "fusion_lon": 0.0}, {"is_reserved": 0, "type": "electric_scooter", "bike_id": "f13b1a28f5af4351801c8729c7adca59", "lat": 38.886265333333334, "lon": -77.033481, "rental_uris": {"android": "https://dc.lft.to/lastmile_qr_scan", "ios": "https://dc.lft.to/lastmile_qr_scan"}, "is_disabled": 0, "fusion_lat": 0.0, "name": "f13b1a28f5af4351801c8729c7adca59", "fusion_lon": 0.0}, {"is_reserved": 0, "type": "electric_scooter", "bike_id": "c71eedfb997472ee3dc7167cd7faf97e", "lat": 38.90853033333333, "lon": -77.0326995, "rental_uris": {"android": "https://dc.lft.to/lastmile_qr_scan", "ios": "https://dc.lft.to/lastmile_qr_scan"}, "is_disabled": 0, "fusion_lat": 0.0, "name": "c71eedfb997472ee3dc7167cd7faf97e", "fusion_lon": 0.0}, {"is_reserved": 0, "type": "electric_scooter", "bike_id": "8ff555a7352e2cf45e64097932d48fba", "lat": 38.86570366666667, "lon": -76.9903275, "rental_uris": {"android": "https://dc.lft.to/lastmile_qr_scan", "ios": "https://dc.lft.to/lastmile_qr_scan"}, "is_disabled": 0, "fusion_lat": 0.0, "name": "8ff555a7352e2cf45e64097932d48fba", "fusion_lon": 0.0}, {"is_reserved": 0, "type": "electric_scooter", "bike_id": "88bf36638f4991aae651ceed0586f7a1", "lat": 38.91919933333333, "lon": -77.00972416666667, "rental_uris": {"android": "https://dc.lft.to/lastmile_qr_scan", "ios": "https://dc.lft.to/lastmile_qr_scan"}, "is_disabled": 0, "fusion_lat": 0.0, "name": "88bf36638f4991aae651ceed0586f7a1", "fusion_lon": 0.0}, {"is_reserved": 0, "type": "electric_scooter", "bike_id": "5aab8cc4ae07f63bff54616f20d1e6cf", "lat": 38.905897833333334, "lon": -77.04689916666666, "rental_uris": {"android": "https://dc.lft.to/lastmile_qr_scan", "ios": "https://dc.lft.to/lastmile_qr_scan"}, "is_disabled": 0, "fusion_lat": 0.0, "name": "5aab8cc4ae07f63bff54616f20d1e6cf", "fusion_lon": 0.0}, {"is_reserved": 0, "type": "electric_scooter", "bike_id": "90653919018f5eacc854f9d37b56f758", "lat": 38.912928, "lon": -76.98537233333333, "rental_uris": {"android": "https://dc.lft.to/lastmile_qr_scan", "ios": "https://dc.lft.to/lastmile_qr_scan"}, "is_disabled": 0, "fusion_lat": 0.0, "name": "90653919018f5eacc854f9d37b56f758", "fusion_lon": 0.0}, {"is_reserved": 0, "type": "electric_scooter", "bike_id": "881ef02a097b02c11acac3772be3f9bb", "lat": 38.92870683333334, "lon": -77.02706233333333, "rental_uris": {"android": "https://dc.lft.to/lastmile_qr_scan", "ios": "https://dc.lft.to/lastmile_qr_scan"}, "is_disabled": 0, "fusion_lat": 0.0, "name": "881ef02a097b02c11acac3772be3f9bb", "fusion_lon": 0.0}, {"is_reserved": 0, "type": "electric_scooter", "bike_id": "ab278eef2b5cfb2c0ca7bacc664ab206", "lat": 38.940280333333334, "lon": -77.02641666666666, "rental_uris": {"android": "https://dc.lft.to/lastmile_qr_scan", "ios": "https://dc.lft.to/lastmile_qr_scan"}, "is_disabled": 0, "fusion_lat": 0.0, "name": "ab278eef2b5cfb2c0ca7bacc664ab206", "fusion_lon": 0.0}, {"is_reserved": 0, "type": "electric_scooter", "bike_id": "f39b53135b12e2c4b0f69904bcf095bd", "lat": 38.91175233333333, "lon": -77.02832116666667, "rental_uris": {"android": "https://dc.lft.to/lastmile_qr_scan", "ios": "https://dc.lft.to/lastmile_qr_scan"}, "is_disabled": 0, "fusion_lat": 0.0, "name": "f39b53135b12e2c4b0f69904bcf095bd", "fusion_lon": 0.0}, {"is_reserved": 0, "type": "electric_scooter", "bike_id": "2afde24014903ae2358ad6c98529688e", "lat": 38.86432283333333, "lon": -76.9986225, "rental_uris": {"android": "https://dc.lft.to/lastmile_qr_scan", "ios": "https://dc.lft.to/lastmile_qr_scan"}, "is_disabled": 0, "fusion_lat": 0.0, "name": "2afde24014903ae2358ad6c98529688e", "fusion_lon": 0.0}, {"is_reserved": 0, "type": "electric_scooter", "bike_id": "4c3732030643a76defb2d0e9f011899c", "lat": 38.9346325, "lon": -77.02243883333334, "rental_uris": {"android": "https://dc.lft.to/lastmile_qr_scan", "ios": "https://dc.lft.to/lastmile_qr_scan"}, "is_disabled": 0, "fusion_lat": 0.0, "name": "4c3732030643a76defb2d0e9f011899c", "fusion_lon": 0.0}, {"is_reserved": 0, "type": "electric_scooter", "bike_id": "ab012b3f324605b8d81c0db5b56c00d3", "lat": 38.92898616666667, "lon": -77.0225305, "rental_uris": {"android": "https://dc.lft.to/lastmile_qr_scan", "ios": "https://dc.lft.to/lastmile_qr_scan"}, "is_disabled": 0, "fusion_lat": 0.0, "name": "ab012b3f324605b8d81c0db5b56c00d3", "fusion_lon": 0.0}, {"is_reserved": 0, "type": "electric_scooter", "bike_id": "9b4f6fb8d1d932ac0358f6f9db05adaa", "lat": 38.91771166666667, "lon": -77.03183816666666, "rental_uris": {"android": "https://dc.lft.to/lastmile_qr_scan", "ios": "https://dc.lft.to/lastmile_qr_scan"}, "is_disabled": 0, "fusion_lat": 0.0, "name": "9b4f6fb8d1d932ac0358f6f9db05adaa", "fusion_lon": 0.0}, {"is_reserved": 0, "type": "electric_scooter", "bike_id": "307c3025c84aded7d6fb759881233f1d", "lat": 38.950933666666664, "lon": -77.02814133333334, "rental_uris": {"android": "https://dc.lft.to/lastmile_qr_scan", "ios": "https://dc.lft.to/lastmile_qr_scan"}, "is_disabled": 0, "fusion_lat": 0.0, "name": "307c3025c84aded7d6fb759881233f1d", "fusion_lon": 0.0}, {"is_reserved": 0, "type": "electric_scooter", "bike_id": "4def45950cf42e3a722234954cb0eea9", "lat": 38.90064483333333, "lon": -76.9868435, "rental_uris": {"android": "https://dc.lft.to/lastmile_qr_scan", "ios": "https://dc.lft.to/lastmile_qr_scan"}, "is_disabled": 0, "fusion_lat": 0.0, "name": "4def45950cf42e3a722234954cb0eea9", "fusion_lon": 0.0}, {"is_reserved": 0, "type": "electric_bike", "bike_id": "fe75a7c289b72dd82d32e54111b36d0a", "lat": 38.89566, "lon": -77.12735733333334, "rental_uris": {"android": "https://dc.lft.to/lastmile_qr_scan", "ios": "https://dc.lft.to/lastmile_qr_scan"}, "is_disabled": 0, "fusion_lat": 0.0, "name": "fe75a7c289b72dd82d32e54111b36d0a", "fusion_lon": 0.0}, {"is_reserved": 0, "type": "electric_scooter", "bike_id": "f0a642e76ba8b8be2f5dbd6525beb2d0", "lat": 38.9300125, "lon": -77.02302083333333, "rental_uris": {"android": "https://dc.lft.to/lastmile_qr_scan", "ios": "https://dc.lft.to/lastmile_qr_scan"}, "is_disabled": 0, "fusion_lat": 0.0, "name": "f0a642e76ba8b8be2f5dbd6525beb2d0", "fusion_lon": 0.0}, {"is_reserved": 0, "type": "electric_scooter", "bike_id": "21d44ccaa2883928fd6ffcd75a9eca5a", "lat": 38.9147615, "lon": -77.03237266666666, "rental_uris": {"android": "https://dc.lft.to/lastmile_qr_scan", "ios": "https://dc.lft.to/lastmile_qr_scan"}, "is_disabled": 0, "fusion_lat": 0.0, "name": "21d44ccaa2883928fd6ffcd75a9eca5a", "fusion_lon": 0.0}, {"is_reserved": 0, "type": "electric_scooter", "bike_id": "ccfc310c400ed3fcf4e1b965462e2a68", "lat": 38.91806416666667, "lon": -77.034442, "rental_uris": {"android": "https://dc.lft.to/lastmile_qr_scan", "ios": "https://dc.lft.to/lastmile_qr_scan"}, "is_disabled": 0, "fusion_lat": 0.0, "name": "ccfc310c400ed3fcf4e1b965462e2a68", "fusion_lon": 0.0}, {"is_reserved": 0, "type": "electric_scooter", "bike_id": "3795bf0798adf2f56ea0b89097f389f1", "lat": 38.921471333333336, "lon": -77.0458885, "rental_uris": {"android": "https://dc.lft.to/lastmile_qr_scan", "ios": "https://dc.lft.to/lastmile_qr_scan"}, "is_disabled": 0, "fusion_lat": 0.0, "name": "3795bf0798adf2f56ea0b89097f389f1", "fusion_lon": 0.0}, {"is_reserved": 0, "type": "electric_scooter", "bike_id": "466618d6f632e37608d1002fbd07710d", "lat": 38.90647083333333, "lon": -77.01203133333334, "rental_uris": {"android": "https://dc.lft.to/lastmile_qr_scan", "ios": "https://dc.lft.to/lastmile_qr_scan"}, "is_disabled": 0, "fusion_lat": 0.0, "name": "466618d6f632e37608d1002fbd07710d", "fusion_lon": 0.0}, {"is_reserved": 0, "type": "electric_scooter", "bike_id": "17e954b72b6eda32a4c5f36b19dbb67e", "lat": 38.95738333333333, "lon": -77.03010916666666, "rental_uris": {"android": "https://dc.lft.to/lastmile_qr_scan", "ios": "https://dc.lft.to/lastmile_qr_scan"}, "is_disabled": 0, "fusion_lat": 0.0, "name": "17e954b72b6eda32a4c5f36b19dbb67e", "fusion_lon": 0.0}, {"is_reserved": 0, "type": "electric_scooter", "bike_id": "491db91eea766e2708212673aeba51da", "lat": 38.895283166666665, "lon": -77.0447285, "rental_uris": {"android": "https://dc.lft.to/lastmile_qr_scan", "ios": "https://dc.lft.to/lastmile_qr_scan"}, "is_disabled": 0, "fusion_lat": 0.0, "name": "491db91eea766e2708212673aeba51da", "fusion_lon": 0.0}, {"is_reserved": 0, "type": "electric_bike", "bike_id": "9098321a1da2201f31434903c0734593", "lat": 39.08492, "lon": -76.9506465, "rental_uris": {"android": "https://dc.lft.to/lastmile_qr_scan", "ios": "https://dc.lft.to/lastmile_qr_scan"}, "is_disabled": 0, "fusion_lat": 0.0, "name": "9098321a1da2201f31434903c0734593", "fusion_lon": 0.0}, {"is_reserved": 0, "type": "electric_scooter", "bike_id": "5fd68fe123168db3f1ab1b2a2394842e", "lat": 38.908637666666664, "lon": -77.04494266666667, "rental_uris": {"android": "https://dc.lft.to/lastmile_qr_scan", "ios": "https://dc.lft.to/lastmile_qr_scan"}, "is_disabled": 0, "fusion_lat": 0.0, "name": "5fd68fe123168db3f1ab1b2a2394842e", "fusion_lon": 0.0}, {"is_reserved": 0, "type": "electric_scooter", "bike_id": "d07a87fa7f6a76aa494dbcb04acb9980", "lat": 38.92038866666667, "lon": -77.01673166666667, "rental_uris": {"android": "https://dc.lft.to/lastmile_qr_scan", "ios": "https://dc.lft.to/lastmile_qr_scan"}, "is_disabled": 0, "fusion_lat": 0.0, "name": "d07a87fa7f6a76aa494dbcb04acb9980", "fusion_lon": 0.0}, {"is_reserved": 0, "type": "electric_scooter", "bike_id": "b1fb1da8c785468e23d46e895113d991", "lat": 38.91927183333333, "lon": -77.0342435, "rental_uris": {"android": "https://dc.lft.to/lastmile_qr_scan", "ios": "https://dc.lft.to/lastmile_qr_scan"}, "is_disabled": 0, "fusion_lat": 0.0, "name": "b1fb1da8c785468e23d46e895113d991", "fusion_lon": 0.0}, {"is_reserved": 0, "type": "electric_scooter", "bike_id": "001feec55aa5f56043303b173b044699", "lat": 38.956195, "lon": -77.00322083333333, "rental_uris": {"android": "https://dc.lft.to/lastmile_qr_scan", "ios": "https://dc.lft.to/lastmile_qr_scan"}, "is_disabled": 0, "fusion_lat": 0.0, "name": "001feec55aa5f56043303b173b044699", "fusion_lon": 0.0}, {"is_reserved": 0, "type": "electric_scooter", "bike_id": "c686587974f47b6a9d85090f48a0786d", "lat": 38.93613783333333, "lon": -77.03216966666666, "rental_uris": {"android": "https://dc.lft.to/lastmile_qr_scan", "ios": "https://dc.lft.to/lastmile_qr_scan"}, "is_disabled": 0, "fusion_lat": 0.0, "name": "c686587974f47b6a9d85090f48a0786d", "fusion_lon": 0.0}, {"is_reserved": 0, "type": "electric_scooter", "bike_id": "20b6e8c442f0caf629db702c0bb142b6", "lat": 38.938958, "lon": -77.032661, "rental_uris": {"android": "https://dc.lft.to/lastmile_qr_scan", "ios": "https://dc.lft.to/lastmile_qr_scan"}, "is_disabled": 0, "fusion_lat": 0.0, "name": "20b6e8c442f0caf629db702c0bb142b6", "fusion_lon": 0.0}, {"is_reserved": 0, "type": "electric_scooter", "bike_id": "cc34ad1a6830de18eb43aba72da61a01", "lat": 38.904968833333335, "lon": -77.02965516666667, "rental_uris": {"android": "https://dc.lft.to/lastmile_qr_scan", "ios": "https://dc.lft.to/lastmile_qr_scan"}, "is_disabled": 0, "fusion_lat": 0.0, "name": "cc34ad1a6830de18eb43aba72da61a01", "fusion_lon": 0.0}, {"is_reserved": 0, "type": "electric_scooter", "bike_id": "0f1055327bf455b827de6990a5b51c80", "lat": 38.87662233333333, "lon": -77.00763733333334, "rental_uris": {"android": "https://dc.lft.to/lastmile_qr_scan", "ios": "https://dc.lft.to/lastmile_qr_scan"}, "is_disabled": 0, "fusion_lat": 0.0, "name": "0f1055327bf455b827de6990a5b51c80", "fusion_lon": 0.0}, {"is_reserved": 0, "type": "electric_scooter", "bike_id": "3f67ea5a3621c7a8af7a64676f1cc9b2", "lat": 38.927172666666664, "lon": -77.036813, "rental_uris": {"android": "https://dc.lft.to/lastmile_qr_scan", "ios": "https://dc.lft.to/lastmile_qr_scan"}, "is_disabled": 0, "fusion_lat": 0.0, "name": "3f67ea5a3621c7a8af7a64676f1cc9b2", "fusion_lon": 0.0}, {"is_reserved": 0, "type": "electric_scooter", "bike_id": "0e4627bfb684b2e082acae8fe15202ee", "lat": 38.90614133333333, "lon": -77.00877083333333, "rental_uris": {"android": "https://dc.lft.to/lastmile_qr_scan", "ios": "https://dc.lft.to/lastmile_qr_scan"}, "is_disabled": 0, "fusion_lat": 0.0, "name": "0e4627bfb684b2e082acae8fe15202ee", "fusion_lon": 0.0}, {"is_reserved": 0, "type": "electric_scooter", "bike_id": "9551568df7a6a0cb0a367ca73a49bf9b", "lat": 38.89908783333333, "lon": -76.93364216666667, "rental_uris": {"android": "https://dc.lft.to/lastmile_qr_scan", "ios": "https://dc.lft.to/lastmile_qr_scan"}, "is_disabled": 0, "fusion_lat": 0.0, "name": "9551568df7a6a0cb0a367ca73a49bf9b", "fusion_lon": 0.0}, {"is_reserved": 0, "type": "electric_scooter", "bike_id": "438c873252d388ea4015a915a810a406", "lat": 38.85223883333333, "lon": -76.99427383333334, "rental_uris": {"android": "https://dc.lft.to/lastmile_qr_scan", "ios": "https://dc.lft.to/lastmile_qr_scan"}, "is_disabled": 0, "fusion_lat": 0.0, "name": "438c873252d388ea4015a915a810a406", "fusion_lon": 0.0}, {"is_reserved": 0, "type": "electric_scooter", "bike_id": "bdad562bad2fe0f1ed4b30971015c34e", "lat": 38.921426333333336, "lon": -77.04475833333333, "rental_uris": {"android": "https://dc.lft.to/lastmile_qr_scan", "ios": "https://dc.lft.to/lastmile_qr_scan"}, "is_disabled": 0, "fusion_lat": 0.0, "name": "bdad562bad2fe0f1ed4b30971015c34e", "fusion_lon": 0.0}, {"is_reserved": 0, "type": "electric_scooter", "bike_id": "8ea354f1eb6ba59061837ea177be9766", "lat": 38.92390266666666, "lon": -77.05057566666666, "rental_uris": {"android": "https://dc.lft.to/lastmile_qr_scan", "ios": "https://dc.lft.to/lastmile_qr_scan"}, "is_disabled": 0, "fusion_lat": 0.0, "name": "8ea354f1eb6ba59061837ea177be9766", "fusion_lon": 0.0}, {"is_reserved": 0, "type": "electric_scooter", "bike_id": "36227a5c547a30ecc1194c5bc7ecf827", "lat": 38.923981, "lon": -77.0503905, "rental_uris": {"android": "https://dc.lft.to/lastmile_qr_scan", "ios": "https://dc.lft.to/lastmile_qr_scan"}, "is_disabled": 0, "fusion_lat": 0.0, "name": "36227a5c547a30ecc1194c5bc7ecf827", "fusion_lon": 0.0}, {"is_reserved": 0, "type": "electric_scooter", "bike_id": "d9650279db2db940bed6a203a4e3f9c7", "lat": 38.9474855, "lon": -77.01936183333333, "rental_uris": {"android": "https://dc.lft.to/lastmile_qr_scan", "ios": "https://dc.lft.to/lastmile_qr_scan"}, "is_disabled": 0, "fusion_lat": 0.0, "name": "d9650279db2db940bed6a203a4e3f9c7", "fusion_lon": 0.0}, {"is_reserved": 0, "type": "electric_scooter", "bike_id": "92deac6eef8823d94ab85a2695f623d6", "lat": 38.897996, "lon": -77.011942, "rental_uris": {"android": "https://dc.lft.to/lastmile_qr_scan", "ios": "https://dc.lft.to/lastmile_qr_scan"}, "is_disabled": 0, "fusion_lat": 0.0, "name": "92deac6eef8823d94ab85a2695f623d6", "fusion_lon": 0.0}, {"is_reserved": 0, "type": "electric_scooter", "bike_id": "d70c1fd00e532dfcce28a442d52c76d2", "lat": 38.9282935, "lon": -77.05520366666667, "rental_uris": {"android": "https://dc.lft.to/lastmile_qr_scan", "ios": "https://dc.lft.to/lastmile_qr_scan"}, "is_disabled": 0, "fusion_lat": 0.0, "name": "d70c1fd00e532dfcce28a442d52c76d2", "fusion_lon": 0.0}, {"is_reserved": 0, "type": "electric_scooter", "bike_id": "f3a56a50334049b684d2349caf67e7b8", "lat": 38.9040085, "lon": -77.02002666666667, "rental_uris": {"android": "https://dc.lft.to/lastmile_qr_scan", "ios": "https://dc.lft.to/lastmile_qr_scan"}, "is_disabled": 0, "fusion_lat": 0.0, "name": "f3a56a50334049b684d2349caf67e7b8", "fusion_lon": 0.0}, {"is_reserved": 0, "type": "electric_scooter", "bike_id": "21b9a6c96d60312b0961cb8550412847", "lat": 38.930873166666665, "lon": -77.02548666666667, "rental_uris": {"android": "https://dc.lft.to/lastmile_qr_scan", "ios": "https://dc.lft.to/lastmile_qr_scan"}, "is_disabled": 0, "fusion_lat": 0.0, "name": "21b9a6c96d60312b0961cb8550412847", "fusion_lon": 0.0}, {"is_reserved": 0, "type": "electric_scooter", "bike_id": "502c9af4b34b2a5cbe71633b52ebd561", "lat": 38.91732583333334, "lon": -77.015982, "rental_uris": {"android": "https://dc.lft.to/lastmile_qr_scan", "ios": "https://dc.lft.to/lastmile_qr_scan"}, "is_disabled": 0, "fusion_lat": 0.0, "name": "502c9af4b34b2a5cbe71633b52ebd561", "fusion_lon": 0.0}, {"is_reserved": 0, "type": "electric_scooter", "bike_id": "3900151b5969bd4ed6f8e77a85279e12", "lat": 38.9350655, "lon": -77.04281883333333, "rental_uris": {"android": "https://dc.lft.to/lastmile_qr_scan", "ios": "https://dc.lft.to/lastmile_qr_scan"}, "is_disabled": 0, "fusion_lat": 0.0, "name": "3900151b5969bd4ed6f8e77a85279e12", "fusion_lon": 0.0}, {"is_reserved": 0, "type": "electric_scooter", "bike_id": "12b447f60427b582a7833712bd0cfe72", "lat": 38.927621333333335, "lon": -77.02775016666666, "rental_uris": {"android": "https://dc.lft.to/lastmile_qr_scan", "ios": "https://dc.lft.to/lastmile_qr_scan"}, "is_disabled": 0, "fusion_lat": 0.0, "name": "12b447f60427b582a7833712bd0cfe72", "fusion_lon": 0.0}, {"is_reserved": 0, "type": "electric_scooter", "bike_id": "29d5e09bb1112491b160c2d09982154a", "lat": 38.924006166666665, "lon": -77.05046233333333, "rental_uris": {"android": "https://dc.lft.to/lastmile_qr_scan", "ios": "https://dc.lft.to/lastmile_qr_scan"}, "is_disabled": 0, "fusion_lat": 0.0, "name": "29d5e09bb1112491b160c2d09982154a", "fusion_lon": 0.0}, {"is_reserved": 0, "type": "electric_scooter", "bike_id": "bc1cbf14a69a92d91ed565f0ce7be8bc", "lat": 38.9185745, "lon": -77.03207383333333, "rental_uris": {"android": "https://dc.lft.to/lastmile_qr_scan", "ios": "https://dc.lft.to/lastmile_qr_scan"}, "is_disabled": 0, "fusion_lat": 0.0, "name": "bc1cbf14a69a92d91ed565f0ce7be8bc", "fusion_lon": 0.0}, {"is_reserved": 0, "type": "electric_scooter", "bike_id": "3d38023ddb68be7d909e68aaab3630aa", "lat": 38.9277185, "lon": -77.03242083333333, "rental_uris": {"android": "https://dc.lft.to/lastmile_qr_scan", "ios": "https://dc.lft.to/lastmile_qr_scan"}, "is_disabled": 0, "fusion_lat": 0.0, "name": "3d38023ddb68be7d909e68aaab3630aa", "fusion_lon": 0.0}, {"is_reserved": 0, "type": "electric_scooter", "bike_id": "6208435bd6ab5c279f49e00185f14fe9", "lat": 38.892280666666665, "lon": -77.05000033333333, "rental_uris": {"android": "https://dc.lft.to/lastmile_qr_scan", "ios": "https://dc.lft.to/lastmile_qr_scan"}, "is_disabled": 0, "fusion_lat": 0.0, "name": "6208435bd6ab5c279f49e00185f14fe9", "fusion_lon": 0.0}, {"is_reserved": 0, "type": "electric_scooter", "bike_id": "c5f52e5558f98567590bb955d37469b1", "lat": 38.915785166666666, "lon": -77.01236266666666, "rental_uris": {"android": "https://dc.lft.to/lastmile_qr_scan", "ios": "https://dc.lft.to/lastmile_qr_scan"}, "is_disabled": 0, "fusion_lat": 0.0, "name": "c5f52e5558f98567590bb955d37469b1", "fusion_lon": 0.0}, {"is_reserved": 0, "type": "electric_scooter", "bike_id": "041fcca55e190f3445bc4ec0af4b4d7c", "lat": 38.913953666666664, "lon": -76.984128, "rental_uris": {"android": "https://dc.lft.to/lastmile_qr_scan", "ios": "https://dc.lft.to/lastmile_qr_scan"}, "is_disabled": 0, "fusion_lat": 0.0, "name": "041fcca55e190f3445bc4ec0af4b4d7c", "fusion_lon": 0.0}, {"is_reserved": 0, "type": "electric_scooter", "bike_id": "2c26d2648ee27f48961c5c5f8285e0ca", "lat": 38.92746833333333, "lon": -77.03286916666667, "rental_uris": {"android": "https://dc.lft.to/lastmile_qr_scan", "ios": "https://dc.lft.to/lastmile_qr_scan"}, "is_disabled": 0, "fusion_lat": 0.0, "name": "2c26d2648ee27f48961c5c5f8285e0ca", "fusion_lon": 0.0}, {"is_reserved": 0, "type": "electric_scooter", "bike_id": "d1d357c8f5392a2892198d7539e045fa", "lat": 38.9842905, "lon": -77.02670633333334, "rental_uris": {"android": "https://dc.lft.to/lastmile_qr_scan", "ios": "https://dc.lft.to/lastmile_qr_scan"}, "is_disabled": 0, "fusion_lat": 0.0, "name": "d1d357c8f5392a2892198d7539e045fa", "fusion_lon": 0.0}, {"is_reserved": 0, "type": "electric_scooter", "bike_id": "84af124e272896edd27b88f2ae74ac6f", "lat": 38.898985333333336, "lon": -77.03359016666667, "rental_uris": {"android": "https://dc.lft.to/lastmile_qr_scan", "ios": "https://dc.lft.to/lastmile_qr_scan"}, "is_disabled": 0, "fusion_lat": 0.0, "name": "84af124e272896edd27b88f2ae74ac6f", "fusion_lon": 0.0}, {"is_reserved": 0, "type": "electric_bike", "bike_id": "8866be1aa2edf99f141a46d0412a30b5", "lat": 38.942669, "lon": -76.990692, "rental_uris": {"android": "https://dc.lft.to/lastmile_qr_scan", "ios": "https://dc.lft.to/lastmile_qr_scan"}, "is_disabled": 0, "fusion_lat": 0.0, "name": "8866be1aa2edf99f141a46d0412a30b5", "fusion_lon": 0.0}, {"is_reserved": 0, "type": "electric_scooter", "bike_id": "c0b5bf8129859415a7fc212d633137fb", "lat": 38.923122, "lon": -77.029698, "rental_uris": {"android": "https://dc.lft.to/lastmile_qr_scan", "ios": "https://dc.lft.to/lastmile_qr_scan"}, "is_disabled": 0, "fusion_lat": 0.0, "name": "c0b5bf8129859415a7fc212d633137fb", "fusion_lon": 0.0}, {"is_reserved": 0, "type": "electric_scooter", "bike_id": "149756ce5aefd4639b6f236af29ed04a", "lat": 38.90507233333334, "lon": -77.04146033333333, "rental_uris": {"android": "https://dc.lft.to/lastmile_qr_scan", "ios": "https://dc.lft.to/lastmile_qr_scan"}, "is_disabled": 0, "fusion_lat": 0.0, "name": "149756ce5aefd4639b6f236af29ed04a", "fusion_lon": 0.0}, {"is_reserved": 0, "type": "electric_scooter", "bike_id": "63d501a7a07b77421e1e346e785254f1", "lat": 38.904663, "lon": -77.00606083333334, "rental_uris": {"android": "https://dc.lft.to/lastmile_qr_scan", "ios": "https://dc.lft.to/lastmile_qr_scan"}, "is_disabled": 0, "fusion_lat": 0.0, "name": "63d501a7a07b77421e1e346e785254f1", "fusion_lon": 0.0}, {"is_reserved": 0, "type": "electric_scooter", "bike_id": "6ca21b13687f65308a0e1ce304140970", "lat": 38.916343166666664, "lon": -77.04623966666666, "rental_uris": {"android": "https://dc.lft.to/lastmile_qr_scan", "ios": "https://dc.lft.to/lastmile_qr_scan"}, "is_disabled": 0, "fusion_lat": 0.0, "name": "6ca21b13687f65308a0e1ce304140970", "fusion_lon": 0.0}, {"is_reserved": 0, "type": "electric_scooter", "bike_id": "4202e98e877c0b9b684e123b0eee3d61", "lat": 38.90891383333334, "lon": -77.002911, "rental_uris": {"android": "https://dc.lft.to/lastmile_qr_scan", "ios": "https://dc.lft.to/lastmile_qr_scan"}, "is_disabled": 0, "fusion_lat": 0.0, "name": "4202e98e877c0b9b684e123b0eee3d61", "fusion_lon": 0.0}, {"is_reserved": 0, "type": "electric_scooter", "bike_id": "017bb324afc6e65eb9eba9768c437efd", "lat": 38.900626, "lon": -77.05433583333334, "rental_uris": {"android": "https://dc.lft.to/lastmile_qr_scan", "ios": "https://dc.lft.to/lastmile_qr_scan"}, "is_disabled": 0, "fusion_lat": 0.0, "name": "017bb324afc6e65eb9eba9768c437efd", "fusion_lon": 0.0}, {"is_reserved": 0, "type": "electric_scooter", "bike_id": "3718477e58137feefda839ce6faec933", "lat": 38.89490816666667, "lon": -77.00201316666667, "rental_uris": {"android": "https://dc.lft.to/lastmile_qr_scan", "ios": "https://dc.lft.to/lastmile_qr_scan"}, "is_disabled": 0, "fusion_lat": 0.0, "name": "3718477e58137feefda839ce6faec933", "fusion_lon": 0.0}, {"is_reserved": 0, "type": "electric_scooter", "bike_id": "ceb3b747d76dfdc4190dae4d78d8362b", "lat": 38.92451633333334, "lon": -77.0402265, "rental_uris": {"android": "https://dc.lft.to/lastmile_qr_scan", "ios": "https://dc.lft.to/lastmile_qr_scan"}, "is_disabled": 0, "fusion_lat": 0.0, "name": "ceb3b747d76dfdc4190dae4d78d8362b", "fusion_lon": 0.0}, {"is_reserved": 0, "type": "electric_scooter", "bike_id": "3f3884c1631ba85edaf2482c21912729", "lat": 38.924033, "lon": -77.02310566666667, "rental_uris": {"android": "https://dc.lft.to/lastmile_qr_scan", "ios": "https://dc.lft.to/lastmile_qr_scan"}, "is_disabled": 0, "fusion_lat": 0.0, "name": "3f3884c1631ba85edaf2482c21912729", "fusion_lon": 0.0}, {"is_reserved": 0, "type": "electric_scooter", "bike_id": "1f0e3b74868b18dc74c6ba50322764ef", "lat": 38.91266533333334, "lon": -77.02615733333333, "rental_uris": {"android": "https://dc.lft.to/lastmile_qr_scan", "ios": "https://dc.lft.to/lastmile_qr_scan"}, "is_disabled": 0, "fusion_lat": 0.0, "name": "1f0e3b74868b18dc74c6ba50322764ef", "fusion_lon": 0.0}, {"is_reserved": 0, "type": "electric_scooter", "bike_id": "e727482de97089ace26fad3c3c1b411b", "lat": 38.89811516666666, "lon": -77.00731866666666, "rental_uris": {"android": "https://dc.lft.to/lastmile_qr_scan", "ios": "https://dc.lft.to/lastmile_qr_scan"}, "is_disabled": 0, "fusion_lat": 0.0, "name": "e727482de97089ace26fad3c3c1b411b", "fusion_lon": 0.0}, {"is_reserved": 0, "type": "electric_scooter", "bike_id": "feee882ee43f8509f216131224dd666a", "lat": 38.91345966666667, "lon": -77.03210666666666, "rental_uris": {"android": "https://dc.lft.to/lastmile_qr_scan", "ios": "https://dc.lft.to/lastmile_qr_scan"}, "is_disabled": 0, "fusion_lat": 0.0, "name": "feee882ee43f8509f216131224dd666a", "fusion_lon": 0.0}, {"is_reserved": 0, "type": "electric_scooter", "bike_id": "84e758e62afb3559802042bb41bfbbdf", "lat": 38.9111195, "lon": -77.04281016666667, "rental_uris": {"android": "https://dc.lft.to/lastmile_qr_scan", "ios": "https://dc.lft.to/lastmile_qr_scan"}, "is_disabled": 0, "fusion_lat": 0.0, "name": "84e758e62afb3559802042bb41bfbbdf", "fusion_lon": 0.0}, {"is_reserved": 0, "type": "electric_scooter", "bike_id": "4fe31ce197c354e56ac612069efb9fb1", "lat": 38.887713166666664, "lon": -76.9326575, "rental_uris": {"android": "https://dc.lft.to/lastmile_qr_scan", "ios": "https://dc.lft.to/lastmile_qr_scan"}, "is_disabled": 0, "fusion_lat": 0.0, "name": "4fe31ce197c354e56ac612069efb9fb1", "fusion_lon": 0.0}, {"is_reserved": 0, "type": "electric_scooter", "bike_id": "ccbc188036b118199a6b1d8afc5b0dd2", "lat": 38.916774, "lon": -77.0238, "rental_uris": {"android": "https://dc.lft.to/lastmile_qr_scan", "ios": "https://dc.lft.to/lastmile_qr_scan"}, "is_disabled": 0, "fusion_lat": 0.0, "name": "ccbc188036b118199a6b1d8afc5b0dd2", "fusion_lon": 0.0}, {"is_reserved": 0, "type": "electric_scooter", "bike_id": "9122c065ae40ece642c880b9a573f34a", "lat": 38.9250275, "lon": -77.02453016666666, "rental_uris": {"android": "https://dc.lft.to/lastmile_qr_scan", "ios": "https://dc.lft.to/lastmile_qr_scan"}, "is_disabled": 0, "fusion_lat": 0.0, "name": "9122c065ae40ece642c880b9a573f34a", "fusion_lon": 0.0}, {"is_reserved": 0, "type": "electric_scooter", "bike_id": "f53fdded46d8821b6ff0ae1b22d0c06d", "lat": 38.930760166666666, "lon": -77.0282015, "rental_uris": {"android": "https://dc.lft.to/lastmile_qr_scan", "ios": "https://dc.lft.to/lastmile_qr_scan"}, "is_disabled": 0, "fusion_lat": 0.0, "name": "f53fdded46d8821b6ff0ae1b22d0c06d", "fusion_lon": 0.0}, {"is_reserved": 0, "type": "electric_scooter", "bike_id": "098e5fd184481e6f5a3f9b4e7d7a2b81", "lat": 38.97522983333333, "lon": -77.0174845, "rental_uris": {"android": "https://dc.lft.to/lastmile_qr_scan", "ios": "https://dc.lft.to/lastmile_qr_scan"}, "is_disabled": 0, "fusion_lat": 0.0, "name": "098e5fd184481e6f5a3f9b4e7d7a2b81", "fusion_lon": 0.0}, {"is_reserved": 0, "type": "electric_scooter", "bike_id": "5c5b91f4cfe5f17bf21710ced5c10cd3", "lat": 38.903456166666665, "lon": -76.98610983333333, "rental_uris": {"android": "https://dc.lft.to/lastmile_qr_scan", "ios": "https://dc.lft.to/lastmile_qr_scan"}, "is_disabled": 0, "fusion_lat": 0.0, "name": "5c5b91f4cfe5f17bf21710ced5c10cd3", "fusion_lon": 0.0}, {"is_reserved": 0, "type": "electric_scooter", "bike_id": "53dbc95f8b3b3764cd89aa4f6421c512", "lat": 38.9014145, "lon": -76.991048, "rental_uris": {"android": "https://dc.lft.to/lastmile_qr_scan", "ios": "https://dc.lft.to/lastmile_qr_scan"}, "is_disabled": 0, "fusion_lat": 0.0, "name": "53dbc95f8b3b3764cd89aa4f6421c512", "fusion_lon": 0.0}, {"is_reserved": 0, "type": "electric_scooter", "bike_id": "6a8e18dbf98a5968301f5e26f95a4d11", "lat": 38.91421883333334, "lon": -77.01804933333334, "rental_uris": {"android": "https://dc.lft.to/lastmile_qr_scan", "ios": "https://dc.lft.to/lastmile_qr_scan"}, "is_disabled": 0, "fusion_lat": 0.0, "name": "6a8e18dbf98a5968301f5e26f95a4d11", "fusion_lon": 0.0}, {"is_reserved": 0, "type": "electric_scooter", "bike_id": "b1b70223376006381081aeb85b3ab780", "lat": 38.940788, "lon": -77.061412, "rental_uris": {"android": "https://dc.lft.to/lastmile_qr_scan", "ios": "https://dc.lft.to/lastmile_qr_scan"}, "is_disabled": 0, "fusion_lat": 0.0, "name": "b1b70223376006381081aeb85b3ab780", "fusion_lon": 0.0}, {"is_reserved": 0, "type": "electric_scooter", "bike_id": "77ad6cae6b4324a04ee8d09f2ddf5edf", "lat": 38.9026895, "lon": -77.0176155, "rental_uris": {"android": "https://dc.lft.to/lastmile_qr_scan", "ios": "https://dc.lft.to/lastmile_qr_scan"}, "is_disabled": 0, "fusion_lat": 0.0, "name": "77ad6cae6b4324a04ee8d09f2ddf5edf", "fusion_lon": 0.0}, {"is_reserved": 0, "type": "electric_scooter", "bike_id": "ef72269285d6abb20fff3079611066b8", "lat": 38.92789583333333, "lon": -77.02550916666667, "rental_uris": {"android": "https://dc.lft.to/lastmile_qr_scan", "ios": "https://dc.lft.to/lastmile_qr_scan"}, "is_disabled": 0, "fusion_lat": 0.0, "name": "ef72269285d6abb20fff3079611066b8", "fusion_lon": 0.0}, {"is_reserved": 0, "type": "electric_scooter", "bike_id": "2840bfc21bfe89b3802330fea6668257", "lat": 38.912727, "lon": -77.0122145, "rental_uris": {"android": "https://dc.lft.to/lastmile_qr_scan", "ios": "https://dc.lft.to/lastmile_qr_scan"}, "is_disabled": 0, "fusion_lat": 0.0, "name": "2840bfc21bfe89b3802330fea6668257", "fusion_lon": 0.0}, {"is_reserved": 0, "type": "electric_scooter", "bike_id": "94f58b6585514f3fd02f5cd4c51b9955", "lat": 38.908485, "lon": -77.02596783333334, "rental_uris": {"android": "https://dc.lft.to/lastmile_qr_scan", "ios": "https://dc.lft.to/lastmile_qr_scan"}, "is_disabled": 0, "fusion_lat": 0.0, "name": "94f58b6585514f3fd02f5cd4c51b9955", "fusion_lon": 0.0}, {"is_reserved": 0, "type": "electric_scooter", "bike_id": "9f2267d90508c075199988137f1d2a96", "lat": 38.907944666666666, "lon": -77.00216516666667, "rental_uris": {"android": "https://dc.lft.to/lastmile_qr_scan", "ios": "https://dc.lft.to/lastmile_qr_scan"}, "is_disabled": 0, "fusion_lat": 0.0, "name": "9f2267d90508c075199988137f1d2a96", "fusion_lon": 0.0}, {"is_reserved": 0, "type": "electric_scooter", "bike_id": "07a771d5f6fa71c6457ccc16764b2ca2", "lat": 38.93532183333333, "lon": -77.02354216666667, "rental_uris": {"android": "https://dc.lft.to/lastmile_qr_scan", "ios": "https://dc.lft.to/lastmile_qr_scan"}, "is_disabled": 0, "fusion_lat": 0.0, "name": "07a771d5f6fa71c6457ccc16764b2ca2", "fusion_lon": 0.0}, {"is_reserved": 0, "type": "electric_scooter", "bike_id": "f4fd9d1d83985a1d301ce88e39695480", "lat": 38.896162333333336, "lon": -76.9768305, "rental_uris": {"android": "https://dc.lft.to/lastmile_qr_scan", "ios": "https://dc.lft.to/lastmile_qr_scan"}, "is_disabled": 0, "fusion_lat": 0.0, "name": "f4fd9d1d83985a1d301ce88e39695480", "fusion_lon": 0.0}, {"is_reserved": 0, "type": "electric_scooter", "bike_id": "e1d30f6cb141c8b11fcb451197f36c7c", "lat": 38.90011883333333, "lon": -76.9302695, "rental_uris": {"android": "https://dc.lft.to/lastmile_qr_scan", "ios": "https://dc.lft.to/lastmile_qr_scan"}, "is_disabled": 0, "fusion_lat": 0.0, "name": "e1d30f6cb141c8b11fcb451197f36c7c", "fusion_lon": 0.0}, {"is_reserved": 0, "type": "electric_scooter", "bike_id": "eabfd5dba8221d2215b810ec8d9cd0b5", "lat": 38.88397466666667, "lon": -76.93042383333334, "rental_uris": {"android": "https://dc.lft.to/lastmile_qr_scan", "ios": "https://dc.lft.to/lastmile_qr_scan"}, "is_disabled": 0, "fusion_lat": 0.0, "name": "eabfd5dba8221d2215b810ec8d9cd0b5", "fusion_lon": 0.0}, {"is_reserved": 0, "type": "electric_scooter", "bike_id": "f62fa25dbdef1a4ef73150e32a6b79b2", "lat": 38.89642383333333, "lon": -76.9903165, "rental_uris": {"android": "https://dc.lft.to/lastmile_qr_scan", "ios": "https://dc.lft.to/lastmile_qr_scan"}, "is_disabled": 0, "fusion_lat": 0.0, "name": "f62fa25dbdef1a4ef73150e32a6b79b2", "fusion_lon": 0.0}, {"is_reserved": 0, "type": "electric_scooter", "bike_id": "14bb3de7e83b4f97d8919112d5efb187", "lat": 38.92311866666667, "lon": -77.02979966666666, "rental_uris": {"android": "https://dc.lft.to/lastmile_qr_scan", "ios": "https://dc.lft.to/lastmile_qr_scan"}, "is_disabled": 0, "fusion_lat": 0.0, "name": "14bb3de7e83b4f97d8919112d5efb187", "fusion_lon": 0.0}, {"is_reserved": 0, "type": "electric_scooter", "bike_id": "1a9b7c725cfac905d32e619dc0d23ecd", "lat": 38.91489, "lon": -77.02427566666667, "rental_uris": {"android": "https://dc.lft.to/lastmile_qr_scan", "ios": "https://dc.lft.to/lastmile_qr_scan"}, "is_disabled": 0, "fusion_lat": 0.0, "name": "1a9b7c725cfac905d32e619dc0d23ecd", "fusion_lon": 0.0}, {"is_reserved": 0, "type": "electric_scooter", "bike_id": "e49e0e6247ddf59d9c3e46c46106bf7f", "lat": 38.8996975, "lon": -77.01993766666666, "rental_uris": {"android": "https://dc.lft.to/lastmile_qr_scan", "ios": "https://dc.lft.to/lastmile_qr_scan"}, "is_disabled": 0, "fusion_lat": 0.0, "name": "e49e0e6247ddf59d9c3e46c46106bf7f", "fusion_lon": 0.0}, {"is_reserved": 0, "type": "electric_scooter", "bike_id": "52a9fe26c9e456f2dc21bd0dbd8b7258", "lat": 38.9174075, "lon": -77.00917983333333, "rental_uris": {"android": "https://dc.lft.to/lastmile_qr_scan", "ios": "https://dc.lft.to/lastmile_qr_scan"}, "is_disabled": 0, "fusion_lat": 0.0, "name": "52a9fe26c9e456f2dc21bd0dbd8b7258", "fusion_lon": 0.0}, {"is_reserved": 0, "type": "electric_scooter", "bike_id": "7bc68af35d42027c29e1b874eb355a83", "lat": 38.90641516666667, "lon": -77.0702895, "rental_uris": {"android": "https://dc.lft.to/lastmile_qr_scan", "ios": "https://dc.lft.to/lastmile_qr_scan"}, "is_disabled": 0, "fusion_lat": 0.0, "name": "7bc68af35d42027c29e1b874eb355a83", "fusion_lon": 0.0}, {"is_reserved": 0, "type": "electric_scooter", "bike_id": "fdbf0f4f9cd88ea4bcaf8930b328526b", "lat": 38.892622, "lon": -76.93005433333333, "rental_uris": {"android": "https://dc.lft.to/lastmile_qr_scan", "ios": "https://dc.lft.to/lastmile_qr_scan"}, "is_disabled": 0, "fusion_lat": 0.0, "name": "fdbf0f4f9cd88ea4bcaf8930b328526b", "fusion_lon": 0.0}, {"is_reserved": 0, "type": "electric_scooter", "bike_id": "4ea64866cf87b86f52d49db0ed34c8f0", "lat": 38.9300545, "lon": -77.01821716666667, "rental_uris": {"android": "https://dc.lft.to/lastmile_qr_scan", "ios": "https://dc.lft.to/lastmile_qr_scan"}, "is_disabled": 0, "fusion_lat": 0.0, "name": "4ea64866cf87b86f52d49db0ed34c8f0", "fusion_lon": 0.0}, {"is_reserved": 0, "type": "electric_bike", "bike_id": "0a176c4c0ce1c5ff4da63e1dc07650ce", "lat": 38.830128333333334, "lon": -76.99420116666667, "rental_uris": {"android": "https://dc.lft.to/lastmile_qr_scan", "ios": "https://dc.lft.to/lastmile_qr_scan"}, "is_disabled": 0, "fusion_lat": 0.0, "name": "0a176c4c0ce1c5ff4da63e1dc07650ce", "fusion_lon": 0.0}, {"is_reserved": 0, "type": "electric_scooter", "bike_id": "5303fe3fb7aef338bd98ec00fadf65eb", "lat": 38.912516833333335, "lon": -77.04340266666667, "rental_uris": {"android": "https://dc.lft.to/lastmile_qr_scan", "ios": "https://dc.lft.to/lastmile_qr_scan"}, "is_disabled": 0, "fusion_lat": 0.0, "name": "5303fe3fb7aef338bd98ec00fadf65eb", "fusion_lon": 0.0}, {"is_reserved": 0, "type": "electric_scooter", "bike_id": "4b0d27d871864e18ff7cb589f5554825", "lat": 38.9017715, "lon": -77.00110966666666, "rental_uris": {"android": "https://dc.lft.to/lastmile_qr_scan", "ios": "https://dc.lft.to/lastmile_qr_scan"}, "is_disabled": 0, "fusion_lat": 0.0, "name": "4b0d27d871864e18ff7cb589f5554825", "fusion_lon": 0.0}, {"is_reserved": 0, "type": "electric_bike", "bike_id": "10124cecc3ed208b4ba2848f7d121ff7", "lat": 38.83812866666667, "lon": -77.095215, "rental_uris": {"android": "https://dc.lft.to/lastmile_qr_scan", "ios": "https://dc.lft.to/lastmile_qr_scan"}, "is_disabled": 0, "fusion_lat": 0.0, "name": "10124cecc3ed208b4ba2848f7d121ff7", "fusion_lon": 0.0}, {"is_reserved": 0, "type": "electric_scooter", "bike_id": "b96749d00700ee9933d3121afb7b445d", "lat": 38.917119166666666, "lon": -77.03728233333334, "rental_uris": {"android": "https://dc.lft.to/lastmile_qr_scan", "ios": "https://dc.lft.to/lastmile_qr_scan"}, "is_disabled": 0, "fusion_lat": 0.0, "name": "b96749d00700ee9933d3121afb7b445d", "fusion_lon": 0.0}, {"is_reserved": 0, "type": "electric_scooter", "bike_id": "1e91bdb191e4970a625cf3a0797eed56", "lat": 38.8922265, "lon": -77.02622983333333, "rental_uris": {"android": "https://dc.lft.to/lastmile_qr_scan", "ios": "https://dc.lft.to/lastmile_qr_scan"}, "is_disabled": 0, "fusion_lat": 0.0, "name": "1e91bdb191e4970a625cf3a0797eed56", "fusion_lon": 0.0}, {"is_reserved": 0, "type": "electric_scooter", "bike_id": "50addfd05661f5476bacfc34aa7b064c", "lat": 38.936615833333335, "lon": -77.05495566666667, "rental_uris": {"android": "https://dc.lft.to/lastmile_qr_scan", "ios": "https://dc.lft.to/lastmile_qr_scan"}, "is_disabled": 0, "fusion_lat": 0.0, "name": "50addfd05661f5476bacfc34aa7b064c", "fusion_lon": 0.0}, {"is_reserved": 0, "type": "electric_scooter", "bike_id": "8147f1c99a6408680f1f928a4f8c3686", "lat": 38.919291, "lon": -77.034296, "rental_uris": {"android": "https://dc.lft.to/lastmile_qr_scan", "ios": "https://dc.lft.to/lastmile_qr_scan"}, "is_disabled": 0, "fusion_lat": 0.0, "name": "8147f1c99a6408680f1f928a4f8c3686", "fusion_lon": 0.0}, {"is_reserved": 0, "type": "electric_scooter", "bike_id": "0213085ce03bebd7c9d1f18f5f234355", "lat": 38.935074166666666, "lon": -77.0200755, "rental_uris": {"android": "https://dc.lft.to/lastmile_qr_scan", "ios": "https://dc.lft.to/lastmile_qr_scan"}, "is_disabled": 0, "fusion_lat": 0.0, "name": "0213085ce03bebd7c9d1f18f5f234355", "fusion_lon": 0.0}, {"is_reserved": 0, "type": "electric_scooter", "bike_id": "21ff060583ce6af28d320f8032567e58", "lat": 38.931998, "lon": -77.028156, "rental_uris": {"android": "https://dc.lft.to/lastmile_qr_scan", "ios": "https://dc.lft.to/lastmile_qr_scan"}, "is_disabled": 0, "fusion_lat": 0.0, "name": "21ff060583ce6af28d320f8032567e58", "fusion_lon": 0.0}, {"is_reserved": 0, "type": "electric_scooter", "bike_id": "2237f4f3c2ec9717fd4ba52c566c4bc2", "lat": 38.90233766666667, "lon": -77.02851083333333, "rental_uris": {"android": "https://dc.lft.to/lastmile_qr_scan", "ios": "https://dc.lft.to/lastmile_qr_scan"}, "is_disabled": 0, "fusion_lat": 0.0, "name": "2237f4f3c2ec9717fd4ba52c566c4bc2", "fusion_lon": 0.0}, {"is_reserved": 0, "type": "electric_scooter", "bike_id": "e2cd61dc394812b9564e14d929867c7e", "lat": 38.9053755, "lon": -77.02210333333333, "rental_uris": {"android": "https://dc.lft.to/lastmile_qr_scan", "ios": "https://dc.lft.to/lastmile_qr_scan"}, "is_disabled": 0, "fusion_lat": 0.0, "name": "e2cd61dc394812b9564e14d929867c7e", "fusion_lon": 0.0}, {"is_reserved": 0, "type": "electric_scooter", "bike_id": "44236207c253c5181c731d638b9cbe81", "lat": 38.91187733333334, "lon": -77.0073675, "rental_uris": {"android": "https://dc.lft.to/lastmile_qr_scan", "ios": "https://dc.lft.to/lastmile_qr_scan"}, "is_disabled": 0, "fusion_lat": 0.0, "name": "44236207c253c5181c731d638b9cbe81", "fusion_lon": 0.0}, {"is_reserved": 0, "type": "electric_bike", "bike_id": "2004340d10e97d3b206e4fff2f3b9a39", "lat": 38.8982765, "lon": -76.9905485, "rental_uris": {"android": "https://dc.lft.to/lastmile_qr_scan", "ios": "https://dc.lft.to/lastmile_qr_scan"}, "is_disabled": 0, "fusion_lat": 0.0, "name": "2004340d10e97d3b206e4fff2f3b9a39", "fusion_lon": 0.0}, {"is_reserved": 0, "type": "electric_scooter", "bike_id": "c2215263b448b1fdcc87ed35434032de", "lat": 38.900037166666664, "lon": -77.01022333333333, "rental_uris": {"android": "https://dc.lft.to/lastmile_qr_scan", "ios": "https://dc.lft.to/lastmile_qr_scan"}, "is_disabled": 0, "fusion_lat": 0.0, "name": "c2215263b448b1fdcc87ed35434032de", "fusion_lon": 0.0}, {"is_reserved": 0, "type": "electric_scooter", "bike_id": "2a4ad96ed92fac329721d6e19a1c8ee8", "lat": 38.933600166666665, "lon": -77.057218, "rental_uris": {"android": "https://dc.lft.to/lastmile_qr_scan", "ios": "https://dc.lft.to/lastmile_qr_scan"}, "is_disabled": 0, "fusion_lat": 0.0, "name": "2a4ad96ed92fac329721d6e19a1c8ee8", "fusion_lon": 0.0}, {"is_reserved": 0, "type": "electric_scooter", "bike_id": "623edf5753abd6fd7085b5ae9e6a9bf3", "lat": 38.899167, "lon": -77.02715683333334, "rental_uris": {"android": "https://dc.lft.to/lastmile_qr_scan", "ios": "https://dc.lft.to/lastmile_qr_scan"}, "is_disabled": 0, "fusion_lat": 0.0, "name": "623edf5753abd6fd7085b5ae9e6a9bf3", "fusion_lon": 0.0}, {"is_reserved": 0, "type": "electric_scooter", "bike_id": "d78ac668208face88551877fb2fe893b", "lat": 38.9033345, "lon": -77.032873, "rental_uris": {"android": "https://dc.lft.to/lastmile_qr_scan", "ios": "https://dc.lft.to/lastmile_qr_scan"}, "is_disabled": 0, "fusion_lat": 0.0, "name": "d78ac668208face88551877fb2fe893b", "fusion_lon": 0.0}, {"is_reserved": 0, "type": "electric_scooter", "bike_id": "40ee20d8dcfb06e3e8c9c8c4cf66a093", "lat": 38.9140625, "lon": -77.02894383333333, "rental_uris": {"android": "https://dc.lft.to/lastmile_qr_scan", "ios": "https://dc.lft.to/lastmile_qr_scan"}, "is_disabled": 0, "fusion_lat": 0.0, "name": "40ee20d8dcfb06e3e8c9c8c4cf66a093", "fusion_lon": 0.0}, {"is_reserved": 0, "type": "electric_scooter", "bike_id": "5192ee3c65c5292da649edf0c6df6a9f", "lat": 38.90066733333333, "lon": -76.92744916666666, "rental_uris": {"android": "https://dc.lft.to/lastmile_qr_scan", "ios": "https://dc.lft.to/lastmile_qr_scan"}, "is_disabled": 0, "fusion_lat": 0.0, "name": "5192ee3c65c5292da649edf0c6df6a9f", "fusion_lon": 0.0}, {"is_reserved": 0, "type": "electric_scooter", "bike_id": "b53e2b6832565037c286ad49957d1a86", "lat": 38.89562516666667, "lon": -77.03172883333333, "rental_uris": {"android": "https://dc.lft.to/lastmile_qr_scan", "ios": "https://dc.lft.to/lastmile_qr_scan"}, "is_disabled": 0, "fusion_lat": 0.0, "name": "b53e2b6832565037c286ad49957d1a86", "fusion_lon": 0.0}, {"is_reserved": 0, "type": "electric_scooter", "bike_id": "b57cdf4c8bef0d099f818f1c34d2c4d7", "lat": 38.92973683333334, "lon": -77.023392, "rental_uris": {"android": "https://dc.lft.to/lastmile_qr_scan", "ios": "https://dc.lft.to/lastmile_qr_scan"}, "is_disabled": 0, "fusion_lat": 0.0, "name": "b57cdf4c8bef0d099f818f1c34d2c4d7", "fusion_lon": 0.0}, {"is_reserved": 0, "type": "electric_scooter", "bike_id": "0f1e40ce195cda55ea17d5b7bacdc352", "lat": 38.925671, "lon": -76.97004533333333, "rental_uris": {"android": "https://dc.lft.to/lastmile_qr_scan", "ios": "https://dc.lft.to/lastmile_qr_scan"}, "is_disabled": 0, "fusion_lat": 0.0, "name": "0f1e40ce195cda55ea17d5b7bacdc352", "fusion_lon": 0.0}, {"is_reserved": 0, "type": "electric_scooter", "bike_id": "ea79494d26d4118598490449e02c6ef5", "lat": 38.947306, "lon": -77.0245745, "rental_uris": {"android": "https://dc.lft.to/lastmile_qr_scan", "ios": "https://dc.lft.to/lastmile_qr_scan"}, "is_disabled": 0, "fusion_lat": 0.0, "name": "ea79494d26d4118598490449e02c6ef5", "fusion_lon": 0.0}, {"is_reserved": 0, "type": "electric_scooter", "bike_id": "db1271c04a4e4d80f5e1fc13e9d1745c", "lat": 38.902664, "lon": -77.00326183333334, "rental_uris": {"android": "https://dc.lft.to/lastmile_qr_scan", "ios": "https://dc.lft.to/lastmile_qr_scan"}, "is_disabled": 0, "fusion_lat": 0.0, "name": "db1271c04a4e4d80f5e1fc13e9d1745c", "fusion_lon": 0.0}, {"is_reserved": 0, "type": "electric_scooter", "bike_id": "7a77de61e99eb7b47733fb90d41c2564", "lat": 38.906497333333334, "lon": -77.0755665, "rental_uris": {"android": "https://dc.lft.to/lastmile_qr_scan", "ios": "https://dc.lft.to/lastmile_qr_scan"}, "is_disabled": 0, "fusion_lat": 0.0, "name": "7a77de61e99eb7b47733fb90d41c2564", "fusion_lon": 0.0}, {"is_reserved": 0, "type": "electric_scooter", "bike_id": "dd2da998cb2bd46ba567f7da4c23570e", "lat": 38.9518375, "lon": -77.0261455, "rental_uris": {"android": "https://dc.lft.to/lastmile_qr_scan", "ios": "https://dc.lft.to/lastmile_qr_scan"}, "is_disabled": 0, "fusion_lat": 0.0, "name": "dd2da998cb2bd46ba567f7da4c23570e", "fusion_lon": 0.0}, {"is_reserved": 0, "type": "electric_scooter", "bike_id": "fbfb238fd2df3edaaba6d49f161eeae1", "lat": 38.924199, "lon": -77.035609, "rental_uris": {"android": "https://dc.lft.to/lastmile_qr_scan", "ios": "https://dc.lft.to/lastmile_qr_scan"}, "is_disabled": 0, "fusion_lat": 0.0, "name": "fbfb238fd2df3edaaba6d49f161eeae1", "fusion_lon": 0.0}, {"is_reserved": 0, "type": "electric_scooter", "bike_id": "46af9f7dc3c6b2bb15473b7fdd83c7a1", "lat": 38.89231066666667, "lon": -77.017683, "rental_uris": {"android": "https://dc.lft.to/lastmile_qr_scan", "ios": "https://dc.lft.to/lastmile_qr_scan"}, "is_disabled": 0, "fusion_lat": 0.0, "name": "46af9f7dc3c6b2bb15473b7fdd83c7a1", "fusion_lon": 0.0}, {"is_reserved": 0, "type": "electric_scooter", "bike_id": "c6775703b7854d9416bfc4aeaf71eceb", "lat": 38.89959916666667, "lon": -77.02319983333334, "rental_uris": {"android": "https://dc.lft.to/lastmile_qr_scan", "ios": "https://dc.lft.to/lastmile_qr_scan"}, "is_disabled": 0, "fusion_lat": 0.0, "name": "c6775703b7854d9416bfc4aeaf71eceb", "fusion_lon": 0.0}, {"is_reserved": 0, "type": "electric_scooter", "bike_id": "7237529c3ee4cf091fb627993c904237", "lat": 38.93696116666667, "lon": -77.05596766666666, "rental_uris": {"android": "https://dc.lft.to/lastmile_qr_scan", "ios": "https://dc.lft.to/lastmile_qr_scan"}, "is_disabled": 0, "fusion_lat": 0.0, "name": "7237529c3ee4cf091fb627993c904237", "fusion_lon": 0.0}, {"is_reserved": 0, "type": "electric_scooter", "bike_id": "a9af07e14cbd4540862f086bd170fa11", "lat": 38.9057975, "lon": -76.984307, "rental_uris": {"android": "https://dc.lft.to/lastmile_qr_scan", "ios": "https://dc.lft.to/lastmile_qr_scan"}, "is_disabled": 0, "fusion_lat": 0.0, "name": "a9af07e14cbd4540862f086bd170fa11", "fusion_lon": 0.0}, {"is_reserved": 0, "type": "electric_scooter", "bike_id": "f255bd56d19bb9254a37d2b5b9dab6cd", "lat": 38.89522483333333, "lon": -76.992038, "rental_uris": {"android": "https://dc.lft.to/lastmile_qr_scan", "ios": "https://dc.lft.to/lastmile_qr_scan"}, "is_disabled": 0, "fusion_lat": 0.0, "name": "f255bd56d19bb9254a37d2b5b9dab6cd", "fusion_lon": 0.0}, {"is_reserved": 0, "type": "electric_scooter", "bike_id": "7d202675bce100e0c8d388e4fcf3bc98", "lat": 38.90014816666667, "lon": -77.02611383333333, "rental_uris": {"android": "https://dc.lft.to/lastmile_qr_scan", "ios": "https://dc.lft.to/lastmile_qr_scan"}, "is_disabled": 0, "fusion_lat": 0.0, "name": "7d202675bce100e0c8d388e4fcf3bc98", "fusion_lon": 0.0}, {"is_reserved": 0, "type": "electric_scooter", "bike_id": "d18d600ee8bffd1781eabb9ba75ec293", "lat": 38.927457, "lon": -77.0243305, "rental_uris": {"android": "https://dc.lft.to/lastmile_qr_scan", "ios": "https://dc.lft.to/lastmile_qr_scan"}, "is_disabled": 0, "fusion_lat": 0.0, "name": "d18d600ee8bffd1781eabb9ba75ec293", "fusion_lon": 0.0}, {"is_reserved": 0, "type": "electric_scooter", "bike_id": "f3c28fc19a592cf16a6e21e76918132f", "lat": 38.892358, "lon": -77.05034283333333, "rental_uris": {"android": "https://dc.lft.to/lastmile_qr_scan", "ios": "https://dc.lft.to/lastmile_qr_scan"}, "is_disabled": 0, "fusion_lat": 0.0, "name": "f3c28fc19a592cf16a6e21e76918132f", "fusion_lon": 0.0}, {"is_reserved": 0, "type": "electric_scooter", "bike_id": "634cbe2d01bcd297c18cb1b3384f7042", "lat": 38.92360766666667, "lon": -77.04317866666666, "rental_uris": {"android": "https://dc.lft.to/lastmile_qr_scan", "ios": "https://dc.lft.to/lastmile_qr_scan"}, "is_disabled": 0, "fusion_lat": 0.0, "name": "634cbe2d01bcd297c18cb1b3384f7042", "fusion_lon": 0.0}, {"is_reserved": 0, "type": "electric_scooter", "bike_id": "eec0655fe5f369165b12ad13aa839ecf", "lat": 38.887430333333334, "lon": -76.98358016666667, "rental_uris": {"android": "https://dc.lft.to/lastmile_qr_scan", "ios": "https://dc.lft.to/lastmile_qr_scan"}, "is_disabled": 0, "fusion_lat": 0.0, "name": "eec0655fe5f369165b12ad13aa839ecf", "fusion_lon": 0.0}, {"is_reserved": 0, "type": "electric_scooter", "bike_id": "6b4241192c98e126ef0c3c69125742b2", "lat": 38.93570866666666, "lon": -77.03244383333333, "rental_uris": {"android": "https://dc.lft.to/lastmile_qr_scan", "ios": "https://dc.lft.to/lastmile_qr_scan"}, "is_disabled": 0, "fusion_lat": 0.0, "name": "6b4241192c98e126ef0c3c69125742b2", "fusion_lon": 0.0}, {"is_reserved": 0, "type": "electric_bike", "bike_id": "e2467b4d277601539c8251369dcff841", "lat": 38.79334866666667, "lon": -77.00052033333333, "rental_uris": {"android": "https://dc.lft.to/lastmile_qr_scan", "ios": "https://dc.lft.to/lastmile_qr_scan"}, "is_disabled": 0, "fusion_lat": 0.0, "name": "e2467b4d277601539c8251369dcff841", "fusion_lon": 0.0}, {"is_reserved": 0, "type": "electric_scooter", "bike_id": "f2da2bdf503dda94a24e4f5ebc73f4fe", "lat": 38.90569466666667, "lon": -77.02759933333333, "rental_uris": {"android": "https://dc.lft.to/lastmile_qr_scan", "ios": "https://dc.lft.to/lastmile_qr_scan"}, "is_disabled": 0, "fusion_lat": 0.0, "name": "f2da2bdf503dda94a24e4f5ebc73f4fe", "fusion_lon": 0.0}, {"is_reserved": 0, "type": "electric_scooter", "bike_id": "609b57825ca38a821fdde27efda280d0", "lat": 38.89226583333333, "lon": -77.04484916666667, "rental_uris": {"android": "https://dc.lft.to/lastmile_qr_scan", "ios": "https://dc.lft.to/lastmile_qr_scan"}, "is_disabled": 0, "fusion_lat": 0.0, "name": "609b57825ca38a821fdde27efda280d0", "fusion_lon": 0.0}, {"is_reserved": 0, "type": "electric_scooter", "bike_id": "d635c712cb5d7a0684ca2025b03952b2", "lat": 38.93984533333333, "lon": -77.03562916666667, "rental_uris": {"android": "https://dc.lft.to/lastmile_qr_scan", "ios": "https://dc.lft.to/lastmile_qr_scan"}, "is_disabled": 0, "fusion_lat": 0.0, "name": "d635c712cb5d7a0684ca2025b03952b2", "fusion_lon": 0.0}, {"is_reserved": 0, "type": "electric_scooter", "bike_id": "28a2ca5ef1a02b57176ef24868752858", "lat": 38.912893333333336, "lon": -77.023022, "rental_uris": {"android": "https://dc.lft.to/lastmile_qr_scan", "ios": "https://dc.lft.to/lastmile_qr_scan"}, "is_disabled": 0, "fusion_lat": 0.0, "name": "28a2ca5ef1a02b57176ef24868752858", "fusion_lon": 0.0}, {"is_reserved": 0, "type": "electric_scooter", "bike_id": "845977ed8fcc237f62b9806e8614386e", "lat": 38.90084566666667, "lon": -77.02339816666667, "rental_uris": {"android": "https://dc.lft.to/lastmile_qr_scan", "ios": "https://dc.lft.to/lastmile_qr_scan"}, "is_disabled": 0, "fusion_lat": 0.0, "name": "845977ed8fcc237f62b9806e8614386e", "fusion_lon": 0.0}, {"is_reserved": 0, "type": "electric_scooter", "bike_id": "3a84bd0c2a68cd35064278c040617c05", "lat": 38.923911833333335, "lon": -77.0504545, "rental_uris": {"android": "https://dc.lft.to/lastmile_qr_scan", "ios": "https://dc.lft.to/lastmile_qr_scan"}, "is_disabled": 0, "fusion_lat": 0.0, "name": "3a84bd0c2a68cd35064278c040617c05", "fusion_lon": 0.0}, {"is_reserved": 0, "type": "electric_scooter", "bike_id": "2064da1ee231e753d4c398957d514a43", "lat": 38.92327266666667, "lon": -77.02964266666666, "rental_uris": {"android": "https://dc.lft.to/lastmile_qr_scan", "ios": "https://dc.lft.to/lastmile_qr_scan"}, "is_disabled": 0, "fusion_lat": 0.0, "name": "2064da1ee231e753d4c398957d514a43", "fusion_lon": 0.0}, {"is_reserved": 0, "type": "electric_scooter", "bike_id": "3c8bf2f92c58a28fc1c282519db19806", "lat": 38.911898, "lon": -77.00542466666667, "rental_uris": {"android": "https://dc.lft.to/lastmile_qr_scan", "ios": "https://dc.lft.to/lastmile_qr_scan"}, "is_disabled": 0, "fusion_lat": 0.0, "name": "3c8bf2f92c58a28fc1c282519db19806", "fusion_lon": 0.0}, {"is_reserved": 0, "type": "electric_scooter", "bike_id": "9e2dfcbd71741bd990821f9681b4fe5b", "lat": 38.896950333333336, "lon": -77.05020916666666, "rental_uris": {"android": "https://dc.lft.to/lastmile_qr_scan", "ios": "https://dc.lft.to/lastmile_qr_scan"}, "is_disabled": 0, "fusion_lat": 0.0, "name": "9e2dfcbd71741bd990821f9681b4fe5b", "fusion_lon": 0.0}, {"is_reserved": 0, "type": "electric_scooter", "bike_id": "ffc6a6133f61487e4203c5c046646e94", "lat": 38.93360916666666, "lon": -77.05720566666666, "rental_uris": {"android": "https://dc.lft.to/lastmile_qr_scan", "ios": "https://dc.lft.to/lastmile_qr_scan"}, "is_disabled": 0, "fusion_lat": 0.0, "name": "ffc6a6133f61487e4203c5c046646e94", "fusion_lon": 0.0}, {"is_reserved": 0, "type": "electric_scooter", "bike_id": "2075ba1d7e12402c3b34d1c2cff3efa5", "lat": 38.8927585, "lon": -76.99255233333334, "rental_uris": {"android": "https://dc.lft.to/lastmile_qr_scan", "ios": "https://dc.lft.to/lastmile_qr_scan"}, "is_disabled": 0, "fusion_lat": 0.0, "name": "2075ba1d7e12402c3b34d1c2cff3efa5", "fusion_lon": 0.0}, {"is_reserved": 0, "type": "electric_scooter", "bike_id": "e8568ac30e78262c2eee980d05489001", "lat": 38.92445383333333, "lon": -77.0216145, "rental_uris": {"android": "https://dc.lft.to/lastmile_qr_scan", "ios": "https://dc.lft.to/lastmile_qr_scan"}, "is_disabled": 0, "fusion_lat": 0.0, "name": "e8568ac30e78262c2eee980d05489001", "fusion_lon": 0.0}, {"is_reserved": 0, "type": "electric_scooter", "bike_id": "5ff1333bdf22811a1272c948ccf5d8d6", "lat": 38.875753333333336, "lon": -77.01994316666666, "rental_uris": {"android": "https://dc.lft.to/lastmile_qr_scan", "ios": "https://dc.lft.to/lastmile_qr_scan"}, "is_disabled": 0, "fusion_lat": 0.0, "name": "5ff1333bdf22811a1272c948ccf5d8d6", "fusion_lon": 0.0}, {"is_reserved": 0, "type": "electric_scooter", "bike_id": "b5a79c89ae82875634e4e5912fc75685", "lat": 38.939599, "lon": -77.02758566666667, "rental_uris": {"android": "https://dc.lft.to/lastmile_qr_scan", "ios": "https://dc.lft.to/lastmile_qr_scan"}, "is_disabled": 0, "fusion_lat": 0.0, "name": "b5a79c89ae82875634e4e5912fc75685", "fusion_lon": 0.0}, {"is_reserved": 0, "type": "electric_scooter", "bike_id": "e067d6aa8e843b65c0c11aa1112440f3", "lat": 38.924166, "lon": -77.01974683333333, "rental_uris": {"android": "https://dc.lft.to/lastmile_qr_scan", "ios": "https://dc.lft.to/lastmile_qr_scan"}, "is_disabled": 0, "fusion_lat": 0.0, "name": "e067d6aa8e843b65c0c11aa1112440f3", "fusion_lon": 0.0}, {"is_reserved": 0, "type": "electric_scooter", "bike_id": "0bfc308470de35faa7839ab72625fb4a", "lat": 38.908034666666666, "lon": -77.04232683333333, "rental_uris": {"android": "https://dc.lft.to/lastmile_qr_scan", "ios": "https://dc.lft.to/lastmile_qr_scan"}, "is_disabled": 0, "fusion_lat": 0.0, "name": "0bfc308470de35faa7839ab72625fb4a", "fusion_lon": 0.0}, {"is_reserved": 0, "type": "electric_scooter", "bike_id": "694513ccc9da97049bea9f20a9201bae", "lat": 38.919657666666666, "lon": -77.022254, "rental_uris": {"android": "https://dc.lft.to/lastmile_qr_scan", "ios": "https://dc.lft.to/lastmile_qr_scan"}, "is_disabled": 0, "fusion_lat": 0.0, "name": "694513ccc9da97049bea9f20a9201bae", "fusion_lon": 0.0}, {"is_reserved": 0, "type": "electric_scooter", "bike_id": "7424578db647f701281d0a38fe76fa73", "lat": 38.92272783333333, "lon": -77.02124516666667, "rental_uris": {"android": "https://dc.lft.to/lastmile_qr_scan", "ios": "https://dc.lft.to/lastmile_qr_scan"}, "is_disabled": 0, "fusion_lat": 0.0, "name": "7424578db647f701281d0a38fe76fa73", "fusion_lon": 0.0}, {"is_reserved": 0, "type": "electric_scooter", "bike_id": "7ca1b6cd5760883a04543a2424ed6924", "lat": 38.92548816666667, "lon": -77.03223883333334, "rental_uris": {"android": "https://dc.lft.to/lastmile_qr_scan", "ios": "https://dc.lft.to/lastmile_qr_scan"}, "is_disabled": 0, "fusion_lat": 0.0, "name": "7ca1b6cd5760883a04543a2424ed6924", "fusion_lon": 0.0}, {"is_reserved": 0, "type": "electric_scooter", "bike_id": "51247423a7bfd47eb755a28eedae15e2", "lat": 38.915006, "lon": -77.02003316666666, "rental_uris": {"android": "https://dc.lft.to/lastmile_qr_scan", "ios": "https://dc.lft.to/lastmile_qr_scan"}, "is_disabled": 0, "fusion_lat": 0.0, "name": "51247423a7bfd47eb755a28eedae15e2", "fusion_lon": 0.0}, {"is_reserved": 0, "type": "electric_bike", "bike_id": "5de15712926f4f7355717194c8701e6f", "lat": 38.917063666666664, "lon": -77.05718833333333, "rental_uris": {"android": "https://dc.lft.to/lastmile_qr_scan", "ios": "https://dc.lft.to/lastmile_qr_scan"}, "is_disabled": 0, "fusion_lat": 0.0, "name": "5de15712926f4f7355717194c8701e6f", "fusion_lon": 0.0}, {"is_reserved": 0, "type": "electric_scooter", "bike_id": "f5fbfd02285b85b56bdb4cd36ba9c143", "lat": 38.90550016666667, "lon": -77.00434833333334, "rental_uris": {"android": "https://dc.lft.to/lastmile_qr_scan", "ios": "https://dc.lft.to/lastmile_qr_scan"}, "is_disabled": 0, "fusion_lat": 0.0, "name": "f5fbfd02285b85b56bdb4cd36ba9c143", "fusion_lon": 0.0}, {"is_reserved": 0, "type": "electric_scooter", "bike_id": "f977ef95811f0454ea72cfe2449f5e86", "lat": 38.921431, "lon": -77.01906933333333, "rental_uris": {"android": "https://dc.lft.to/lastmile_qr_scan", "ios": "https://dc.lft.to/lastmile_qr_scan"}, "is_disabled": 0, "fusion_lat": 0.0, "name": "f977ef95811f0454ea72cfe2449f5e86", "fusion_lon": 0.0}, {"is_reserved": 0, "type": "electric_scooter", "bike_id": "c53d01e0ed0ead3a3178065dd552fedc", "lat": 38.907249166666666, "lon": -77.00808616666667, "rental_uris": {"android": "https://dc.lft.to/lastmile_qr_scan", "ios": "https://dc.lft.to/lastmile_qr_scan"}, "is_disabled": 0, "fusion_lat": 0.0, "name": "c53d01e0ed0ead3a3178065dd552fedc", "fusion_lon": 0.0}, {"is_reserved": 0, "type": "electric_scooter", "bike_id": "2137698b48b0a02a26cc6fc4ecb169e2", "lat": 38.91686933333333, "lon": -77.02957833333333, "rental_uris": {"android": "https://dc.lft.to/lastmile_qr_scan", "ios": "https://dc.lft.to/lastmile_qr_scan"}, "is_disabled": 0, "fusion_lat": 0.0, "name": "2137698b48b0a02a26cc6fc4ecb169e2", "fusion_lon": 0.0}, {"is_reserved": 0, "type": "electric_scooter", "bike_id": "ad29a2f0283ade116987ba26e98da8d0", "lat": 38.930771166666666, "lon": -77.02813466666667, "rental_uris": {"android": "https://dc.lft.to/lastmile_qr_scan", "ios": "https://dc.lft.to/lastmile_qr_scan"}, "is_disabled": 0, "fusion_lat": 0.0, "name": "ad29a2f0283ade116987ba26e98da8d0", "fusion_lon": 0.0}, {"is_reserved": 0, "type": "electric_bike", "bike_id": "1c5c3231cb84ccda151e24c43915b665", "lat": 38.94564, "lon": -76.95844016666666, "rental_uris": {"android": "https://dc.lft.to/lastmile_qr_scan", "ios": "https://dc.lft.to/lastmile_qr_scan"}, "is_disabled": 0, "fusion_lat": 0.0, "name": "1c5c3231cb84ccda151e24c43915b665", "fusion_lon": 0.0},