{"data": {"bikes": [{"name": "2a702c6305ce062e8e5d08faeba2dabf", "fusion_lat": 0.0, "fusion_lon": 0.0, "bike_id": "2a702c6305ce062e8e5d08faeba2dabf", "rental_uris": {"ios": "https://dc.lft.to/lastmile_qr_scan", "android": "https://dc.lft.to/lastmile_qr_scan"}, "type": "electric_scooter", "lat": 38.91795833333333, "is_disabled": 0, "lon": -77.03462016666667, "is_reserved": 0}, {"name": "2533e1c4814950f14859bc138bfa7089", "fusion_lat": 0.0, "fusion_lon": 0.0, "bike_id": "2533e1c4814950f14859bc138bfa7089", "rental_uris": {"ios": "https://dc.lft.to/lastmile_qr_scan", "android": "https://dc.lft.to/lastmile_qr_scan"}, "type": "electric_scooter", "lat": 38.93190666666667, "is_disabled": 0, "lon": -77.028342, "is_reserved": 0}, {"name": "4beb14241372a5316f1c0d31ff942e14", "fusion_lat": 0.0, "fusion_lon": 0.0, "bike_id": "4beb14241372a5316f1c0d31ff942e14", "rental_uris": {"ios": "https://dc.lft.to/lastmile_qr_scan", "android": "https://dc.lft.to/lastmile_qr_scan"}, "type": "electric_scooter", "lat": 38.897818, "is_disabled": 0, "lon": -77.051098, "is_reserved": 0}, {"name": "6acb2e99174c327fecd692fa8b513543", "fusion_lat": 0.0, "fusion_lon": 0.0, "bike_id": "6acb2e99174c327fecd692fa8b513543", "rental_uris": {"ios": "https://dc.lft.to/lastmile_qr_scan", "android": "https://dc.lft.to/lastmile_qr_scan"}, "type": "electric_scooter", "lat": 38.89207866666667, "is_disabled": 0, "lon": -76.98807466666666, "is_reserved": 0}, {"name": "9c6b0ebbd5866177e6753c0ac2fdbe9a", "fusion_lat": 0.0, "fusion_lon": 0.0, "bike_id": "9c6b0ebbd5866177e6753c0ac2fdbe9a", "rental_uris": {"ios": "https://dc.lft.to/lastmile_qr_scan", "android": "https://dc.lft.to/lastmile_qr_scan"}, "type": "electric_scooter", "lat": 38.89813933333333, "is_disabled": 0, "lon": -77.0435945, "is_reserved": 0}, {"name": "6c82dfccad4c3dce041099ae69dd7f7c", "fusion_lat": 0.0, "fusion_lon": 0.0, "bike_id": "6c82dfccad4c3dce041099ae69dd7f7c", "rental_uris": {"ios": "https://dc.lft.to/lastmile_qr_scan", "android": "https://dc.lft.to/lastmile_qr_scan"}, "type": "electric_scooter", "lat": 38.906104666666664, "is_disabled": 0, "lon": -77.04161266666667, "is_reserved": 0}, {"name": "1a92b849c475539ae414324908a09551", "fusion_lat": 0.0, "fusion_lon": 0.0, "bike_id": "1a92b849c475539ae414324908a09551", "rental_uris": {"ios": "https://dc.lft.to/lastmile_qr_scan", "android": "https://dc.lft.to/lastmile_qr_scan"}, "type": "electric_scooter", "lat": 38.866791, "is_disabled": 0, "lon": -76.98885866666667, "is_reserved": 0}, {"name": "7e9ee1de93837339497a839584d3fa57", "fusion_lat": 0.0, "fusion_lon": 0.0, "bike_id": "7e9ee1de93837339497a839584d3fa57", "rental_uris": {"ios": "https://dc.lft.to/lastmile_qr_scan", "android": "https://dc.lft.to/lastmile_qr_scan"}, "type": "electric_scooter", "lat": 38.884052833333335, "is_disabled": 0, "lon": -76.95416733333333, "is_reserved": 0}, {"name": "87673500eee52289fe9ec6b35ee4f053", "fusion_lat": 0.0, "fusion_lon": 0.0, "bike_id": "87673500eee52289fe9ec6b35ee4f053", "rental_uris": {"ios": "https://dc.lft.to/lastmile_qr_scan", "android": "https://dc.lft.to/lastmile_qr_scan"}, "type": "electric_scooter", "lat": 38.865094166666665, "is_disabled": 0, "lon": -76.990077, "is_reserved": 0}, {"name": "ad92ad7f9ae0fb18599c53c09d7dcae4", "fusion_lat": 0.0, "fusion_lon": 0.0, "bike_id": "ad92ad7f9ae0fb18599c53c09d7dcae4", "rental_uris": {"ios": "https://dc.lft.to/lastmile_qr_scan", "android": "https://dc.lft.to/lastmile_qr_scan"}, "type": "electric_scooter", "lat": 38.914781, "is_disabled": 0, "lon": -77.03473, "is_reserved": 0}, {"name": "ea2841d52341171842f3e6f8d3a85b9c", "fusion_lat": 0.0, "fusion_lon": 0.0, "bike_id": "ea2841d52341171842f3e6f8d3a85b9c", "rental_uris": {"ios": "https://dc.lft.to/lastmile_qr_scan", "android": "https://dc.lft.to/lastmile_qr_scan"}, "type": "electric_bike", "lat": 39.088396833333334, "is_disabled": 0, "lon": -77.17807133333334, "is_reserved": 0}, {"name": "61f5f6ef7abc1ea7dbce95e7510c2119", "fusion_lat": 0.0, "fusion_lon": 0.0, "bike_id": "61f5f6ef7abc1ea7dbce95e7510c2119", "rental_uris": {"ios": "https://dc.lft.to/lastmile_qr_scan", "android": "https://dc.lft.to/lastmile_qr_scan"}, "type": "electric_scooter", "lat": 38.9105085, "is_disabled": 0, "lon": -77.01513566666667, "is_reserved": 0}, {"name": "6d3e9dc2a9c5010a8fbd643a6d0766c6", "fusion_lat": 0.0, "fusion_lon": 0.0, "bike_id": "6d3e9dc2a9c5010a8fbd643a6d0766c6", "rental_uris": {"ios": "https://dc.lft.to/lastmile_qr_scan", "android": "https://dc.lft.to/lastmile_qr_scan"}, "type": "electric_scooter", "lat": 38.913335000000004, "is_disabled": 0, "lon": -77.03261566666667, "is_reserved": 0}, {"name": "3eb01bd29f866338fe5a05075d60b54c", "fusion_lat": 0.0, "fusion_lon": 0.0, "bike_id": "3eb01bd29f866338fe5a05075d60b54c", "rental_uris": {"ios": "https://dc.lft.to/lastmile_qr_scan", "android": "https://dc.lft.to/lastmile_qr_scan"}, "type": "electric_bike", "lat": 38.99889316666667, "is_disabled": 0, "lon": -77.02885, "is_reserved": 0}, {"name": "13f25f608f13bff11cd9cfd651f18f20", "fusion_lat": 0.0, "fusion_lon": 0.0, "bike_id": "13f25f608f13bff11cd9cfd651f18f20", "rental_uris": {"ios": "https://dc.lft.to/lastmile_qr_scan", "android": "https://dc.lft.to/lastmile_qr_scan"}, "type": "electric_scooter", "lat": 38.9125605, "is_disabled": 0, "lon": -77.017015, "is_reserved": 0}, {"name": "ea8acd7a9f54730da1ba3d8fec33b7c4", "fusion_lat": 0.0, "fusion_lon": 0.0, "bike_id": "ea8acd7a9f54730da1ba3d8fec33b7c4", "rental_uris": {"ios": "https://dc.lft.to/lastmile_qr_scan", "android": "https://dc.lft.to/lastmile_qr_scan"}, "type": "electric_scooter", "lat": 38.931267166666665, "is_disabled": 0, "lon": -77.03850716666666, "is_reserved": 0}, {"name": "a2d880f6b7a4263c4d7915c4d78a7827", "fusion_lat": 0.0, "fusion_lon": 0.0, "bike_id": "a2d880f6b7a4263c4d7915c4d78a7827", "rental_uris": {"ios": "https://dc.lft.to/lastmile_qr_scan", "android": "https://dc.lft.to/lastmile_qr_scan"}, "type": "electric_scooter", "lat": 38.90883483333333, "is_disabled": 0, "lon": -77.04055716666667, "is_reserved": 0}, {"name": "a4c5df5a127d63872b5a35857188cd73", "fusion_lat": 0.0, "fusion_lon": 0.0, "bike_id": "a4c5df5a127d63872b5a35857188cd73", "rental_uris": {"ios": "https://dc.lft.to/lastmile_qr_scan", "android": "https://dc.lft.to/lastmile_qr_scan"}, "type": "electric_scooter", "lat": 38.88370883333333, "is_disabled": 0, "lon": -76.995214, "is_reserved": 0}, {"name": "c5f4a915ffb98802a47a580c531174a7", "fusion_lat": 0.0, "fusion_lon": 0.0, "bike_id": "c5f4a915ffb98802a47a580c531174a7", "rental_uris": {"ios": "https://dc.lft.to/lastmile_qr_scan", "android": "https://dc.lft.to/lastmile_qr_scan"}, "type": "electric_scooter", "lat": 38.901307, "is_disabled": 0, "lon": -77.01197466666666, "is_reserved": 0}, {"name": "2afbde9ac1239fe5fdf66ef916b5e91d", "fusion_lat": 0.0, "fusion_lon": 0.0, "bike_id": "2afbde9ac1239fe5fdf66ef916b5e91d", "rental_uris": {"ios": "https://dc.lft.to/lastmile_qr_scan", "android": "https://dc.lft.to/lastmile_qr_scan"}, "type": "electric_bike", "lat": 38.96761166666667, "is_disabled": 0, "lon": -77.09164216666667, "is_reserved": 0}, {"name": "bb0ff1844fe22284e8f00c4bca2d01bc", "fusion_lat": 0.0, "fusion_lon": 0.0, "bike_id": "bb0ff1844fe22284e8f00c4bca2d01bc", "rental_uris": {"ios": "https://dc.lft.to/lastmile_qr_scan", "android": "https://dc.lft.to/lastmile_qr_scan"}, "type": "electric_scooter", "lat": 38.91750483333333, "is_disabled": 0, "lon": -77.04046933333333, "is_reserved": 0}, {"name": "a0947c38b93da0593e54c892ddee5882", "fusion_lat": 0.0, "fusion_lon": 0.0, "bike_id": "a0947c38b93da0593e54c892ddee5882", "rental_uris": {"ios": "https://dc.lft.to/lastmile_qr_scan", "android": "https://dc.lft.to/lastmile_qr_scan"}, "type": "electric_scooter", "lat": 38.89485633333334, "is_disabled": 0, "lon": -76.99514516666666, "is_reserved": 0}, {"name": "f72dadf7bac2d988aabd50401a51a5aa", "fusion_lat": 0.0, "fusion_lon": 0.0, "bike_id": "f72dadf7bac2d988aabd50401a51a5aa", "rental_uris": {"ios": "https://dc.lft.to/lastmile_qr_scan", "android": "https://dc.lft.to/lastmile_qr_scan"}, "type": "electric_scooter", "lat": 38.917706333333335, "is_disabled": 0, "lon": -77.0231535, "is_reserved": 0}, {"name": "1653fc272bb13d25bf4820565e4b0627", "fusion_lat": 0.0, "fusion_lon": 0.0, "bike_id": "1653fc272bb13d25bf4820565e4b0627", "rental_uris": {"ios": "https://dc.lft.to/lastmile_qr_scan", "android": "https://dc.lft.to/lastmile_qr_scan"}, "type": "electric_scooter", "lat": 38.89519416666667, "is_disabled": 0, "lon": -77.02932633333333, "is_reserved": 0}, {"name": "1a969fb4569800c9e9a0a6affcda0c19", "fusion_lat": 0.0, "fusion_lon": 0.0, "bike_id": "1a969fb4569800c9e9a0a6affcda0c19", "rental_uris": {"ios": "https://dc.lft.to/lastmile_qr_scan", "android": "https://dc.lft.to/lastmile_qr_scan"}, "type": "electric_scooter", "lat": 38.85806083333333, "is_disabled": 0, "lon": -76.9865365, "is_reserved": 0}, {"name": "5fe0bd8df6ba333a5bca060eb8e9e4ae", "fusion_lat": 0.0, "fusion_lon": 0.0, "bike_id": "5fe0bd8df6ba333a5bca060eb8e9e4ae", "rental_uris": {"ios": "https://dc.lft.to/lastmile_qr_scan", "android": "https://dc.lft.to/lastmile_qr_scan"}, "type": "electric_scooter", "lat": 38.892952333333334, "is_disabled": 0, "lon": -77.04660666666666, "is_reserved": 0}, {"name": "5ba0b9772af02091bc82b1d2d0a3b349", "fusion_lat": 0.0, "fusion_lon": 0.0, "bike_id": "5ba0b9772af02091bc82b1d2d0a3b349", "rental_uris": {"ios": "https://dc.lft.to/lastmile_qr_scan", "android": "https://dc.lft.to/lastmile_qr_scan"}, "type": "electric_scooter", "lat": 38.94089133333333, "is_disabled": 0, "lon": -77.02730416666667, "is_reserved": 0}, {"name": "98a6983de3b44fe7a78347f3099900b0", "fusion_lat": 0.0, "fusion_lon": 0.0, "bike_id": "98a6983de3b44fe7a78347f3099900b0", "rental_uris": {"ios": "https://dc.lft.to/lastmile_qr_scan", "android": "https://dc.lft.to/lastmile_qr_scan"}, "type": "electric_scooter", "lat": 38.8873315, "is_disabled": 0, "lon": -77.0212735, "is_reserved": 0}, {"name": "0e2e507b688ee87101a00868dacd32d3", "fusion_lat": 0.0, "fusion_lon": 0.0, "bike_id": "0e2e507b688ee87101a00868dacd32d3", "rental_uris": {"ios": "https://dc.lft.to/lastmile_qr_scan", "android": "https://dc.lft.to/lastmile_qr_scan"}, "type": "electric_scooter", "lat": 38.90418416666667, "is_disabled": 0, "lon": -76.99064316666667, "is_reserved": 0}, {"name": "31a57530c3898d08b08f0bc4a89c16db", "fusion_lat": 0.0, "fusion_lon": 0.0, "bike_id": "31a57530c3898d08b08f0bc4a89c16db", "rental_uris": {"ios": "https://dc.lft.to/lastmile_qr_scan", "android": "https://dc.lft.to/lastmile_qr_scan"}, "type": "electric_scooter", "lat": 38.91118433333333, "is_disabled": 0, "lon": -77.02241666666667, "is_reserved": 0}, {"name": "b09584984b4ab745ee2a8c9d04d28d28", "fusion_lat": 0.0, "fusion_lon": 0.0, "bike_id": "b09584984b4ab745ee2a8c9d04d28d28", "rental_uris": {"ios": "https://dc.lft.to/lastmile_qr_scan", "android": "https://dc.lft.to/lastmile_qr_scan"}, "type": "electric_scooter", "lat": 38.921814499999996, "is_disabled": 0, "lon": -76.99696716666666, "is_reserved": 0}, {"name": "7764c3ed7d67685a56b7dd249663647b", "fusion_lat": 0.0, "fusion_lon": 0.0, "bike_id": "7764c3ed7d67685a56b7dd249663647b", "rental_uris": {"ios": "https://dc.lft.to/lastmile_qr_scan", "android": "https://dc.lft.to/lastmile_qr_scan"}, "type": "electric_scooter", "lat": 38.914771333333334, "is_disabled": 0, "lon": -77.00351416666666, "is_reserved": 0}, {"name": "0fe841d734085859247cfc3c3c53f582", "fusion_lat": 0.0, "fusion_lon": 0.0, "bike_id": "0fe841d734085859247cfc3c3c53f582", "rental_uris": {"ios": "https://dc.lft.to/lastmile_qr_scan", "android": "https://dc.lft.to/lastmile_qr_scan"}, "type": "electric_scooter", "lat": 38.8759045, "is_disabled": 0, "lon": -77.00598233333334, "is_reserved": 0}, {"name": "51545ed12a7558618959b72846c9d771", "fusion_lat": 0.0, "fusion_lon": 0.0, "bike_id": "51545ed12a7558618959b72846c9d771", "rental_uris": {"ios": "https://dc.lft.to/lastmile_qr_scan", "android": "https://dc.lft.to/lastmile_qr_scan"}, "type": "electric_scooter", "lat": 38.91816333333333, "is_disabled": 0, "lon": -77.026679, "is_reserved": 0}, {"name": "2d64d1b494d341931b11fd74e9071b36", "fusion_lat": 0.0, "fusion_lon": 0.0, "bike_id": "2d64d1b494d341931b11fd74e9071b36", "rental_uris": {"ios": "https://dc.lft.to/lastmile_qr_scan", "android": "https://dc.lft.to/lastmile_qr_scan"}, "type": "electric_scooter", "lat": 38.93132716666667, "is_disabled": 0, "lon": -77.02363483333333, "is_reserved": 0}, {"name": "dccf933e76b4795424ab751217666487", "fusion_lat": 0.0, "fusion_lon": 0.0, "bike_id": "dccf933e76b4795424ab751217666487", "rental_uris": {"ios": "https://dc.lft.to/lastmile_qr_scan", "android": "https://dc.lft.to/lastmile_qr_scan"}, "type": "electric_scooter", "lat": 38.919864, "is_disabled": 0, "lon": -77.03309916666667, "is_reserved": 0}, {"name": "74f65fa29a6c4f0cce6f4f9ab5733bda", "fusion_lat": 0.0, "fusion_lon": 0.0, "bike_id": "74f65fa29a6c4f0cce6f4f9ab5733bda", "rental_uris": {"ios": "https://dc.lft.to/lastmile_qr_scan", "android": "https://dc.lft.to/lastmile_qr_scan"}, "type": "electric_scooter", "lat": 38.9051025, "is_disabled": 0, "lon": -77.0511845, "is_reserved": 0}, {"name": "ed23b09ff372add1a464f6207e75342a", "fusion_lat": 0.0, "fusion_lon": 0.0, "bike_id": "ed23b09ff372add1a464f6207e75342a", "rental_uris": {"ios": "https://dc.lft.to/lastmile_qr_scan", "android": "https://dc.lft.to/lastmile_qr_scan"}, "type": "electric_scooter", "lat": 38.9420065, "is_disabled": 0, "lon": -77.02583316666667, "is_reserved": 0}, {"name": "0abb39e924421b648dc63c8eed6f4070", "fusion_lat": 0.0, "fusion_lon": 0.0, "bike_id": "0abb39e924421b648dc63c8eed6f4070", "rental_uris": {"ios": "https://dc.lft.to/lastmile_qr_scan", "android": "https://dc.lft.to/lastmile_qr_scan"}, "type": "electric_scooter", "lat": 38.887443166666664, "is_disabled": 0, "lon": -77.021238, "is_reserved": 0}, {"name": "de5e49b8fa948461931504606014dfbb", "fusion_lat": 0.0, "fusion_lon": 0.0, "bike_id": "de5e49b8fa948461931504606014dfbb", "rental_uris": {"ios": "https://dc.lft.to/lastmile_qr_scan", "android": "https://dc.lft.to/lastmile_qr_scan"}, "type": "electric_bike", "lat": 38.946247, "is_disabled": 0, "lon": -76.93414266666667, "is_reserved": 0}, {"name": "95c4fd3e89fbca099ad040358ab2e99e", "fusion_lat": 0.0, "fusion_lon": 0.0, "bike_id": "95c4fd3e89fbca099ad040358ab2e99e", "rental_uris": {"ios": "https://dc.lft.to/lastmile_qr_scan", "android": "https://dc.lft.to/lastmile_qr_scan"}, "type": "electric_scooter", "lat": 38.90319216666666, "is_disabled": 0, "lon": -77.0236275, "is_reserved": 0}, {"name": "7579101516581ac39883210ffb153d6d", "fusion_lat": 0.0, "fusion_lon": 0.0, "bike_id": "7579101516581ac39883210ffb153d6d", "rental_uris": {"ios": "https://dc.lft.to/lastmile_qr_scan", "android": "https://dc.lft.to/lastmile_qr_scan"}, "type": "electric_scooter", "lat": 38.924819666666664, "is_disabled": 0, "lon": -77.02724666666667, "is_reserved": 0}, {"name": "04896be04c0b160c136ffe396ca7e360", "fusion_lat": 0.0, "fusion_lon": 0.0, "bike_id": "04896be04c0b160c136ffe396ca7e360", "rental_uris": {"ios": "https://dc.lft.to/lastmile_qr_scan", "android": "https://dc.lft.to/lastmile_qr_scan"}, "type": "electric_scooter", "lat": 38.905504666666666, "is_disabled": 0, "lon": -77.0570285, "is_reserved": 0}, {"name": "17111b61269fbf78ef29b738d9777d49", "fusion_lat": 0.0, "fusion_lon": 0.0, "bike_id": "17111b61269fbf78ef29b738d9777d49", "rental_uris": {"ios": "https://dc.lft.to/lastmile_qr_scan", "android": "https://dc.lft.to/lastmile_qr_scan"}, "type": "electric_scooter", "lat": 38.91691983333333, "is_disabled": 0, "lon": -77.04012033333333, "is_reserved": 0}, {"name": "ab8c9c7fc825f10f847abf4de89a540e", "fusion_lat": 0.0, "fusion_lon": 0.0, "bike_id": "ab8c9c7fc825f10f847abf4de89a540e", "rental_uris": {"ios": "https://dc.lft.to/lastmile_qr_scan", "android": "https://dc.lft.to/lastmile_qr_scan"}, "type": "electric_scooter", "lat": 38.938580333333334, "is_disabled": 0, "lon": -77.02486316666666, "is_reserved": 0}, {"name": "3ed12959fbab29fcde55baa34e2f7619", "fusion_lat": 0.0, "fusion_lon": 0.0, "bike_id": "3ed12959fbab29fcde55baa34e2f7619", "rental_uris": {"ios": "https://dc.lft.to/lastmile_qr_scan", "android": "https://dc.lft.to/lastmile_qr_scan"}, "type": "electric_scooter", "lat": 38.905196333333336, "is_disabled": 0, "lon": -77.059565, "is_reserved": 0}, {"name": "47fd6c2fc0a0add909510062fd283fb8", "fusion_lat": 0.0, "fusion_lon": 0.0, "bike_id": "47fd6c2fc0a0add909510062fd283fb8", "rental_uris": {"ios": "https://dc.lft.to/lastmile_qr_scan", "android": "https://dc.lft.to/lastmile_qr_scan"}, "type": "electric_scooter", "lat": 38.93239416666667, "is_disabled": 0, "lon": -77.0341955, "is_reserved": 0}, {"name": "46f7241687b4cfdb62a8af806ff56c71", "fusion_lat": 0.0, "fusion_lon": 0.0, "bike_id": "46f7241687b4cfdb62a8af806ff56c71", "rental_uris": {"ios": "https://dc.lft.to/lastmile_qr_scan", "android": "https://dc.lft.to/lastmile_qr_scan"}, "type": "electric_scooter", "lat": 38.905222333333334, "is_disabled": 0, "lon": -77.0660445, "is_reserved": 0}, {"name": "2e8fb52d97816da73cbed7d0397df7a8", "fusion_lat": 0.0, "fusion_lon": 0.0, "bike_id": "2e8fb52d97816da73cbed7d0397df7a8", "rental_uris": {"ios": "https://dc.lft.to/lastmile_qr_scan", "android": "https://dc.lft.to/lastmile_qr_scan"}, "type": "electric_bike", "lat": 38.93904666666667, "is_disabled": 0, "lon": -77.07686833333334, "is_reserved": 0}, {"name": "70b32d72a8b11463400844606c616021", "fusion_lat": 0.0, "fusion_lon": 0.0, "bike_id": "70b32d72a8b11463400844606c616021", "rental_uris": {"ios": "https://dc.lft.to/lastmile_qr_scan", "android": "https://dc.lft.to/lastmile_qr_scan"}, "type": "electric_scooter", "lat": 38.9188385, "is_disabled": 0, "lon": -77.0417175, "is_reserved": 0}, {"name": "2d24fd82abac6ef04b1fe17da3328317", "fusion_lat": 0.0, "fusion_lon": 0.0, "bike_id": "2d24fd82abac6ef04b1fe17da3328317", "rental_uris": {"ios": "https://dc.lft.to/lastmile_qr_scan", "android": "https://dc.lft.to/lastmile_qr_scan"}, "type": "electric_scooter", "lat": 38.90784283333333, "is_disabled": 0, "lon": -77.02970016666667, "is_reserved": 0}, {"name": "59acec3c1e2528d73f372629fc37f8f8", "fusion_lat": 0.0, "fusion_lon": 0.0, "bike_id": "59acec3c1e2528d73f372629fc37f8f8", "rental_uris": {"ios": "https://dc.lft.to/lastmile_qr_scan", "android": "https://dc.lft.to/lastmile_qr_scan"}, "type": "electric_scooter", "lat": 38.876319333333335, "is_disabled": 0, "lon": -77.01260216666667, "is_reserved": 0}, {"name": "ef085197d19d4498d55e85f8432cb75f", "fusion_lat": 0.0, "fusion_lon": 0.0, "bike_id": "ef085197d19d4498d55e85f8432cb75f", "rental_uris": {"ios": "https://dc.lft.to/lastmile_qr_scan", "android": "https://dc.lft.to/lastmile_qr_scan"}, "type": "electric_scooter", "lat": 38.90522383333333, "is_disabled": 0, "lon": -77.06526116666667, "is_reserved": 0}, {"name": "710dfd30d1c12ecf6cc72059f0ed2fbc", "fusion_lat": 0.0, "fusion_lon": 0.0, "bike_id": "710dfd30d1c12ecf6cc72059f0ed2fbc", "rental_uris": {"ios": "https://dc.lft.to/lastmile_qr_scan", "android": "https://dc.lft.to/lastmile_qr_scan"}, "type": "electric_scooter", "lat": 38.901182666666664, "is_disabled": 0, "lon": -76.99147233333333, "is_reserved": 0}, {"name": "8b8e8fbbba5e4891469bfb944d30c18f", "fusion_lat": 0.0, "fusion_lon": 0.0, "bike_id": "8b8e8fbbba5e4891469bfb944d30c18f", "rental_uris": {"ios": "https://dc.lft.to/lastmile_qr_scan", "android": "https://dc.lft.to/lastmile_qr_scan"}, "type": "electric_scooter", "lat": 38.9181555, "is_disabled": 0, "lon": -77.024786, "is_reserved": 0}, {"name": "90ab3059759dbba039b44377ee174b04", "fusion_lat": 0.0, "fusion_lon": 0.0, "bike_id": "90ab3059759dbba039b44377ee174b04", "rental_uris": {"ios": "https://dc.lft.to/lastmile_qr_scan", "android": "https://dc.lft.to/lastmile_qr_scan"}, "type": "electric_scooter", "lat": 38.90130283333333, "is_disabled": 0, "lon": -77.04347866666667, "is_reserved": 0}, {"name": "101a28d7088311a0d4ec1f008182c6c6", "fusion_lat": 0.0, "fusion_lon": 0.0, "bike_id": "101a28d7088311a0d4ec1f008182c6c6", "rental_uris": {"ios": "https://dc.lft.to/lastmile_qr_scan", "android": "https://dc.lft.to/lastmile_qr_scan"}, "type": "electric_scooter", "lat": 38.8843435, "is_disabled": 0, "lon": -77.02792483333333, "is_reserved": 0}, {"name": "c606e65ae2531d143cef51ab6218df17", "fusion_lat": 0.0, "fusion_lon": 0.0, "bike_id": "c606e65ae2531d143cef51ab6218df17", "rental_uris": {"ios": "https://dc.lft.to/lastmile_qr_scan", "android": "https://dc.lft.to/lastmile_qr_scan"}, "type": "electric_scooter", "lat": 38.899616333333334, "is_disabled": 0, "lon": -77.016768, "is_reserved": 0}, {"name": "33a876ad9df959c583826bce14c31e25", "fusion_lat": 0.0, "fusion_lon": 0.0, "bike_id": "33a876ad9df959c583826bce14c31e25", "rental_uris": {"ios": "https://dc.lft.to/lastmile_qr_scan", "android": "https://dc.lft.to/lastmile_qr_scan"}, "type": "electric_scooter", "lat": 38.9171, "is_disabled": 0, "lon": -77.02717383333334, "is_reserved": 0}, {"name": "e8fec4936323f9312b60cf0e6f3caa3c", "fusion_lat": 0.0, "fusion_lon": 0.0, "bike_id": "e8fec4936323f9312b60cf0e6f3caa3c", "rental_uris": {"ios": "https://dc.lft.to/lastmile_qr_scan", "android": "https://dc.lft.to/lastmile_qr_scan"}, "type": "electric_bike", "lat": 38.88202966666667, "is_disabled": 0, "lon": -77.1148965, "is_reserved": 0}, {"name": "47f4cd17045886c19ba2231df8cf453a", "fusion_lat": 0.0, "fusion_lon": 0.0, "bike_id": "47f4cd17045886c19ba2231df8cf453a", "rental_uris": {"ios": "https://dc.lft.to/lastmile_qr_scan", "android": "https://dc.lft.to/lastmile_qr_scan"}, "type": "electric_scooter", "lat": 38.899940666666666, "is_disabled": 0, "lon": -77.015061, "is_reserved": 0}, {"name": "4ed5204edc2d957868a67109396ec0ad", "fusion_lat": 0.0, "fusion_lon": 0.0, "bike_id": "4ed5204edc2d957868a67109396ec0ad", "rental_uris": {"ios": "https://dc.lft.to/lastmile_qr_scan", "android": "https://dc.lft.to/lastmile_qr_scan"}, "type": "electric_scooter", "lat": 38.90811983333333, "is_disabled": 0, "lon": -77.0339725, "is_reserved": 0}, {"name": "976942059a0810e34df1fbdd275cff81", "fusion_lat": 0.0, "fusion_lon": 0.0, "bike_id": "976942059a0810e34df1fbdd275cff81", "rental_uris": {"ios": "https://dc.lft.to/lastmile_qr_scan", "android": "https://dc.lft.to/lastmile_qr_scan"}, "type": "electric_scooter", "lat": 38.9012805, "is_disabled": 0, "lon": -77.039943, "is_reserved": 0}, {"name": "745a918e54aa89a9b2e09e059ec2e44c", "fusion_lat": 0.0, "fusion_lon": 0.0, "bike_id": "745a918e54aa89a9b2e09e059ec2e44c", "rental_uris": {"ios": "https://dc.lft.to/lastmile_qr_scan", "android": "https://dc.lft.to/lastmile_qr_scan"}, "type": "electric_scooter", "lat": 38.89358, "is_disabled": 0, "lon": -76.9846875, "is_reserved": 0}, {"name": "e75f475072845ec36d90ca0497b88fe5", "fusion_lat": 0.0, "fusion_lon": 0.0, "bike_id": "e75f475072845ec36d90ca0497b88fe5", "rental_uris": {"ios": "https://dc.lft.to/lastmile_qr_scan", "android": "https://dc.lft.to/lastmile_qr_scan"}, "type": "electric_scooter", "lat": 38.9233055, "is_disabled": 0, "lon": -76.999056, "is_reserved": 0}, {"name": "a71ef9aa1f009cee1d6be3b8465d4cb8", "fusion_lat": 0.0, "fusion_lon": 0.0, "bike_id": "a71ef9aa1f009cee1d6be3b8465d4cb8", "rental_uris": {"ios": "https://dc.lft.to/lastmile_qr_scan", "android": "https://dc.lft.to/lastmile_qr_scan"}, "type": "electric_scooter", "lat": 38.863560166666666, "is_disabled": 0, "lon": -76.99055733333333, "is_reserved": 0}, {"name": "fc5e854f63e9d866eac0169932af3e49", "fusion_lat": 0.0, "fusion_lon": 0.0, "bike_id": "fc5e854f63e9d866eac0169932af3e49", "rental_uris": {"ios": "https://dc.lft.to/lastmile_qr_scan", "android": "https://dc.lft.to/lastmile_qr_scan"}, "type": "electric_scooter", "lat": 38.91532466666666, "is_disabled": 0, "lon": -77.02201266666667, "is_reserved": 0}, {"name": "78aab8963a86813c983773f06d2bd554", "fusion_lat": 0.0, "fusion_lon": 0.0, "bike_id": "78aab8963a86813c983773f06d2bd554", "rental_uris": {"ios": "https://dc.lft.to/lastmile_qr_scan", "android": "https://dc.lft.to/lastmile_qr_scan"}, "type": "electric_scooter", "lat": 38.8462105, "is_disabled": 0, "lon": -76.99629866666666, "is_reserved": 0}, {"name": "d8d072f73699044d18962ad916320634", "fusion_lat": 0.0, "fusion_lon": 0.0, "bike_id": "d8d072f73699044d18962ad916320634", "rental_uris": {"ios": "https://dc.lft.to/lastmile_qr_scan", "android": "https://dc.lft.to/lastmile_qr_scan"}, "type": "electric_scooter", "lat": 38.9014435, "is_disabled": 0, "lon": -77.04158116666666, "is_reserved": 0}, {"name": "a7fd2c39f19e07dfcab425eeca590575", "fusion_lat": 0.0, "fusion_lon": 0.0, "bike_id": "a7fd2c39f19e07dfcab425eeca590575", "rental_uris": {"ios": "https://dc.lft.to/lastmile_qr_scan", "android": "https://dc.lft.to/lastmile_qr_scan"}, "type": "electric_scooter", "lat": 38.89834616666667, "is_disabled": 0, "lon": -77.0311905, "is_reserved": 0}, {"name": "6257c79c05f8ca20e2a5fd5349160b73", "fusion_lat": 0.0, "fusion_lon": 0.0, "bike_id": "6257c79c05f8ca20e2a5fd5349160b73", "rental_uris": {"ios": "https://dc.lft.to/lastmile_qr_scan", "android": "https://dc.lft.to/lastmile_qr_scan"}, "type": "electric_scooter", "lat": 38.89945, "is_disabled": 0, "lon": -77.00351116666667, "is_reserved": 0}, {"name": "7e4e13725cf4924671f7b7dff3fc734a", "fusion_lat": 0.0, "fusion_lon": 0.0, "bike_id": "7e4e13725cf4924671f7b7dff3fc734a", "rental_uris": {"ios": "https://dc.lft.to/lastmile_qr_scan", "android": "https://dc.lft.to/lastmile_qr_scan"}, "type": "electric_scooter", "lat": 38.94515333333333, "is_disabled": 0, "lon": -77.02989166666667, "is_reserved": 0}, {"name": "9754bf73d97ac24465d72606c05754de", "fusion_lat": 0.0, "fusion_lon": 0.0, "bike_id": "9754bf73d97ac24465d72606c05754de", "rental_uris": {"ios": "https://dc.lft.to/lastmile_qr_scan", "android": "https://dc.lft.to/lastmile_qr_scan"}, "type": "electric_bike", "lat": 38.830943, "is_disabled": 0, "lon": -77.04296183333334, "is_reserved": 0}, {"name": "2d39e06e5882d051a0e0e219836e8c59", "fusion_lat": 0.0, "fusion_lon": 0.0, "bike_id": "2d39e06e5882d051a0e0e219836e8c59", "rental_uris": {"ios": "https://dc.lft.to/lastmile_qr_scan", "android": "https://dc.lft.to/lastmile_qr_scan"}, "type": "electric_scooter", "lat": 38.90520383333333, "is_disabled": 0, "lon": -77.06082683333334, "is_reserved": 0}, {"name": "e6c44b35920ff7e8e5a763d347031893", "fusion_lat": 0.0, "fusion_lon": 0.0, "bike_id": "e6c44b35920ff7e8e5a763d347031893", "rental_uris": {"ios": "https://dc.lft.to/lastmile_qr_scan", "android": "https://dc.lft.to/lastmile_qr_scan"}, "type": "electric_scooter", "lat": 38.920738666666665, "is_disabled": 0, "lon": -77.02394066666666, "is_reserved": 0}, {"name": "a8463c127ac8bcbebcd20f54de301c44", "fusion_lat": 0.0, "fusion_lon": 0.0, "bike_id": "a8463c127ac8bcbebcd20f54de301c44", "rental_uris": {"ios": "https://dc.lft.to/lastmile_qr_scan", "android": "https://dc.lft.to/lastmile_qr_scan"}, "type": "electric_bike", "lat": 38.9704535, "is_disabled": 0, "lon": -76.96083133333333, "is_reserved": 0}, {"name": "d6f322fd9ea00f065ef7e475c8ab32fd", "fusion_lat": 0.0, "fusion_lon": 0.0, "bike_id": "d6f322fd9ea00f065ef7e475c8ab32fd", "rental_uris": {"ios": "https://dc.lft.to/lastmile_qr_scan", "android": "https://dc.lft.to/lastmile_qr_scan"}, "type": "electric_bike", "lat": 38.8871765, "is_disabled": 0, "lon": -77.13317733333334, "is_reserved": 0}, {"name": "04335d0941528e46e290d00f6d2903ec", "fusion_lat": 0.0, "fusion_lon": 0.0, "bike_id": "04335d0941528e46e290d00f6d2903ec", "rental_uris": {"ios": "https://dc.lft.to/lastmile_qr_scan", "android": "https://dc.lft.to/lastmile_qr_scan"}, "type": "electric_scooter", "lat": 38.91019, "is_disabled": 0, "lon": -77.03651133333334, "is_reserved": 0}, {"name": "7928785cf63e5f82a36865bb677a8798", "fusion_lat": 0.0, "fusion_lon": 0.0, "bike_id": "7928785cf63e5f82a36865bb677a8798", "rental_uris": {"ios": "https://dc.lft.to/lastmile_qr_scan", "android": "https://dc.lft.to/lastmile_qr_scan"}, "type": "electric_scooter", "lat": 38.91206233333333, "is_disabled": 0, "lon": -76.9849195, "is_reserved": 0}, {"name": "6351462762141f4a4db4537e7c4391d3", "fusion_lat": 0.0, "fusion_lon": 0.0, "bike_id": "6351462762141f4a4db4537e7c4391d3", "rental_uris": {"ios": "https://dc.lft.to/lastmile_qr_scan", "android": "https://dc.lft.to/lastmile_qr_scan"}, "type": "electric_scooter", "lat": 38.90476816666666, "is_disabled": 0, "lon": -77.04024083333333, "is_reserved": 0}, {"name": "2956e7c0da6bba083a91f264c4f59323", "fusion_lat": 0.0, "fusion_lon": 0.0, "bike_id": "2956e7c0da6bba083a91f264c4f59323", "rental_uris": {"ios": "https://dc.lft.to/lastmile_qr_scan", "android": "https://dc.lft.to/lastmile_qr_scan"}, "type": "electric_scooter", "lat": 38.89182983333333, "is_disabled": 0, "lon": -77.031731, "is_reserved": 0}, {"name": "4c5fc81bccb43a852be28b24cf318f04", "fusion_lat": 0.0, "fusion_lon": 0.0, "bike_id": "4c5fc81bccb43a852be28b24cf318f04", "rental_uris": {"ios": "https://dc.lft.to/lastmile_qr_scan", "android": "https://dc.lft.to/lastmile_qr_scan"}, "type": "electric_scooter", "lat": 38.907288, "is_disabled": 0, "lon": -77.02367166666667, "is_reserved": 0}, {"name": "e7bd39484895fab2cddf784b592b8ce7", "fusion_lat": 0.0, "fusion_lon": 0.0, "bike_id": "e7bd39484895fab2cddf784b592b8ce7", "rental_uris": {"ios": "https://dc.lft.to/lastmile_qr_scan", "android": "https://dc.lft.to/lastmile_qr_scan"}, "type": "electric_scooter", "lat": 38.901346333333336, "is_disabled": 0, "lon": -77.03948183333334, "is_reserved": 0}, {"name": "e623c912f89b0d6fc1793d838fed80a1", "fusion_lat": 0.0, "fusion_lon": 0.0, "bike_id": "e623c912f89b0d6fc1793d838fed80a1", "rental_uris": {"ios": "https://dc.lft.to/lastmile_qr_scan", "android": "https://dc.lft.to/lastmile_qr_scan"}, "type": "electric_scooter", "lat": 38.9216645, "is_disabled": 0, "lon": -77.043431, "is_reserved": 0}, {"name": "86fe559873e9e88b4e8c8369b9805d9e", "fusion_lat": 0.0, "fusion_lon": 0.0, "bike_id": "86fe559873e9e88b4e8c8369b9805d9e", "rental_uris": {"ios": "https://dc.lft.to/lastmile_qr_scan", "android": "https://dc.lft.to/lastmile_qr_scan"}, "type": "electric_scooter", "lat": 38.886809, "is_disabled": 0, "lon": -77.00097483333333, "is_reserved": 0}, {"name": "3e8a0cae71fba29555441b11a99df283", "fusion_lat": 0.0, "fusion_lon": 0.0, "bike_id": "3e8a0cae71fba29555441b11a99df283", "rental_uris": {"ios": "https://dc.lft.to/lastmile_qr_scan", "android": "https://dc.lft.to/lastmile_qr_scan"}, "type": "electric_scooter", "lat": 38.90572, "is_disabled": 0, "lon": -77.00780766666666, "is_reserved": 0}, {"name": "28cc1d3cd3c281eec368505da88d7916", "fusion_lat": 0.0, "fusion_lon": 0.0, "bike_id": "28cc1d3cd3c281eec368505da88d7916", "rental_uris": {"ios": "https://dc.lft.to/lastmile_qr_scan", "android": "https://dc.lft.to/lastmile_qr_scan"}, "type": "electric_scooter", "lat": 38.9183375, "is_disabled": 0, "lon": -76.96551716666667, "is_reserved": 0}, {"name": "5b60387a97828e6bd9c6693f90a129b0", "fusion_lat": 0.0, "fusion_lon": 0.0, "bike_id": "5b60387a97828e6bd9c6693f90a129b0", "rental_uris": {"ios": "https://dc.lft.to/lastmile_qr_scan", "android": "https://dc.lft.to/lastmile_qr_scan"}, "type": "electric_scooter", "lat": 38.90018516666667, "is_disabled": 0, "lon": -76.995967, "is_reserved": 0}, {"name": "4834fec57833022490d722740858c8b6", "fusion_lat": 0.0, "fusion_lon": 0.0, "bike_id": "4834fec57833022490d722740858c8b6", "rental_uris": {"ios": "https://dc.lft.to/lastmile_qr_scan", "android": "https://dc.lft.to/lastmile_qr_scan"}, "type": "electric_scooter", "lat": 38.91911116666667, "is_disabled": 0, "lon": -77.04243483333333, "is_reserved": 0}, {"name": "4d1e062949df0535d7cb4b004b3c7405", "fusion_lat": 0.0, "fusion_lon": 0.0, "bike_id": "4d1e062949df0535d7cb4b004b3c7405", "rental_uris": {"ios": "https://dc.lft.to/lastmile_qr_scan", "android": "https://dc.lft.to/lastmile_qr_scan"}, "type": "electric_scooter", "lat": 38.9118285, "is_disabled": 0, "lon": -77.03947816666667, "is_reserved": 0}, {"name": "bac8d81959d28d6f3acc0f4e182813e8", "fusion_lat": 0.0, "fusion_lon": 0.0, "bike_id": "bac8d81959d28d6f3acc0f4e182813e8", "rental_uris": {"ios": "https://dc.lft.to/lastmile_qr_scan", "android": "https://dc.lft.to/lastmile_qr_scan"}, "type": "electric_scooter", "lat": 38.897481666666664, "is_disabled": 0, "lon": -77.033355, "is_reserved": 0}, {"name": "ed911fd5600eb2fc6bf4e50df5947080", "fusion_lat": 0.0, "fusion_lon": 0.0, "bike_id": "ed911fd5600eb2fc6bf4e50df5947080", "rental_uris": {"ios": "https://dc.lft.to/lastmile_qr_scan", "android": "https://dc.lft.to/lastmile_qr_scan"}, "type": "electric_scooter", "lat": 38.88485766666667, "is_disabled": 0, "lon": -77.01523266666666, "is_reserved": 0}, {"name": "2b4780e216106ca985865ae788da28de", "fusion_lat": 0.0, "fusion_lon": 0.0, "bike_id": "2b4780e216106ca985865ae788da28de", "rental_uris": {"ios": "https://dc.lft.to/lastmile_qr_scan", "android": "https://dc.lft.to/lastmile_qr_scan"}, "type": "electric_scooter", "lat": 38.905089333333336, "is_disabled": 0, "lon": -77.05788733333333, "is_reserved": 0}, {"name": "bd5b03cdde512f297fdf65efad7dd9f6", "fusion_lat": 0.0, "fusion_lon": 0.0, "bike_id": "bd5b03cdde512f297fdf65efad7dd9f6", "rental_uris": {"ios": "https://dc.lft.to/lastmile_qr_scan", "android": "https://dc.lft.to/lastmile_qr_scan"}, "type": "electric_scooter", "lat": 38.90559716666667, "is_disabled": 0, "lon": -77.04353766666667, "is_reserved": 0}, {"name": "1abf34e6a76fe4ddacd1d29c8ffe43a0", "fusion_lat": 0.0, "fusion_lon": 0.0, "bike_id": "1abf34e6a76fe4ddacd1d29c8ffe43a0", "rental_uris": {"ios": "https://dc.lft.to/lastmile_qr_scan", "android": "https://dc.lft.to/lastmile_qr_scan"}, "type": "electric_scooter", "lat": 38.911163, "is_disabled": 0, "lon": -77.04464316666666, "is_reserved": 0}, {"name": "5c93f997126604b0214381716d496c5c", "fusion_lat": 0.0, "fusion_lon": 0.0, "bike_id": "5c93f997126604b0214381716d496c5c", "rental_uris": {"ios": "https://dc.lft.to/lastmile_qr_scan", "android": "https://dc.lft.to/lastmile_qr_scan"}, "type": "electric_scooter", "lat": 38.8971915, "is_disabled": 0, "lon": -77.0481445, "is_reserved": 0}, {"name": "ffdb93766ca6cdeabaa8df6831939124", "fusion_lat": 0.0, "fusion_lon": 0.0, "bike_id": "ffdb93766ca6cdeabaa8df6831939124", "rental_uris": {"ios": "https://dc.lft.to/lastmile_qr_scan", "android": "https://dc.lft.to/lastmile_qr_scan"}, "type": "electric_scooter", "lat": 38.90126133333333, "is_disabled": 0, "lon": -77.03247116666667, "is_reserved": 0}, {"name": "e949da6b46ae5f50be6c2e55f7406435", "fusion_lat": 0.0, "fusion_lon": 0.0, "bike_id": "e949da6b46ae5f50be6c2e55f7406435", "rental_uris": {"ios": "https://dc.lft.to/lastmile_qr_scan", "android": "https://dc.lft.to/lastmile_qr_scan"}, "type": "electric_scooter", "lat": 38.916859333333335, "is_disabled": 0, "lon": -77.03163233333333, "is_reserved": 0}, {"name": "d3eab9fc912f826a24939a4ee3698641", "fusion_lat": 0.0, "fusion_lon": 0.0, "bike_id": "d3eab9fc912f826a24939a4ee3698641", "rental_uris": {"ios": "https://dc.lft.to/lastmile_qr_scan", "android": "https://dc.lft.to/lastmile_qr_scan"}, "type": "electric_scooter", "lat": 38.905764833333336, "is_disabled": 0, "lon": -77.0218385, "is_reserved": 0}, {"name": "3bdb6b989a2c2da7055c0e47abc9fe07", "fusion_lat": 0.0, "fusion_lon": 0.0, "bike_id": "3bdb6b989a2c2da7055c0e47abc9fe07", "rental_uris": {"ios": "https://dc.lft.to/lastmile_qr_scan", "android": "https://dc.lft.to/lastmile_qr_scan"}, "type": "electric_scooter", "lat": 38.89733116666667, "is_disabled": 0, "lon": -77.013172, "is_reserved": 0}, {"name": "0db6edd615dadaeecc9fafacd3632ad2", "fusion_lat": 0.0, "fusion_lon": 0.0, "bike_id": "0db6edd615dadaeecc9fafacd3632ad2", "rental_uris": {"ios": "https://dc.lft.to/lastmile_qr_scan", "android": "https://dc.lft.to/lastmile_qr_scan"}, "type": "electric_scooter", "lat": 38.922327333333335, "is_disabled": 0, "lon": -76.97534483333334, "is_reserved": 0}, {"name": "98497544c2138d422c12af419b0e60fd", "fusion_lat": 0.0, "fusion_lon": 0.0, "bike_id": "98497544c2138d422c12af419b0e60fd", "rental_uris": {"ios": "https://dc.lft.to/lastmile_qr_scan", "android": "https://dc.lft.to/lastmile_qr_scan"}, "type": "electric_scooter", "lat": 38.903592333333336, "is_disabled": 0, "lon": -77.011157, "is_reserved": 0}, {"name": "3056fed3b13a59c92f116e6d9d13abfb", "fusion_lat": 0.0, "fusion_lon": 0.0, "bike_id": "3056fed3b13a59c92f116e6d9d13abfb", "rental_uris": {"ios": "https://dc.lft.to/lastmile_qr_scan", "android": "https://dc.lft.to/lastmile_qr_scan"}, "type": "electric_scooter", "lat": 38.9124725, "is_disabled": 0, "lon": -77.02429833333333, "is_reserved": 0}, {"name": "d136fbe69b774faadb79e64a38b17d19", "fusion_lat": 0.0, "fusion_lon": 0.0, "bike_id": "d136fbe69b774faadb79e64a38b17d19", "rental_uris": {"ios": "https://dc.lft.to/lastmile_qr_scan", "android": "https://dc.lft.to/lastmile_qr_scan"}, "type": "electric_scooter", "lat": 38.91215366666667, "is_disabled": 0, "lon": -77.02717816666667, "is_reserved": 0}, {"name": "96a8168faa28dce8736eed485db7123e", "fusion_lat": 0.0, "fusion_lon": 0.0, "bike_id": "96a8168faa28dce8736eed485db7123e", "rental_uris": {"ios": "https://dc.lft.to/lastmile_qr_scan", "android": "https://dc.lft.to/lastmile_qr_scan"}, "type": "electric_bike", "lat": 38.99665133333333, "is_disabled": 0, "lon": -76.99145666666666, "is_reserved": 0}, {"name": "0c1970e4132d0ce1f4d025c87084ef81", "fusion_lat": 0.0, "fusion_lon": 0.0, "bike_id": "0c1970e4132d0ce1f4d025c87084ef81", "rental_uris": {"ios": "https://dc.lft.to/lastmile_qr_scan", "android": "https://dc.lft.to/lastmile_qr_scan"}, "type": "electric_scooter", "lat": 38.910982833333335, "is_disabled": 0, "lon": -77.03186216666667, "is_reserved": 0}, {"name": "7c6d65a907c92e89e7589f32beea0367", "fusion_lat": 0.0, "fusion_lon": 0.0, "bike_id": "7c6d65a907c92e89e7589f32beea0367", "rental_uris": {"ios": "https://dc.lft.to/lastmile_qr_scan", "android": "https://dc.lft.to/lastmile_qr_scan"}, "type": "electric_scooter", "lat": 38.87584233333333, "is_disabled": 0, "lon": -77.0209205, "is_reserved": 0}, {"name": "a1d0c89392e6c2891ae13bad2f8171d4", "fusion_lat": 0.0, "fusion_lon": 0.0, "bike_id": "a1d0c89392e6c2891ae13bad2f8171d4", "rental_uris": {"ios": "https://dc.lft.to/lastmile_qr_scan", "android": "https://dc.lft.to/lastmile_qr_scan"}, "type": "electric_scooter", "lat": 38.900276, "is_disabled": 0, "lon": -76.99862583333334, "is_reserved": 0}, {"name": "c4d24ddad860987bc0875863a90f9a37", "fusion_lat": 0.0, "fusion_lon": 0.0, "bike_id": "c4d24ddad860987bc0875863a90f9a37", "rental_uris": {"ios": "https://dc.lft.to/lastmile_qr_scan", "android": "https://dc.lft.to/lastmile_qr_scan"}, "type": "electric_scooter", "lat": 38.903855, "is_disabled": 0, "lon": -77.04874, "is_reserved": 0}, {"name": "7106453cbbd37770a21f6caca226c5ad", "fusion_lat": 0.0, "fusion_lon": 0.0, "bike_id": "7106453cbbd37770a21f6caca226c5ad", "rental_uris": {"ios": "https://dc.lft.to/lastmile_qr_scan", "android": "https://dc.lft.to/lastmile_qr_scan"}, "type": "electric_scooter", "lat": 38.916390166666666, "is_disabled": 0, "lon": -77.04784533333333, "is_reserved": 0}, {"name": "cc692f62d28f9853ebd0301ba9ad21f6", "fusion_lat": 0.0, "fusion_lon": 0.0, "bike_id": "cc692f62d28f9853ebd0301ba9ad21f6", "rental_uris": {"ios": "https://dc.lft.to/lastmile_qr_scan", "android": "https://dc.lft.to/lastmile_qr_scan"}, "type": "electric_scooter", "lat": 38.9051245, "is_disabled": 0, "lon": -77.05010133333333, "is_reserved": 0}, {"name": "d5cd94f39ce957730c8a3edddbd27995", "fusion_lat": 0.0, "fusion_lon": 0.0, "bike_id": "d5cd94f39ce957730c8a3edddbd27995", "rental_uris": {"ios": "https://dc.lft.to/lastmile_qr_scan", "android": "https://dc.lft.to/lastmile_qr_scan"}, "type": "electric_scooter", "lat": 38.89000983333333, "is_disabled": 0, "lon": -77.049081, "is_reserved": 0}, {"name": "ebcceb0df8bc3418d3c27a4a12e79a36", "fusion_lat": 0.0, "fusion_lon": 0.0, "bike_id": "ebcceb0df8bc3418d3c27a4a12e79a36", "rental_uris": {"ios": "https://dc.lft.to/lastmile_qr_scan", "android": "https://dc.lft.to/lastmile_qr_scan"}, "type": "electric_scooter", "lat": 38.924764, "is_disabled": 0, "lon": -77.05210816666667, "is_reserved": 0}, {"name": "e512079d605b4bcbed27bac07499cd4c", "fusion_lat": 0.0, "fusion_lon": 0.0, "bike_id": "e512079d605b4bcbed27bac07499cd4c", "rental_uris": {"ios": "https://dc.lft.to/lastmile_qr_scan", "android": "https://dc.lft.to/lastmile_qr_scan"}, "type": "electric_scooter", "lat": 38.900317333333334, "is_disabled": 0, "lon": -77.00746033333333, "is_reserved": 0}, {"name": "c717778c99ae063ec505720bbabf9176", "fusion_lat": 0.0, "fusion_lon": 0.0, "bike_id": "c717778c99ae063ec505720bbabf9176", "rental_uris": {"ios": "https://dc.lft.to/lastmile_qr_scan", "android": "https://dc.lft.to/lastmile_qr_scan"}, "type": "electric_scooter", "lat": 38.88482366666667, "is_disabled": 0, "lon": -76.92952716666667, "is_reserved": 0}, {"name": "4265f03146e43d2e1e7df34be3331527", "fusion_lat": 0.0, "fusion_lon": 0.0, "bike_id": "4265f03146e43d2e1e7df34be3331527", "rental_uris": {"ios": "https://dc.lft.to/lastmile_qr_scan", "android": "https://dc.lft.to/lastmile_qr_scan"}, "type": "electric_scooter", "lat": 38.90762183333333, "is_disabled": 0, "lon": -77.03832083333333, "is_reserved": 0}, {"name": "150c955622d3ac0f56d5858c5689b0d4", "fusion_lat": 0.0, "fusion_lon": 0.0, "bike_id": "150c955622d3ac0f56d5858c5689b0d4", "rental_uris": {"ios": "https://dc.lft.to/lastmile_qr_scan", "android": "https://dc.lft.to/lastmile_qr_scan"}, "type": "electric_scooter", "lat": 38.93401383333333, "is_disabled": 0, "lon": -77.0412015, "is_reserved": 0}, {"name": "54ecbdbf9020249e3efd75acbe77a672", "fusion_lat": 0.0, "fusion_lon": 0.0, "bike_id": "54ecbdbf9020249e3efd75acbe77a672", "rental_uris": {"ios": "https://dc.lft.to/lastmile_qr_scan", "android": "https://dc.lft.to/lastmile_qr_scan"}, "type": "electric_scooter", "lat": 38.899396333333335, "is_disabled": 0, "lon": -77.0547205, "is_reserved": 0}, {"name": "004317a5e015f2394cb403d868bac86c", "fusion_lat": 0.0, "fusion_lon": 0.0, "bike_id": "004317a5e015f2394cb403d868bac86c", "rental_uris": {"ios": "https://dc.lft.to/lastmile_qr_scan", "android": "https://dc.lft.to/lastmile_qr_scan"}, "type": "electric_scooter", "lat": 38.914065, "is_disabled": 0, "lon": -77.032255, "is_reserved": 0}, {"name": "b65651e19151aba9aa49b7cf8bf11a61", "fusion_lat": 0.0, "fusion_lon": 0.0, "bike_id": "b65651e19151aba9aa49b7cf8bf11a61", "rental_uris": {"ios": "https://dc.lft.to/lastmile_qr_scan", "android": "https://dc.lft.to/lastmile_qr_scan"}, "type": "electric_scooter", "lat": 38.898353166666666, "is_disabled": 0, "lon": -76.9463315, "is_reserved": 0}, {"name": "97c912b51280342edd54675312c8df5a", "fusion_lat": 0.0, "fusion_lon": 0.0, "bike_id": "97c912b51280342edd54675312c8df5a", "rental_uris": {"ios": "https://dc.lft.to/lastmile_qr_scan", "android": "https://dc.lft.to/lastmile_qr_scan"}, "type": "electric_scooter", "lat": 38.89538966666667, "is_disabled": 0, "lon": -77.04128533333333, "is_reserved": 0}, {"name": "e2c2cfe10508cd39e1a9521322a83934", "fusion_lat": 0.0, "fusion_lon": 0.0, "bike_id": "e2c2cfe10508cd39e1a9521322a83934", "rental_uris": {"ios": "https://dc.lft.to/lastmile_qr_scan", "android": "https://dc.lft.to/lastmile_qr_scan"}, "type": "electric_scooter", "lat": 38.9055525, "is_disabled": 0, "lon": -77.00537833333334, "is_reserved": 0}, {"name": "a83a01a2cced8815f1481d4c77cb65a1", "fusion_lat": 0.0, "fusion_lon": 0.0, "bike_id": "a83a01a2cced8815f1481d4c77cb65a1", "rental_uris": {"ios": "https://dc.lft.to/lastmile_qr_scan", "android": "https://dc.lft.to/lastmile_qr_scan"}, "type": "electric_scooter", "lat": 38.907170666666666, "is_disabled": 0, "lon": -77.045407, "is_reserved": 0}, {"name": "a5aabf278dc3e5d6a1bd147dd53edc03", "fusion_lat": 0.0, "fusion_lon": 0.0, "bike_id": "a5aabf278dc3e5d6a1bd147dd53edc03", "rental_uris": {"ios": "https://dc.lft.to/lastmile_qr_scan", "android": "https://dc.lft.to/lastmile_qr_scan"}, "type": "electric_bike", "lat": 38.85213616666667, "is_disabled": 0, "lon": -77.12759083333333, "is_reserved": 0}, {"name": "17799fd804ed7fbf78f2bb76b8e27e0a", "fusion_lat": 0.0, "fusion_lon": 0.0, "bike_id": "17799fd804ed7fbf78f2bb76b8e27e0a", "rental_uris": {"ios": "https://dc.lft.to/lastmile_qr_scan", "android": "https://dc.lft.to/lastmile_qr_scan"}, "type": "electric_scooter", "lat": 38.89749716666667, "is_disabled": 0, "lon": -77.047244, "is_reserved": 0}, {"name": "da5693867a7da6697fe01e2b9f66dbf3", "fusion_lat": 0.0, "fusion_lon": 0.0, "bike_id": "da5693867a7da6697fe01e2b9f66dbf3", "rental_uris": {"ios": "https://dc.lft.to/lastmile_qr_scan", "android": "https://dc.lft.to/lastmile_qr_scan"}, "type": "electric_scooter", "lat": 38.917544166666666, "is_disabled": 0, "lon": -77.0321875, "is_reserved": 0}, {"name": "8c635f79e4d05fa25f56f8ff811bbff9", "fusion_lat": 0.0, "fusion_lon": 0.0, "bike_id": "8c635f79e4d05fa25f56f8ff811bbff9", "rental_uris": {"ios": "https://dc.lft.to/lastmile_qr_scan", "android": "https://dc.lft.to/lastmile_qr_scan"}, "type": "electric_scooter", "lat": 38.915408166666666, "is_disabled": 0, "lon": -77.02208416666667, "is_reserved": 0}, {"name": "ac1a93e06132f49dc7ac9fa33eb92dbd", "fusion_lat": 0.0, "fusion_lon": 0.0, "bike_id": "ac1a93e06132f49dc7ac9fa33eb92dbd", "rental_uris": {"ios": "https://dc.lft.to/lastmile_qr_scan", "android": "https://dc.lft.to/lastmile_qr_scan"}, "type": "electric_scooter", "lat": 38.9118975, "is_disabled": 0, "lon": -77.037361, "is_reserved": 0}, {"name": "5b063be16059cfa7401f2414bc0f88ac", "fusion_lat": 0.0, "fusion_lon": 0.0, "bike_id": "5b063be16059cfa7401f2414bc0f88ac", "rental_uris": {"ios": "https://dc.lft.to/lastmile_qr_scan", "android": "https://dc.lft.to/lastmile_qr_scan"}, "type": "electric_scooter", "lat": 38.9180905, "is_disabled": 0, "lon": -77.03568483333333, "is_reserved": 0}, {"name": "82083f5e3a1aeb19093099a6320530be", "fusion_lat": 0.0, "fusion_lon": 0.0, "bike_id": "82083f5e3a1aeb19093099a6320530be", "rental_uris": {"ios": "https://dc.lft.to/lastmile_qr_scan", "android": "https://dc.lft.to/lastmile_qr_scan"}, "type": "electric_scooter", "lat": 38.92200583333333, "is_disabled": 0, "lon": -77.01841916666666, "is_reserved": 0}, {"name": "56e76617c90293509da0d6a241a803aa", "fusion_lat": 0.0, "fusion_lon": 0.0, "bike_id": "56e76617c90293509da0d6a241a803aa", "rental_uris": {"ios": "https://dc.lft.to/lastmile_qr_scan", "android": "https://dc.lft.to/lastmile_qr_scan"}, "type": "electric_scooter", "lat": 38.88218466666667, "is_disabled": 0, "lon": -76.99083666666667, "is_reserved": 0}, {"name": "2695a9a1ea608e43aad1ff5ed1b657ee", "fusion_lat": 0.0, "fusion_lon": 0.0, "bike_id": "2695a9a1ea608e43aad1ff5ed1b657ee", "rental_uris": {"ios": "https://dc.lft.to/lastmile_qr_scan", "android": "https://dc.lft.to/lastmile_qr_scan"}, "type": "electric_scooter", "lat": 38.898587166666665, "is_disabled": 0, "lon": -77.0258935, "is_reserved": 0}, {"name": "43c98fc64b6cc267843dc5d402ca78f2", "fusion_lat": 0.0, "fusion_lon": 0.0, "bike_id": "43c98fc64b6cc267843dc5d402ca78f2", "rental_uris": {"ios": "https://dc.lft.to/lastmile_qr_scan", "android": "https://dc.lft.to/lastmile_qr_scan"}, "type": "electric_scooter", "lat": 38.8837045, "is_disabled": 0, "lon": -76.99516266666667, "is_reserved": 0}, {"name": "830fb18c7d33caf16756a603c7fde1cd", "fusion_lat": 0.0, "fusion_lon": 0.0, "bike_id": "830fb18c7d33caf16756a603c7fde1cd", "rental_uris": {"ios": "https://dc.lft.to/lastmile_qr_scan", "android": "https://dc.lft.to/lastmile_qr_scan"}, "type": "electric_scooter", "lat": 38.90803533333333, "is_disabled": 0, "lon": -77.03684566666666, "is_reserved": 0}, {"name": "fccbbf74e3bde90c6a08f86d41c3e375", "fusion_lat": 0.0, "fusion_lon": 0.0, "bike_id": "fccbbf74e3bde90c6a08f86d41c3e375", "rental_uris": {"ios": "https://dc.lft.to/lastmile_qr_scan", "android": "https://dc.lft.to/lastmile_qr_scan"}, "type": "electric_bike", "lat": 38.865948833333334, "is_disabled": 0, "lon": -76.932282, "is_reserved": 0}, {"name": "4f0a5bec957471c2024fc33d0baacf3d", "fusion_lat": 0.0, "fusion_lon": 0.0, "bike_id": "4f0a5bec957471c2024fc33d0baacf3d", "rental_uris": {"ios": "https://dc.lft.to/lastmile_qr_scan", "android": "https://dc.lft.to/lastmile_qr_scan"}, "type": "electric_scooter", "lat": 38.89006533333333, "is_disabled": 0, "lon": -76.93737283333333, "is_reserved": 0}, {"name": "fc3f31b5d64a77a00644033f6f9a4af4", "fusion_lat": 0.0, "fusion_lon": 0.0, "bike_id": "fc3f31b5d64a77a00644033f6f9a4af4", "rental_uris": {"ios": "https://dc.lft.to/lastmile_qr_scan", "android": "https://dc.lft.to/lastmile_qr_scan"}, "type": "electric_scooter", "lat": 38.90116483333333, "is_disabled": 0, "lon": -77.033706, "is_reserved": 0}, {"name": "7caa5ff3849052f7b0adcdeeaa283719", "fusion_lat": 0.0, "fusion_lon": 0.0, "bike_id": "7caa5ff3849052f7b0adcdeeaa283719", "rental_uris": {"ios": "https://dc.lft.to/lastmile_qr_scan", "android": "https://dc.lft.to/lastmile_qr_scan"}, "type": "electric_scooter", "lat": 38.919937, "is_disabled": 0, "lon": -76.983968, "is_reserved": 0}, {"name": "99ee7da763e6a9cfc2580e2d9141015e", "fusion_lat": 0.0, "fusion_lon": 0.0, "bike_id": "99ee7da763e6a9cfc2580e2d9141015e", "rental_uris": {"ios": "https://dc.lft.to/lastmile_qr_scan", "android": "https://dc.lft.to/lastmile_qr_scan"}, "type": "electric_scooter", "lat": 38.91745866666667, "is_disabled": 0, "lon": -77.04161033333334, "is_reserved": 0}, {"name": "c0be8ed68355ef2b10965e163e8cbc24", "fusion_lat": 0.0, "fusion_lon": 0.0, "bike_id": "c0be8ed68355ef2b10965e163e8cbc24", "rental_uris": {"ios": "https://dc.lft.to/lastmile_qr_scan", "android": "https://dc.lft.to/lastmile_qr_scan"}, "type": "electric_scooter", "lat": 38.8973855, "is_disabled": 0, "lon": -77.05133666666667, "is_reserved": 0}, {"name": "dcd426d8c3e9d1d0f50134080d60e99e", "fusion_lat": 0.0, "fusion_lon": 0.0, "bike_id": "dcd426d8c3e9d1d0f50134080d60e99e", "rental_uris": {"ios": "https://dc.lft.to/lastmile_qr_scan", "android": "https://dc.lft.to/lastmile_qr_scan"}, "type": "electric_scooter", "lat": 38.89974266666667, "is_disabled": 0, "lon": -76.994889, "is_reserved": 0}, {"name": "1c17686074407d2a73d49a4324497557", "fusion_lat": 0.0, "fusion_lon": 0.0, "bike_id": "1c17686074407d2a73d49a4324497557", "rental_uris": {"ios": "https://dc.lft.to/lastmile_qr_scan", "android": "https://dc.lft.to/lastmile_qr_scan"}, "type": "electric_scooter", "lat": 38.90145366666667, "is_disabled": 0, "lon": -77.04391783333334, "is_reserved": 0}, {"name": "eea7f04f67a9aa0ba4aad1c4f4e12c8b", "fusion_lat": 0.0, "fusion_lon": 0.0, "bike_id": "eea7f04f67a9aa0ba4aad1c4f4e12c8b", "rental_uris": {"ios": "https://dc.lft.to/lastmile_qr_scan", "android": "https://dc.lft.to/lastmile_qr_scan"}, "type": "electric_bike", "lat": 38.9499745, "is_disabled": 0, "lon": -77.35312116666667, "is_reserved": 0}, {"name": "3fb582a2099dd377605d5c61e2430ccd", "fusion_lat": 0.0, "fusion_lon": 0.0, "bike_id": "3fb582a2099dd377605d5c61e2430ccd", "rental_uris": {"ios": "https://dc.lft.to/lastmile_qr_scan", "android": "https://dc.lft.to/lastmile_qr_scan"}, "type": "electric_scooter", "lat": 38.912199666666666, "is_disabled": 0, "lon": -77.03867116666666, "is_reserved": 0}, {"name": "ff51d4d2b94254e93637069af6ebe688", "fusion_lat": 0.0, "fusion_lon": 0.0, "bike_id": "ff51d4d2b94254e93637069af6ebe688", "rental_uris": {"ios": "https://dc.lft.to/lastmile_qr_scan", "android": "https://dc.lft.to/lastmile_qr_scan"}, "type": "electric_scooter", "lat": 38.89219416666667, "is_disabled": 0, "lon": -77.02597716666666, "is_reserved": 0}, {"name": "134aff171e7eed39987e55a964701d03", "fusion_lat": 0.0, "fusion_lon": 0.0, "bike_id": "134aff171e7eed39987e55a964701d03", "rental_uris": {"ios": "https://dc.lft.to/lastmile_qr_scan", "android": "https://dc.lft.to/lastmile_qr_scan"}, "type": "electric_scooter", "lat": 38.915789, "is_disabled": 0, "lon": -77.046752, "is_reserved": 0}, {"name": "113cdb93ffe622669e4fe75535517ff1", "fusion_lat": 0.0, "fusion_lon": 0.0, "bike_id": "113cdb93ffe622669e4fe75535517ff1", "rental_uris": {"ios": "https://dc.lft.to/lastmile_qr_scan", "android": "https://dc.lft.to/lastmile_qr_scan"}, "type": "electric_scooter", "lat": 38.898648333333334, "is_disabled": 0, "lon": -77.0163355, "is_reserved": 0}, {"name": "f2a393a7e28a31df67f8ccfab6e46bdb", "fusion_lat": 0.0, "fusion_lon": 0.0, "bike_id": "f2a393a7e28a31df67f8ccfab6e46bdb", "rental_uris": {"ios": "https://dc.lft.to/lastmile_qr_scan", "android": "https://dc.lft.to/lastmile_qr_scan"}, "type": "electric_scooter", "lat": 38.924600833333336, "is_disabled": 0, "lon": -76.99738550000001, "is_reserved": 0}, {"name": "0f6ae1eb08f44e887b3558ee2d8e0c4c", "fusion_lat": 0.0, "fusion_lon": 0.0, "bike_id": "0f6ae1eb08f44e887b3558ee2d8e0c4c", "rental_uris": {"ios": "https://dc.lft.to/lastmile_qr_scan", "android": "https://dc.lft.to/lastmile_qr_scan"}, "type": "electric_scooter", "lat": 38.939063, "is_disabled": 0, "lon": -77.02470116666667, "is_reserved": 0}, {"name": "ccb21ea3bdeea3d57ac0ad7b8abc6627", "fusion_lat": 0.0, "fusion_lon": 0.0, "bike_id": "ccb21ea3bdeea3d57ac0ad7b8abc6627", "rental_uris": {"ios": "https://dc.lft.to/lastmile_qr_scan", "android": "https://dc.lft.to/lastmile_qr_scan"}, "type": "electric_scooter", "lat": 38.90562966666667, "is_disabled": 0, "lon": -77.02235066666667, "is_reserved": 0}, {"name": "c60444bf7c84567ca43fcefcb2a3868c", "fusion_lat": 0.0, "fusion_lon": 0.0, "bike_id": "c60444bf7c84567ca43fcefcb2a3868c", "rental_uris": {"ios": "https://dc.lft.to/lastmile_qr_scan", "android": "https://dc.lft.to/lastmile_qr_scan"}, "type": "electric_scooter", "lat": 38.93005816666667, "is_disabled": 0, "lon": -77.07850116666667, "is_reserved": 0}, {"name": "a39328b5bd458f97b768279eea89ded7", "fusion_lat": 0.0, "fusion_lon": 0.0, "bike_id": "a39328b5bd458f97b768279eea89ded7", "rental_uris": {"ios": "https://dc.lft.to/lastmile_qr_scan", "android": "https://dc.lft.to/lastmile_qr_scan"}, "type": "electric_scooter", "lat": 38.899781, "is_disabled": 0, "lon": -76.99257283333333, "is_reserved": 0}, {"name": "267ac07da702216de451e2240e2ff7cd", "fusion_lat": 0.0, "fusion_lon": 0.0, "bike_id": "267ac07da702216de451e2240e2ff7cd", "rental_uris": {"ios": "https://dc.lft.to/lastmile_qr_scan", "android": "https://dc.lft.to/lastmile_qr_scan"}, "type": "electric_scooter", "lat": 38.91407316666667, "is_disabled": 0, "lon": -77.03175133333333, "is_reserved": 0}, {"name": "3916db5caa1a066e2455caadc1c1f74f", "fusion_lat": 0.0, "fusion_lon": 0.0, "bike_id": "3916db5caa1a066e2455caadc1c1f74f", "rental_uris": {"ios": "https://dc.lft.to/lastmile_qr_scan", "android": "https://dc.lft.to/lastmile_qr_scan"}, "type": "electric_scooter", "lat": 38.92019716666667, "is_disabled": 0, "lon": -77.0114155, "is_reserved": 0}, {"name": "bcefe3ea96301000ac498db5cea6b344", "fusion_lat": 0.0, "fusion_lon": 0.0, "bike_id": "bcefe3ea96301000ac498db5cea6b344", "rental_uris": {"ios": "https://dc.lft.to/lastmile_qr_scan", "android": "https://dc.lft.to/lastmile_qr_scan"}, "type": "electric_scooter", "lat": 38.93388433333333, "is_disabled": 0, "lon": -77.03288383333333, "is_reserved": 0}, {"name": "68173ff95343fc64d2399b158ad77779", "fusion_lat": 0.0, "fusion_lon": 0.0, "bike_id": "68173ff95343fc64d2399b158ad77779", "rental_uris": {"ios": "https://dc.lft.to/lastmile_qr_scan", "android": "https://dc.lft.to/lastmile_qr_scan"}, "type": "electric_scooter", "lat": 38.919385, "is_disabled": 0, "lon": -77.01805183333333, "is_reserved": 0}, {"name": "1ca11323c5f9efbaff424108dd11a14b", "fusion_lat": 0.0, "fusion_lon": 0.0, "bike_id": "1ca11323c5f9efbaff424108dd11a14b", "rental_uris": {"ios": "https://dc.lft.to/lastmile_qr_scan", "android": "https://dc.lft.to/lastmile_qr_scan"}, "type": "electric_scooter", "lat": 38.891965666666664, "is_disabled": 0, "lon": -77.03172983333333, "is_reserved": 0}, {"name": "166aabb5981ba05e9011c39cdb5d5385", "fusion_lat": 0.0, "fusion_lon": 0.0, "bike_id": "166aabb5981ba05e9011c39cdb5d5385", "rental_uris": {"ios": "https://dc.lft.to/lastmile_qr_scan", "android": "https://dc.lft.to/lastmile_qr_scan"}, "type": "electric_scooter", "lat": 38.9048045, "is_disabled": 0, "lon": -77.0295805, "is_reserved": 0}, {"name": "b8132aad3f888acb88653caaeecb28c5", "fusion_lat": 0.0, "fusion_lon": 0.0, "bike_id": "b8132aad3f888acb88653caaeecb28c5", "rental_uris": {"ios": "https://dc.lft.to/lastmile_qr_scan", "android": "https://dc.lft.to/lastmile_qr_scan"}, "type": "electric_scooter", "lat": 38.9100495, "is_disabled": 0, "lon": -77.034285, "is_reserved": 0}, {"name": "c535abe603fd2aa7060e6072cb1f7c13", "fusion_lat": 0.0, "fusion_lon": 0.0, "bike_id": "c535abe603fd2aa7060e6072cb1f7c13", "rental_uris": {"ios": "https://dc.lft.to/lastmile_qr_scan", "android": "https://dc.lft.to/lastmile_qr_scan"}, "type": "electric_scooter", "lat": 38.91828683333333, "is_disabled": 0, "lon": -76.965557, "is_reserved": 0}, {"name": "958739a41f5861a9dfde1f0be6f6fa39", "fusion_lat": 0.0, "fusion_lon": 0.0, "bike_id": "958739a41f5861a9dfde1f0be6f6fa39", "rental_uris": {"ios": "https://dc.lft.to/lastmile_qr_scan", "android": "https://dc.lft.to/lastmile_qr_scan"}, "type": "electric_scooter", "lat": 38.863611, "is_disabled": 0, "lon": -76.99068333333334, "is_reserved": 0}, {"name": "78ef7bad8a0f86c4edacb2861d721ba3", "fusion_lat": 0.0, "fusion_lon": 0.0, "bike_id": "78ef7bad8a0f86c4edacb2861d721ba3", "rental_uris": {"ios": "https://dc.lft.to/lastmile_qr_scan", "android": "https://dc.lft.to/lastmile_qr_scan"}, "type": "electric_scooter", "lat": 38.88382283333333, "is_disabled": 0, "lon": -76.99487833333333, "is_reserved": 0}, {"name": "f6a0278841257275d420ecccda2d16b9", "fusion_lat": 0.0, "fusion_lon": 0.0, "bike_id": "f6a0278841257275d420ecccda2d16b9", "rental_uris": {"ios": "https://dc.lft.to/lastmile_qr_scan", "android": "https://dc.lft.to/lastmile_qr_scan"}, "type": "electric_scooter", "lat": 38.88501333333333, "is_disabled": 0, "lon": -77.0089625, "is_reserved": 0}, {"name": "0454687a5cfa3eb4054fd2b59a243b3c", "fusion_lat": 0.0, "fusion_lon": 0.0, "bike_id": "0454687a5cfa3eb4054fd2b59a243b3c", "rental_uris": {"ios": "https://dc.lft.to/lastmile_qr_scan", "android": "https://dc.lft.to/lastmile_qr_scan"}, "type": "electric_scooter", "lat": 38.93544816666667, "is_disabled": 0, "lon": -77.05817566666667, "is_reserved": 0}, {"name": "0ddb02b4f2831c92e89173ccaa845c9b", "fusion_lat": 0.0, "fusion_lon": 0.0, "bike_id": "0ddb02b4f2831c92e89173ccaa845c9b", "rental_uris": {"ios": "https://dc.lft.to/lastmile_qr_scan", "android": "https://dc.lft.to/lastmile_qr_scan"}, "type": "electric_scooter", "lat": 38.9126365, "is_disabled": 0, "lon": -77.04154116666666, "is_reserved": 0}, {"name": "11359666dc53a88d048786c318591294", "fusion_lat": 0.0, "fusion_lon": 0.0, "bike_id": "11359666dc53a88d048786c318591294", "rental_uris": {"ios": "https://dc.lft.to/lastmile_qr_scan", "android": "https://dc.lft.to/lastmile_qr_scan"}, "type": "electric_bike", "lat": 38.904345166666666, "is_disabled": 0, "lon": -77.0073555, "is_reserved": 0}, {"name": "c0c2388b1da96d9e58829074fd3ccff7", "fusion_lat": 0.0, "fusion_lon": 0.0, "bike_id": "c0c2388b1da96d9e58829074fd3ccff7", "rental_uris": {"ios": "https://dc.lft.to/lastmile_qr_scan", "android": "https://dc.lft.to/lastmile_qr_scan"}, "type": "electric_scooter", "lat": 38.900601, "is_disabled": 0, "lon": -77.00202566666667, "is_reserved": 0}, {"name": "f21ebfdbf8be6e23e184b021b7eacc93", "fusion_lat": 0.0, "fusion_lon": 0.0, "bike_id": "f21ebfdbf8be6e23e184b021b7eacc93", "rental_uris": {"ios": "https://dc.lft.to/lastmile_qr_scan", "android": "https://dc.lft.to/lastmile_qr_scan"}, "type": "electric_scooter", "lat": 38.9278635, "is_disabled": 0, "lon": -77.05339016666667, "is_reserved": 0}, {"name": "fe5b2ef10c844a520eed6bbbf263db47", "fusion_lat": 0.0, "fusion_lon": 0.0, "bike_id": "fe5b2ef10c844a520eed6bbbf263db47", "rental_uris": {"ios": "https://dc.lft.to/lastmile_qr_scan", "android": "https://dc.lft.to/lastmile_qr_scan"}, "type": "electric_scooter", "lat": 38.924307, "is_disabled": 0, "lon": -77.044877, "is_reserved": 0}, {"name": "1c6e8a98cd10e5ddbbe1d1843941a10c", "fusion_lat": 0.0, "fusion_lon": 0.0, "bike_id": "1c6e8a98cd10e5ddbbe1d1843941a10c", "rental_uris": {"ios": "https://dc.lft.to/lastmile_qr_scan", "android": "https://dc.lft.to/lastmile_qr_scan"}, "type": "electric_scooter", "lat": 38.91693583333333, "is_disabled": 0, "lon": -77.035962, "is_reserved": 0}, {"name": "13be19d5d65098bcb5eedbad95d082e5", "fusion_lat": 0.0, "fusion_lon": 0.0, "bike_id": "13be19d5d65098bcb5eedbad95d082e5", "rental_uris": {"ios": "https://dc.lft.to/lastmile_qr_scan", "android": "https://dc.lft.to/lastmile_qr_scan"}, "type": "electric_scooter", "lat": 38.89577233333333, "is_disabled": 0, "lon": -77.022976, "is_reserved": 0}, {"name": "ff4e59c9f032bad7d9a5b02c4b5384d0", "fusion_lat": 0.0, "fusion_lon": 0.0, "bike_id": "ff4e59c9f032bad7d9a5b02c4b5384d0", "rental_uris": {"ios": "https://dc.lft.to/lastmile_qr_scan", "android": "https://dc.lft.to/lastmile_qr_scan"}, "type": "electric_scooter", "lat": 38.93526216666667, "is_disabled": 0, "lon": -77.03259666666666, "is_reserved": 0}, {"name": "7ffec5fc0c4febe92315c9022a89c475", "fusion_lat": 0.0, "fusion_lon": 0.0, "bike_id": "7ffec5fc0c4febe92315c9022a89c475", "rental_uris": {"ios": "https://dc.lft.to/lastmile_qr_scan", "android": "https://dc.lft.to/lastmile_qr_scan"}, "type": "electric_scooter", "lat": 38.914838333333336, "is_disabled": 0, "lon": -77.0323335, "is_reserved": 0}, {"name": "1a5f7136963008a9b21df1e10cba98b4", "fusion_lat": 0.0, "fusion_lon": 0.0, "bike_id": "1a5f7136963008a9b21df1e10cba98b4", "rental_uris": {"ios": "https://dc.lft.to/lastmile_qr_scan", "android": "https://dc.lft.to/lastmile_qr_scan"}, "type": "electric_scooter", "lat": 38.922986333333334, "is_disabled": 0, "lon": -77.04205816666666, "is_reserved": 0}, {"name": "b39ce7cb95162322da4efb7c8ccb44bb", "fusion_lat": 0.0, "fusion_lon": 0.0, "bike_id": "b39ce7cb95162322da4efb7c8ccb44bb", "rental_uris": {"ios": "https://dc.lft.to/lastmile_qr_scan", "android": "https://dc.lft.to/lastmile_qr_scan"}, "type": "electric_scooter", "lat": 38.88987566666667, "is_disabled": 0, "lon": -77.00337516666667, "is_reserved": 0}, {"name": "fa5696b7eb452321071b55cbdc752b30", "fusion_lat": 0.0, "fusion_lon": 0.0, "bike_id": "fa5696b7eb452321071b55cbdc752b30", "rental_uris": {"ios": "https://dc.lft.to/lastmile_qr_scan", "android": "https://dc.lft.to/lastmile_qr_scan"}, "type": "electric_scooter", "lat": 38.88518933333334, "is_disabled": 0, "lon": -76.9482495, "is_reserved": 0}, {"name": "939b610b0de7fbfe13cc9c03ac81b835", "fusion_lat": 0.0, "fusion_lon": 0.0, "bike_id": "939b610b0de7fbfe13cc9c03ac81b835", "rental_uris": {"ios": "https://dc.lft.to/lastmile_qr_scan", "android": "https://dc.lft.to/lastmile_qr_scan"}, "type": "electric_scooter", "lat": 38.9264265, "is_disabled": 0, "lon": -77.03844883333333, "is_reserved": 0}, {"name": "6e53cd14e6e958a45359a9bfddd8fe7e", "fusion_lat": 0.0, "fusion_lon": 0.0, "bike_id": "6e53cd14e6e958a45359a9bfddd8fe7e", "rental_uris": {"ios": "https://dc.lft.to/lastmile_qr_scan", "android": "https://dc.lft.to/lastmile_qr_scan"}, "type": "electric_scooter", "lat": 38.91406533333333, "is_disabled": 0, "lon": -77.04175616666667, "is_reserved": 0}, {"name": "df18f0363b2b766d52052e53c50a3c77", "fusion_lat": 0.0, "fusion_lon": 0.0, "bike_id": "df18f0363b2b766d52052e53c50a3c77", "rental_uris": {"ios": "https://dc.lft.to/lastmile_qr_scan", "android": "https://dc.lft.to/lastmile_qr_scan"}, "type": "electric_scooter", "lat": 38.8995795, "is_disabled": 0, "lon": -77.05530266666666, "is_reserved": 0}, {"name": "ede9cf7c5c548ab6e4529558edd9df28", "fusion_lat": 0.0, "fusion_lon": 0.0, "bike_id": "ede9cf7c5c548ab6e4529558edd9df28", "rental_uris": {"ios": "https://dc.lft.to/lastmile_qr_scan", "android": "https://dc.lft.to/lastmile_qr_scan"}, "type": "electric_scooter", "lat": 38.91538416666667, "is_disabled": 0, "lon": -77.01225616666666, "is_reserved": 0}, {"name": "7a7cf1388f92a6b2dce964ed5de63ac9", "fusion_lat": 0.0, "fusion_lon": 0.0, "bike_id": "7a7cf1388f92a6b2dce964ed5de63ac9", "rental_uris": {"ios": "https://dc.lft.to/lastmile_qr_scan", "android": "https://dc.lft.to/lastmile_qr_scan"}, "type": "electric_scooter", "lat": 38.90427433333333, "is_disabled": 0, "lon": -76.97908166666667, "is_reserved": 0}, {"name": "2aeb478c7d05f07cc6337f999d7e6a45", "fusion_lat": 0.0, "fusion_lon": 0.0, "bike_id": "2aeb478c7d05f07cc6337f999d7e6a45", "rental_uris": {"ios": "https://dc.lft.to/lastmile_qr_scan", "android": "https://dc.lft.to/lastmile_qr_scan"}, "type": "electric_scooter", "lat": 38.9429465, "is_disabled": 0, "lon": -77.02767316666667, "is_reserved": 0}, {"name": "23180ea313bee2abe59169f188c7f08c", "fusion_lat": 0.0, "fusion_lon": 0.0, "bike_id": "23180ea313bee2abe59169f188c7f08c", "rental_uris": {"ios": "https://dc.lft.to/lastmile_qr_scan", "android": "https://dc.lft.to/lastmile_qr_scan"}, "type": "electric_scooter", "lat": 38.894943, "is_disabled": 0, "lon": -77.00948483333333, "is_reserved": 0}, {"name": "902ddeda5a699e7f8485dba61597df3f", "fusion_lat": 0.0, "fusion_lon": 0.0, "bike_id": "902ddeda5a699e7f8485dba61597df3f", "rental_uris": {"ios": "https://dc.lft.to/lastmile_qr_scan", "android": "https://dc.lft.to/lastmile_qr_scan"}, "type": "electric_scooter", "lat": 38.899906666666666, "is_disabled": 0, "lon": -76.9977895, "is_reserved": 0}, {"name": "62c46fdf1daad43a80d50371b458b357", "fusion_lat": 0.0, "fusion_lon": 0.0, "bike_id": "62c46fdf1daad43a80d50371b458b357", "rental_uris": {"ios": "https://dc.lft.to/lastmile_qr_scan", "android": "https://dc.lft.to/lastmile_qr_scan"}, "type": "electric_scooter", "lat": 38.918202666666666, "is_disabled": 0, "lon": -77.0121015, "is_reserved": 0}, {"name": "c62e032c8997f7002dea14187f380541", "fusion_lat": 0.0, "fusion_lon": 0.0, "bike_id": "c62e032c8997f7002dea14187f380541", "rental_uris": {"ios": "https://dc.lft.to/lastmile_qr_scan", "android": "https://dc.lft.to/lastmile_qr_scan"}, "type": "electric_bike", "lat": 38.9193495, "is_disabled": 0, "lon": -76.97506383333334, "is_reserved": 0}, {"name": "41e1cfce7f4972025210821566315de2", "fusion_lat": 0.0, "fusion_lon": 0.0, "bike_id": "41e1cfce7f4972025210821566315de2", "rental_uris": {"ios": "https://dc.lft.to/lastmile_qr_scan", "android": "https://dc.lft.to/lastmile_qr_scan"}, "type": "electric_scooter", "lat": 38.9218235, "is_disabled": 0, "lon": -77.042294, "is_reserved": 0}, {"name": "79a23d217cba4c37a0a9661b57c8aafd", "fusion_lat": 0.0, "fusion_lon": 0.0, "bike_id": "79a23d217cba4c37a0a9661b57c8aafd", "rental_uris": {"ios": "https://dc.lft.to/lastmile_qr_scan", "android": "https://dc.lft.to/lastmile_qr_scan"}, "type": "electric_bike", "lat": 38.988321666666664, "is_disabled": 0, "lon": -76.9875905, "is_reserved": 0}, {"name": "cc1073af575cec18f3560ad31b3b24c4", "fusion_lat": 0.0, "fusion_lon": 0.0, "bike_id": "cc1073af575cec18f3560ad31b3b24c4", "rental_uris": {"ios": "https://dc.lft.to/lastmile_qr_scan", "android": "https://dc.lft.to/lastmile_qr_scan"}, "type": "electric_scooter", "lat": 38.88017266666667, "is_disabled": 0, "lon": -76.9311415, "is_reserved": 0}, {"name": "d3a60fd4b1e84f0644ad527adaef0dc7", "fusion_lat": 0.0, "fusion_lon": 0.0, "bike_id": "d3a60fd4b1e84f0644ad527adaef0dc7", "rental_uris": {"ios": "https://dc.lft.to/lastmile_qr_scan", "android": "https://dc.lft.to/lastmile_qr_scan"}, "type": "electric_scooter", "lat": 38.895271, "is_disabled": 0, "lon": -77.02844183333333, "is_reserved": 0}, {"name": "81e8a7e9026ee429e984a12e3c52114c", "fusion_lat": 0.0, "fusion_lon": 0.0, "bike_id": "81e8a7e9026ee429e984a12e3c52114c", "rental_uris": {"ios": "https://dc.lft.to/lastmile_qr_scan", "android": "https://dc.lft.to/lastmile_qr_scan"}, "type": "electric_scooter", "lat": 38.85322, "is_disabled": 0, "lon": -76.9657905, "is_reserved": 0}, {"name": "0876c93ff8bedc481735a07999c849f8", "fusion_lat": 0.0, "fusion_lon": 0.0, "bike_id": "0876c93ff8bedc481735a07999c849f8", "rental_uris": {"ios": "https://dc.lft.to/lastmile_qr_scan", "android": "https://dc.lft.to/lastmile_qr_scan"}, "type": "electric_scooter", "lat": 38.903666, "is_disabled": 0, "lon": -77.01937716666667, "is_reserved": 0}, {"name": "77d437159fc9e223935d20c507e61e87", "fusion_lat": 0.0, "fusion_lon": 0.0, "bike_id": "77d437159fc9e223935d20c507e61e87", "rental_uris": {"ios": "https://dc.lft.to/lastmile_qr_scan", "android": "https://dc.lft.to/lastmile_qr_scan"}, "type": "electric_scooter", "lat": 38.90014266666667, "is_disabled": 0, "lon": -77.01184766666667, "is_reserved": 0}, {"name": "19495ab3e651f35dcde134cedc8397ce", "fusion_lat": 0.0, "fusion_lon": 0.0, "bike_id": "19495ab3e651f35dcde134cedc8397ce", "rental_uris": {"ios": "https://dc.lft.to/lastmile_qr_scan", "android": "https://dc.lft.to/lastmile_qr_scan"}, "type": "electric_scooter", "lat": 38.9056585, "is_disabled": 0, "lon": -77.025304, "is_reserved": 0}, {"name": "c36a6d057b3ee5160b81c18adde2fdec", "fusion_lat": 0.0, "fusion_lon": 0.0, "bike_id": "c36a6d057b3ee5160b81c18adde2fdec", "rental_uris": {"ios": "https://dc.lft.to/lastmile_qr_scan", "android": "https://dc.lft.to/lastmile_qr_scan"}, "type": "electric_scooter", "lat": 38.93910666666667, "is_disabled": 0, "lon": -77.02465566666666, "is_reserved": 0}, {"name": "994e66ad89fe0fb24a0b1a937c590e37", "fusion_lat": 0.0, "fusion_lon": 0.0, "bike_id": "994e66ad89fe0fb24a0b1a937c590e37", "rental_uris": {"ios": "https://dc.lft.to/lastmile_qr_scan", "android": "https://dc.lft.to/lastmile_qr_scan"}, "type": "electric_scooter", "lat": 38.90363133333334, "is_disabled": 0, "lon": -77.03211966666667, "is_reserved": 0}, {"name": "444282ea4087a59f4fbf39cf1c4a6368", "fusion_lat": 0.0, "fusion_lon": 0.0, "bike_id": "444282ea4087a59f4fbf39cf1c4a6368", "rental_uris": {"ios": "https://dc.lft.to/lastmile_qr_scan", "android": "https://dc.lft.to/lastmile_qr_scan"}, "type": "electric_scooter", "lat": 38.8624835, "is_disabled": 0, "lon": -76.99528983333333, "is_reserved": 0}, {"name": "5726f911861adf426fa405f576d0adcf", "fusion_lat": 0.0, "fusion_lon": 0.0, "bike_id": "5726f911861adf426fa405f576d0adcf", "rental_uris": {"ios": "https://dc.lft.to/lastmile_qr_scan", "android": "https://dc.lft.to/lastmile_qr_scan"}, "type": "electric_scooter", "lat": 38.9034325, "is_disabled": 0, "lon": -76.99955966666667, "is_reserved": 0}, {"name": "c61dccad76764312d539d12b6f717040", "fusion_lat": 0.0, "fusion_lon": 0.0, "bike_id": "c61dccad76764312d539d12b6f717040", "rental_uris": {"ios": "https://dc.lft.to/lastmile_qr_scan", "android": "https://dc.lft.to/lastmile_qr_scan"}, "type": "electric_scooter", "lat": 38.92161866666667, "is_disabled": 0, "lon": -76.9940455, "is_reserved": 0}, {"name": "6e911c7a8badf773b64d2f77bfe0a108", "fusion_lat": 0.0, "fusion_lon": 0.0, "bike_id": "6e911c7a8badf773b64d2f77bfe0a108", "rental_uris": {"ios": "https://dc.lft.to/lastmile_qr_scan", "android": "https://dc.lft.to/lastmile_qr_scan"}, "type": "electric_scooter", "lat": 38.900310833333336, "is_disabled": 0, "lon": -77.0440455, "is_reserved": 0}, {"name": "0276d95b02e2597628fc41cf05ffe4dc", "fusion_lat": 0.0, "fusion_lon": 0.0, "bike_id": "0276d95b02e2597628fc41cf05ffe4dc", "rental_uris": {"ios": "https://dc.lft.to/lastmile_qr_scan", "android": "https://dc.lft.to/lastmile_qr_scan"}, "type": "electric_bike", "lat": 38.944774333333335, "is_disabled": 0, "lon": -77.00647883333333, "is_reserved": 0}, {"name": "c786aefa556f243acbe0a3176ed7fda3", "fusion_lat": 0.0, "fusion_lon": 0.0, "bike_id": "c786aefa556f243acbe0a3176ed7fda3", "rental_uris": {"ios": "https://dc.lft.to/lastmile_qr_scan", "android": "https://dc.lft.to/lastmile_qr_scan"}, "type": "electric_scooter", "lat": 38.91412866666667, "is_disabled": 0, "lon": -77.028302, "is_reserved": 0}, {"name": "a6a2739e76770f861055446b6ca76995", "fusion_lat": 0.0, "fusion_lon": 0.0, "bike_id": "a6a2739e76770f861055446b6ca76995", "rental_uris": {"ios": "https://dc.lft.to/lastmile_qr_scan", "android": "https://dc.lft.to/lastmile_qr_scan"}, "type": "electric_scooter", "lat": 38.904776, "is_disabled": 0, "lon": -77.06125, "is_reserved": 0}, {"name": "f83740cfccf25be38f8efe187fd3d28a", "fusion_lat": 0.0, "fusion_lon": 0.0, "bike_id": "f83740cfccf25be38f8efe187fd3d28a", "rental_uris": {"ios": "https://dc.lft.to/lastmile_qr_scan", "android": "https://dc.lft.to/lastmile_qr_scan"}, "type": "electric_scooter", "lat": 38.928087833333336, "is_disabled": 0, "lon": -77.0234795, "is_reserved": 0}, {"name": "ede4c4e864764e485dcad62c263d0e87", "fusion_lat": 0.0, "fusion_lon": 0.0, "bike_id": "ede4c4e864764e485dcad62c263d0e87", "rental_uris": {"ios": "https://dc.lft.to/lastmile_qr_scan", "android": "https://dc.lft.to/lastmile_qr_scan"}, "type": "electric_scooter", "lat": 38.8981185, "is_disabled": 0, "lon": -77.04354066666667, "is_reserved": 0}, {"name": "16818ed6a9edfb1cee280d086c4186ae", "fusion_lat": 0.0, "fusion_lon": 0.0, "bike_id": "16818ed6a9edfb1cee280d086c4186ae", "rental_uris": {"ios": "https://dc.lft.to/lastmile_qr_scan", "android": "https://dc.lft.to/lastmile_qr_scan"}, "type": "electric_scooter", "lat": 38.9146885, "is_disabled": 0, "lon": -77.03194383333333, "is_reserved": 0}, {"name": "0953b61c2d246f2a298377ab307f581f", "fusion_lat": 0.0, "fusion_lon": 0.0, "bike_id": "0953b61c2d246f2a298377ab307f581f", "rental_uris": {"ios": "https://dc.lft.to/lastmile_qr_scan", "android": "https://dc.lft.to/lastmile_qr_scan"}, "type": "electric_bike", "lat": 38.9456125, "is_disabled": 0, "lon": -77.0512025, "is_reserved": 0}, {"name": "ae32549efd8e97a768e5299e1a3f02d5", "fusion_lat": 0.0, "fusion_lon": 0.0, "bike_id": "ae32549efd8e97a768e5299e1a3f02d5", "rental_uris": {"ios": "https://dc.lft.to/lastmile_qr_scan", "android": "https://dc.lft.to/lastmile_qr_scan"}, "type": "electric_scooter", "lat": 38.93424683333333, "is_disabled": 0, "lon": -77.05842516666667, "is_reserved": 0}, {"name": "6af835b79910abe255ae78f86507f4ce", "fusion_lat": 0.0, "fusion_lon": 0.0, "bike_id": "6af835b79910abe255ae78f86507f4ce", "rental_uris": {"ios": "https://dc.lft.to/lastmile_qr_scan", "android": "https://dc.lft.to/lastmile_qr_scan"}, "type": "electric_scooter", "lat": 38.918618333333335, "is_disabled": 0, "lon": -77.04455983333334, "is_reserved": 0}, {"name": "fa863aa19b2cd26156b940fe68ef1e12", "fusion_lat": 0.0, "fusion_lon": 0.0, "bike_id": "fa863aa19b2cd26156b940fe68ef1e12", "rental_uris": {"ios": "https://dc.lft.to/lastmile_qr_scan", "android": "https://dc.lft.to/lastmile_qr_scan"}, "type": "electric_scooter", "lat": 38.876278666666664, "is_disabled": 0, "lon": -76.9652865, "is_reserved": 0}, {"name": "ac35a781d5474f19c0ea86630d3fd212", "fusion_lat": 0.0, "fusion_lon": 0.0, "bike_id": "ac35a781d5474f19c0ea86630d3fd212", "rental_uris": {"ios": "https://dc.lft.to/lastmile_qr_scan", "android": "https://dc.lft.to/lastmile_qr_scan"}, "type": "electric_scooter", "lat": 38.8789585, "is_disabled": 0, "lon": -77.00612333333333, "is_reserved": 0}, {"name": "2e6587fe2e24ea490129b68a6e84bba3", "fusion_lat": 0.0, "fusion_lon": 0.0, "bike_id": "2e6587fe2e24ea490129b68a6e84bba3", "rental_uris": {"ios": "https://dc.lft.to/lastmile_qr_scan", "android": "https://dc.lft.to/lastmile_qr_scan"}, "type": "electric_bike", "lat": 38.899444333333335, "is_disabled": 0, "lon": -77.034064, "is_reserved": 0}, {"name": "6749838de93f6feb933383ace842934f", "fusion_lat": 0.0, "fusion_lon": 0.0, "bike_id": "6749838de93f6feb933383ace842934f", "rental_uris": {"ios": "https://dc.lft.to/lastmile_qr_scan", "android": "https://dc.lft.to/lastmile_qr_scan"}, "type": "electric_scooter", "lat": 38.90765616666667, "is_disabled": 0, "lon": -77.02814883333333, "is_reserved": 0}, {"name": "010d149c295fc6b240c0d4e5873b15ea", "fusion_lat": 0.0, "fusion_lon": 0.0, "bike_id": "010d149c295fc6b240c0d4e5873b15ea", "rental_uris": {"ios": "https://dc.lft.to/lastmile_qr_scan", "android": "https://dc.lft.to/lastmile_qr_scan"}, "type": "electric_bike", "lat": 38.909861, "is_disabled": 0, "lon": -76.99721616666666, "is_reserved": 0}, {"name": "0312970de21ace7db4d46944f2b0f470", "fusion_lat": 0.0, "fusion_lon": 0.0, "bike_id": "0312970de21ace7db4d46944f2b0f470", "rental_uris": {"ios": "https://dc.lft.to/lastmile_qr_scan", "android": "https://dc.lft.to/lastmile_qr_scan"}, "type": "electric_scooter", "lat": 38.894740666666664, "is_disabled": 0, "lon": -77.00141, "is_reserved": 0}, {"name": "2d4ebdf16a56aaa46cd8be5861f16b90", "fusion_lat": 0.0, "fusion_lon": 0.0, "bike_id": "2d4ebdf16a56aaa46cd8be5861f16b90", "rental_uris": {"ios": "https://dc.lft.to/lastmile_qr_scan", "android": "https://dc.lft.to/lastmile_qr_scan"}, "type": "electric_scooter", "lat": 38.91723733333333, "is_disabled": 0, "lon": -77.0362255, "is_reserved": 0}, {"name": "0ba3b467e2b5e5396e2d4078ab893f00", "fusion_lat": 0.0, "fusion_lon": 0.0, "bike_id": "0ba3b467e2b5e5396e2d4078ab893f00", "rental_uris": {"ios": "https://dc.lft.to/lastmile_qr_scan", "android": "https://dc.lft.to/lastmile_qr_scan"}, "type": "electric_scooter", "lat": 38.93233016666667, "is_disabled": 0, "lon": -77.038538, "is_reserved": 0}, {"name": "169d67199931e5408391b5a5ae4cbbe4", "fusion_lat": 0.0, "fusion_lon": 0.0, "bike_id": "169d67199931e5408391b5a5ae4cbbe4", "rental_uris": {"ios": "https://dc.lft.to/lastmile_qr_scan", "android": "https://dc.lft.to/lastmile_qr_scan"}, "type": "electric_scooter", "lat": 38.919944666666666, "is_disabled": 0, "lon": -77.025485, "is_reserved": 0}, {"name": "cf8553ce60cbcb2c757aae188f7f5700", "fusion_lat": 0.0, "fusion_lon": 0.0, "bike_id": "cf8553ce60cbcb2c757aae188f7f5700", "rental_uris": {"ios": "https://dc.lft.to/lastmile_qr_scan", "android": "https://dc.lft.to/lastmile_qr_scan"}, "type": "electric_scooter", "lat": 38.9095735, "is_disabled": 0, "lon": -77.0228215, "is_reserved": 0}, {"name": "b522fcd4e78795defc7e27c2f1bab5b3", "fusion_lat": 0.0, "fusion_lon": 0.0, "bike_id": "b522fcd4e78795defc7e27c2f1bab5b3", "rental_uris": {"ios": "https://dc.lft.to/lastmile_qr_scan", "android": "https://dc.lft.to/lastmile_qr_scan"}, "type": "electric_scooter", "lat": 38.906483333333334, "is_disabled": 0, "lon": -77.03829966666666, "is_reserved": 0}, {"name": "b271836ad897170a092903f8c641a417", "fusion_lat": 0.0, "fusion_lon": 0.0, "bike_id": "b271836ad897170a092903f8c641a417", "rental_uris": {"ios": "https://dc.lft.to/lastmile_qr_scan", "android": "https://dc.lft.to/lastmile_qr_scan"}, "type": "electric_bike", "lat": 38.897465, "is_disabled": 0, "lon": -76.94251583333333, "is_reserved": 0}, {"name": "2d01bf0275f5e186ad2013e5f66f7409", "fusion_lat": 0.0, "fusion_lon": 0.0, "bike_id": "2d01bf0275f5e186ad2013e5f66f7409", "rental_uris": {"ios": "https://dc.lft.to/lastmile_qr_scan", "android": "https://dc.lft.to/lastmile_qr_scan"}, "type": "electric_scooter", "lat": 38.92578316666667, "is_disabled": 0, "lon": -76.99495066666667, "is_reserved": 0}, {"name": "ade8d88d8fec2a915befec1de90681ec", "fusion_lat": 0.0, "fusion_lon": 0.0, "bike_id": "ade8d88d8fec2a915befec1de90681ec", "rental_uris": {"ios": "https://dc.lft.to/lastmile_qr_scan", "android": "https://dc.lft.to/lastmile_qr_scan"}, "type": "electric_scooter", "lat": 38.89228966666667, "is_disabled": 0, "lon": -77.0437085, "is_reserved": 0}, {"name": "04e557a47055e0734f253f0666e18347", "fusion_lat": 0.0, "fusion_lon": 0.0, "bike_id": "04e557a47055e0734f253f0666e18347", "rental_uris": {"ios": "https://dc.lft.to/lastmile_qr_scan", "android": "https://dc.lft.to/lastmile_qr_scan"}, "type": "electric_scooter", "lat": 38.9621195, "is_disabled": 0, "lon": -77.02806166666667, "is_reserved": 0}, {"name": "bb00a3e54e22e9d6148af62724004e88", "fusion_lat": 0.0, "fusion_lon": 0.0, "bike_id": "bb00a3e54e22e9d6148af62724004e88", "rental_uris": {"ios": "https://dc.lft.to/lastmile_qr_scan", "android": "https://dc.lft.to/lastmile_qr_scan"}, "type": "electric_scooter", "lat": 38.9428065, "is_disabled": 0, "lon": -77.0363605, "is_reserved": 0}, {"name": "77d2841319269e86d51ac66e231cd432", "fusion_lat": 0.0, "fusion_lon": 0.0, "bike_id": "77d2841319269e86d51ac66e231cd432", "rental_uris": {"ios": "https://dc.lft.to/lastmile_qr_scan", "android": "https://dc.lft.to/lastmile_qr_scan"}, "type": "electric_scooter", "lat": 38.90123783333333, "is_disabled": 0, "lon": -77.01637533333333, "is_reserved": 0}, {"name": "ad516747b5dfea739c173e1d9bf898f6", "fusion_lat": 0.0, "fusion_lon": 0.0, "bike_id": "ad516747b5dfea739c173e1d9bf898f6", "rental_uris": {"ios": "https://dc.lft.to/lastmile_qr_scan", "android": "https://dc.lft.to/lastmile_qr_scan"}, "type": "electric_scooter", "lat": 38.907949, "is_disabled": 0, "lon": -76.99701666666667, "is_reserved": 0}, {"name": "b57b6c2ad3c60adbebd6220bcda81fd1", "fusion_lat": 0.0, "fusion_lon": 0.0, "bike_id": "b57b6c2ad3c60adbebd6220bcda81fd1", "rental_uris": {"ios": "https://dc.lft.to/lastmile_qr_scan", "android": "https://dc.lft.to/lastmile_qr_scan"}, "type": "electric_scooter", "lat": 38.87373, "is_disabled": 0, "lon": -77.00150533333333, "is_reserved": 0}, {"name": "149c7816903b9b7c01782f7bf64f1514", "fusion_lat": 0.0, "fusion_lon": 0.0, "bike_id": "149c7816903b9b7c01782f7bf64f1514", "rental_uris": {"ios": "https://dc.lft.to/lastmile_qr_scan", "android": "https://dc.lft.to/lastmile_qr_scan"}, "type": "electric_scooter", "lat": 38.85807783333333, "is_disabled": 0, "lon": -76.98966666666666, "is_reserved": 0}, {"name": "878816bc11ed221c2e1d30385a59a3b4", "fusion_lat": 0.0, "fusion_lon": 0.0, "bike_id": "878816bc11ed221c2e1d30385a59a3b4", "rental_uris": {"ios": "https://dc.lft.to/lastmile_qr_scan", "android": "https://dc.lft.to/lastmile_qr_scan"}, "type": "electric_scooter", "lat": 38.901297666666665, "is_disabled": 0, "lon": -77.02878116666666, "is_reserved": 0}, {"name": "549b74b609bd8f21188ef22cf2ba5577", "fusion_lat": 0.0, "fusion_lon": 0.0, "bike_id": "549b74b609bd8f21188ef22cf2ba5577", "rental_uris": {"ios": "https://dc.lft.to/lastmile_qr_scan", "android": "https://dc.lft.to/lastmile_qr_scan"}, "type": "electric_scooter", "lat": 38.9498295, "is_disabled": 0, "lon": -77.02702316666667, "is_reserved": 0}, {"name": "310d2f382c4c02b9c0a2f414fae7ca6f", "fusion_lat": 0.0, "fusion_lon": 0.0, "bike_id": "310d2f382c4c02b9c0a2f414fae7ca6f", "rental_uris": {"ios": "https://dc.lft.to/lastmile_qr_scan", "android": "https://dc.lft.to/lastmile_qr_scan"}, "type": "electric_scooter", "lat": 38.937492166666665, "is_disabled": 0, "lon": -77.0247845, "is_reserved": 0}, {"name": "a2f1aa687b0091902e47e10e233e19a1", "fusion_lat": 0.0, "fusion_lon": 0.0, "bike_id": "a2f1aa687b0091902e47e10e233e19a1", "rental_uris": {"ios": "https://dc.lft.to/lastmile_qr_scan", "android": "https://dc.lft.to/lastmile_qr_scan"}, "type": "electric_scooter", "lat": 38.847976833333334, "is_disabled": 0, "lon": -76.96714983333334, "is_reserved": 0}, {"name": "fcf6b0da5bdb6fe72fcd2312bb90b035", "fusion_lat": 0.0, "fusion_lon": 0.0, "bike_id": "fcf6b0da5bdb6fe72fcd2312bb90b035", "rental_uris": {"ios": "https://dc.lft.to/lastmile_qr_scan", "android": "https://dc.lft.to/lastmile_qr_scan"}, "type": "electric_scooter", "lat": 38.93857766666667, "is_disabled": 0, "lon": -77.02474883333333, "is_reserved": 0}, {"name": "7154763589e5ce4adc7a0164ea5a7799", "fusion_lat": 0.0, "fusion_lon": 0.0, "bike_id": "7154763589e5ce4adc7a0164ea5a7799", "rental_uris": {"ios": "https://dc.lft.to/lastmile_qr_scan", "android": "https://dc.lft.to/lastmile_qr_scan"}, "type": "electric_scooter", "lat": 38.912682333333336, "is_disabled": 0, "lon": -77.041549, "is_reserved": 0}, {"name": "27ed04484aedb5837a2029aa33f04c99", "fusion_lat": 0.0, "fusion_lon": 0.0, "bike_id": "27ed04484aedb5837a2029aa33f04c99", "rental_uris": {"ios": "https://dc.lft.to/lastmile_qr_scan", "android": "https://dc.lft.to/lastmile_qr_scan"}, "type": "electric_scooter", "lat": 38.89746916666667, "is_disabled": 0, "lon": -77.04689316666666, "is_reserved": 0}, {"name": "dbfb738759d669f6ed106aae80c4eeca", "fusion_lat": 0.0, "fusion_lon": 0.0, "bike_id": "dbfb738759d669f6ed106aae80c4eeca", "rental_uris": {"ios": "https://dc.lft.to/lastmile_qr_scan", "android": "https://dc.lft.to/lastmile_qr_scan"}, "type": "electric_scooter", "lat": 38.90498133333333, "is_disabled": 0, "lon": -77.0295255, "is_reserved": 0}, {"name": "1179f63ccfb0b5c1c862f7ebb2731584", "fusion_lat": 0.0, "fusion_lon": 0.0, "bike_id": "1179f63ccfb0b5c1c862f7ebb2731584", "rental_uris": {"ios": "https://dc.lft.to/lastmile_qr_scan", "android": "https://dc.lft.to/lastmile_qr_scan"}, "type": "electric_scooter", "lat": 38.928686166666665, "is_disabled": 0, "lon": -77.034322, "is_reserved": 0}, {"name": "d1566dd8f07acc356712f035bf0d0161", "fusion_lat": 0.0, "fusion_lon": 0.0, "bike_id": "d1566dd8f07acc356712f035bf0d0161", "rental_uris": {"ios": "https://dc.lft.to/lastmile_qr_scan", "android": "https://dc.lft.to/lastmile_qr_scan"}, "type": "electric_scooter", "lat": 38.9002135, "is_disabled": 0, "lon": -77.04408233333334, "is_reserved": 0}, {"name": "8036531bed7474678fe1936535800b88", "fusion_lat": 0.0, "fusion_lon": 0.0, "bike_id": "8036531bed7474678fe1936535800b88", "rental_uris": {"ios": "https://dc.lft.to/lastmile_qr_scan", "android": "https://dc.lft.to/lastmile_qr_scan"}, "type": "electric_scooter", "lat": 38.8997365, "is_disabled": 0, "lon": -77.02692583333334, "is_reserved": 0}, {"name": "1a7e466e44046b539aa01e5ce1e46d5c", "fusion_lat": 0.0, "fusion_lon": 0.0, "bike_id": "1a7e466e44046b539aa01e5ce1e46d5c", "rental_uris": {"ios": "https://dc.lft.to/lastmile_qr_scan", "android": "https://dc.lft.to/lastmile_qr_scan"}, "type": "electric_scooter", "lat": 38.9201725, "is_disabled": 0, "lon": -77.03139783333333, "is_reserved": 0}, {"name": "e1d1c853fe02e06579aed0cfde3293a5", "fusion_lat": 0.0, "fusion_lon": 0.0, "bike_id": "e1d1c853fe02e06579aed0cfde3293a5", "rental_uris": {"ios": "https://dc.lft.to/lastmile_qr_scan", "android": "https://dc.lft.to/lastmile_qr_scan"}, "type": "electric_scooter", "lat": 38.92519766666667, "is_disabled": 0, "lon": -77.05119716666667, "is_reserved": 0}, {"name": "771cc37d778a5c51f0b32c0f9c3728c1", "fusion_lat": 0.0, "fusion_lon": 0.0, "bike_id": "771cc37d778a5c51f0b32c0f9c3728c1", "rental_uris": {"ios": "https://dc.lft.to/lastmile_qr_scan", "android": "https://dc.lft.to/lastmile_qr_scan"}, "type": "electric_scooter", "lat": 38.929659, "is_disabled": 0, "lon": -77.04206433333333, "is_reserved": 0}, {"name": "37f20a8cd1477a3df4dba50ae0c7278c", "fusion_lat": 0.0, "fusion_lon": 0.0, "bike_id": "37f20a8cd1477a3df4dba50ae0c7278c", "rental_uris": {"ios": "https://dc.lft.to/lastmile_qr_scan", "android": "https://dc.lft.to/lastmile_qr_scan"}, "type": "electric_scooter", "lat": 38.903820333333336, "is_disabled": 0, "lon": -77.030153, "is_reserved": 0}, {"name": "7d76e5f119a843b080859b2e9c8f23f8", "fusion_lat": 0.0, "fusion_lon": 0.0, "bike_id": "7d76e5f119a843b080859b2e9c8f23f8", "rental_uris": {"ios": "https://dc.lft.to/lastmile_qr_scan", "android": "https://dc.lft.to/lastmile_qr_scan"}, "type": "electric_scooter", "lat": 38.866973333333334, "is_disabled": 0, "lon": -76.98717366666666, "is_reserved": 0}, {"name": "e4fc89d2593ea3ce5039480317a784ce", "fusion_lat": 0.0, "fusion_lon": 0.0, "bike_id": "e4fc89d2593ea3ce5039480317a784ce", "rental_uris": {"ios": "https://dc.lft.to/lastmile_qr_scan", "android": "https://dc.lft.to/lastmile_qr_scan"}, "type": "electric_scooter", "lat": 38.90183866666667, "is_disabled": 0, "lon": -76.92828833333333, "is_reserved": 0}, {"name": "65680408a58341fd9eca2fe0f2654b77", "fusion_lat": 0.0, "fusion_lon": 0.0, "bike_id": "65680408a58341fd9eca2fe0f2654b77", "rental_uris": {"ios": "https://dc.lft.to/lastmile_qr_scan", "android": "https://dc.lft.to/lastmile_qr_scan"}, "type": "electric_scooter", "lat": 38.920771, "is_disabled": 0, "lon": -77.02515883333334, "is_reserved": 0}, {"name": "738eba4de428cec79fcd29cd0f21ba53", "fusion_lat": 0.0, "fusion_lon": 0.0, "bike_id": "738eba4de428cec79fcd29cd0f21ba53", "rental_uris": {"ios": "https://dc.lft.to/lastmile_qr_scan", "android": "https://dc.lft.to/lastmile_qr_scan"}, "type": "electric_scooter", "lat": 38.9012225, "is_disabled": 0, "lon": -77.03969983333333, "is_reserved": 0}, {"name": "886b59aca1195f9267776a6394ea8ae4", "fusion_lat": 0.0, "fusion_lon": 0.0, "bike_id": "886b59aca1195f9267776a6394ea8ae4", "rental_uris": {"ios": "https://dc.lft.to/lastmile_qr_scan", "android": "https://dc.lft.to/lastmile_qr_scan"}, "type": "electric_scooter", "lat": 38.910765166666664, "is_disabled": 0, "lon": -77.001528, "is_reserved": 0}, {"name": "098b0b204e019f8cf210c512feb44d41", "fusion_lat": 0.0, "fusion_lon": 0.0, "bike_id": "098b0b204e019f8cf210c512feb44d41", "rental_uris": {"ios": "https://dc.lft.to/lastmile_qr_scan", "android": "https://dc.lft.to/lastmile_qr_scan"}, "type": "electric_bike", "lat": 38.95753, "is_disabled": 0, "lon": -76.980188, "is_reserved": 0}, {"name": "4f7088e52baa27f57a96aaf4c8c0202c", "fusion_lat": 0.0, "fusion_lon": 0.0, "bike_id": "4f7088e52baa27f57a96aaf4c8c0202c", "rental_uris": {"ios": "https://dc.lft.to/lastmile_qr_scan", "android": "https://dc.lft.to/lastmile_qr_scan"}, "type": "electric_scooter", "lat": 38.8972435, "is_disabled": 0, "lon": -76.99260116666666, "is_reserved": 0}, {"name": "ccdd36b8323bfb9df2a37e3c0ef22103", "fusion_lat": 0.0, "fusion_lon": 0.0, "bike_id": "ccdd36b8323bfb9df2a37e3c0ef22103", "rental_uris": {"ios": "https://dc.lft.to/lastmile_qr_scan", "android": "https://dc.lft.to/lastmile_qr_scan"}, "type": "electric_scooter", "lat": 38.9225285, "is_disabled": 0, "lon": -77.0307435, "is_reserved": 0}, {"name": "88dff9e2867cfde3b5bd392ceda48073", "fusion_lat": 0.0, "fusion_lon": 0.0, "bike_id": "88dff9e2867cfde3b5bd392ceda48073", "rental_uris": {"ios": "https://dc.lft.to/lastmile_qr_scan", "android": "https://dc.lft.to/lastmile_qr_scan"}, "type": "electric_scooter", "lat": 38.915491, "is_disabled": 0, "lon": -77.03254416666667, "is_reserved": 0}, {"name": "4cb47efedee8fd32b7cc994f2403b46f", "fusion_lat": 0.0, "fusion_lon": 0.0, "bike_id": "4cb47efedee8fd32b7cc994f2403b46f", "rental_uris": {"ios": "https://dc.lft.to/lastmile_qr_scan", "android": "https://dc.lft.to/lastmile_qr_scan"}, "type": "electric_scooter", "lat": 38.89944066666666, "is_disabled": 0, "lon": -77.04350566666666, "is_reserved": 0}, {"name": "9e79cc5e565d42ede3ad8163e9f2cb83", "fusion_lat": 0.0, "fusion_lon": 0.0, "bike_id": "9e79cc5e565d42ede3ad8163e9f2cb83", "rental_uris": {"ios": "https://dc.lft.to/lastmile_qr_scan", "android": "https://dc.lft.to/lastmile_qr_scan"}, "type": "electric_scooter", "lat": 38.91559483333333, "is_disabled": 0, "lon": -77.03277416666667, "is_reserved": 0}, {"name": "1d4710449b2b6aaaa3dab6f6f10fb31a", "fusion_lat": 0.0, "fusion_lon": 0.0, "bike_id": "1d4710449b2b6aaaa3dab6f6f10fb31a", "rental_uris": {"ios": "https://dc.lft.to/lastmile_qr_scan", "android": "https://dc.lft.to/lastmile_qr_scan"}, "type": "electric_scooter", "lat": 38.899596333333335, "is_disabled": 0, "lon": -77.04607683333333, "is_reserved": 0}, {"name": "d5b2e961e8ae926ab249001fc9b1a30a", "fusion_lat": 0.0, "fusion_lon": 0.0, "bike_id": "d5b2e961e8ae926ab249001fc9b1a30a", "rental_uris": {"ios": "https://dc.lft.to/lastmile_qr_scan", "android": "https://dc.lft.to/lastmile_qr_scan"}, "type": "electric_scooter", "lat": 38.897180166666665, "is_disabled": 0, "lon": -77.00804916666667, "is_reserved": 0}, {"name": "9f040ce6ab9d46653fc2d20441f75c59", "fusion_lat": 0.0, "fusion_lon": 0.0, "bike_id": "9f040ce6ab9d46653fc2d20441f75c59", "rental_uris": {"ios": "https://dc.lft.to/lastmile_qr_scan", "android": "https://dc.lft.to/lastmile_qr_scan"}, "type": "electric_scooter", "lat": 38.896149333333334, "is_disabled": 0, "lon": -76.99640983333333, "is_reserved": 0}, {"name": "81d96d4176010446dc5a5c34b0c563e9", "fusion_lat": 0.0, "fusion_lon": 0.0, "bike_id": "81d96d4176010446dc5a5c34b0c563e9", "rental_uris": {"ios": "https://dc.lft.to/lastmile_qr_scan", "android": "https://dc.lft.to/lastmile_qr_scan"}, "type": "electric_scooter", "lat": 38.932541, "is_disabled": 0, "lon": -77.03277316666667, "is_reserved": 0}, {"name": "d83153ef666915585504a550a13f4723", "fusion_lat": 0.0, "fusion_lon": 0.0, "bike_id": "d83153ef666915585504a550a13f4723", "rental_uris": {"ios": "https://dc.lft.to/lastmile_qr_scan", "android": "https://dc.lft.to/lastmile_qr_scan"}, "type": "electric_scooter", "lat": 38.902363666666666, "is_disabled": 0, "lon": -77.00204, "is_reserved": 0}, {"name": "b04f30dc20d1c2271aa54a291ca596f3", "fusion_lat": 0.0, "fusion_lon": 0.0, "bike_id": "b04f30dc20d1c2271aa54a291ca596f3", "rental_uris": {"ios": "https://dc.lft.to/lastmile_qr_scan", "android": "https://dc.lft.to/lastmile_qr_scan"}, "type": "electric_bike", "lat": 38.918545, "is_disabled": 0, "lon": -76.9609405, "is_reserved": 0}, {"name": "c955c7e4d59ee89a9fb231bdba877c3b", "fusion_lat": 0.0, "fusion_lon": 0.0, "bike_id": "c955c7e4d59ee89a9fb231bdba877c3b", "rental_uris": {"ios": "https://dc.lft.to/lastmile_qr_scan", "android": "https://dc.lft.to/lastmile_qr_scan"}, "type": "electric_scooter", "lat": 38.920913666666664, "is_disabled": 0, "lon": -77.04015683333333, "is_reserved": 0}, {"name": "4fe694165abaac2b3fe2569b87ccce9d", "fusion_lat": 0.0, "fusion_lon": 0.0, "bike_id": "4fe694165abaac2b3fe2569b87ccce9d", "rental_uris": {"ios": "https://dc.lft.to/lastmile_qr_scan", "android": "https://dc.lft.to/lastmile_qr_scan"}, "type": "electric_scooter", "lat": 38.92848466666667, "is_disabled": 0, "lon": -77.0562825, "is_reserved": 0}, {"name": "7c2587ca32322c5c62bd964d9d8820d7", "fusion_lat": 0.0, "fusion_lon": 0.0, "bike_id": "7c2587ca32322c5c62bd964d9d8820d7", "rental_uris": {"ios": "https://dc.lft.to/lastmile_qr_scan", "android": "https://dc.lft.to/lastmile_qr_scan"}, "type": "electric_scooter", "lat": 38.909758333333336, "is_disabled": 0, "lon": -77.04225733333334, "is_reserved": 0}, {"name": "10705d267227ed2d17e8673fd5125598", "fusion_lat": 0.0, "fusion_lon": 0.0, "bike_id": "10705d267227ed2d17e8673fd5125598", "rental_uris": {"ios": "https://dc.lft.to/lastmile_qr_scan", "android": "https://dc.lft.to/lastmile_qr_scan"}, "type": "electric_scooter", "lat": 38.91497916666667, "is_disabled": 0, "lon": -76.9837415, "is_reserved": 0}, {"name": "ec934dd2a02f24407fb09776c2f3212d", "fusion_lat": 0.0, "fusion_lon": 0.0, "bike_id": "ec934dd2a02f24407fb09776c2f3212d", "rental_uris": {"ios": "https://dc.lft.to/lastmile_qr_scan", "android": "https://dc.lft.to/lastmile_qr_scan"}, "type": "electric_scooter", "lat": 38.90486083333333, "is_disabled": 0, "lon": -77.0466145, "is_reserved": 0}, {"name": "9a7f58b9d77bad8414d8aa5f138bb970", "fusion_lat": 0.0, "fusion_lon": 0.0, "bike_id": "9a7f58b9d77bad8414d8aa5f138bb970", "rental_uris": {"ios": "https://dc.lft.to/lastmile_qr_scan", "android": "https://dc.lft.to/lastmile_qr_scan"}, "type": "electric_scooter", "lat": 38.8981275, "is_disabled": 0, "lon": -77.04364266666667, "is_reserved": 0}, {"name": "712858bbc6bd655c9fa96b89c92d5e65", "fusion_lat": 0.0, "fusion_lon": 0.0, "bike_id": "712858bbc6bd655c9fa96b89c92d5e65", "rental_uris": {"ios": "https://dc.lft.to/lastmile_qr_scan", "android": "https://dc.lft.to/lastmile_qr_scan"}, "type": "electric_scooter", "lat": 38.919317, "is_disabled": 0, "lon": -77.07085016666667, "is_reserved": 0}, {"name": "508dfaaa60f67dbfbd40c10c73e4c89a", "fusion_lat": 0.0, "fusion_lon": 0.0, "bike_id": "508dfaaa60f67dbfbd40c10c73e4c89a", "rental_uris": {"ios": "https://dc.lft.to/lastmile_qr_scan", "android": "https://dc.lft.to/lastmile_qr_scan"}, "type": "electric_bike", "lat": 38.8393525, "is_disabled": 0, "lon": -77.07899166666667, "is_reserved": 0}, {"name": "e06c8329ade029abbbdbac2b2dd7fb46", "fusion_lat": 0.0, "fusion_lon": 0.0, "bike_id": "e06c8329ade029abbbdbac2b2dd7fb46", "rental_uris": {"ios": "https://dc.lft.to/lastmile_qr_scan", "android": "https://dc.lft.to/lastmile_qr_scan"}, "type": "electric_scooter", "lat": 38.911518, "is_disabled": 0, "lon": -77.04437833333333, "is_reserved": 0}, {"name": "d32ffb254383d2cf2e61019b206f824b", "fusion_lat": 0.0, "fusion_lon": 0.0, "bike_id": "d32ffb254383d2cf2e61019b206f824b", "rental_uris": {"ios": "https://dc.lft.to/lastmile_qr_scan", "android": "https://dc.lft.to/lastmile_qr_scan"}, "type": "electric_scooter", "lat": 38.89251516666667, "is_disabled": 0, "lon": -76.95212433333333, "is_reserved": 0}, {"name": "809a011562dd26439329a54a9ba5cfb7", "fusion_lat": 0.0, "fusion_lon": 0.0, "bike_id": "809a011562dd26439329a54a9ba5cfb7", "rental_uris": {"ios": "https://dc.lft.to/lastmile_qr_scan", "android": "https://dc.lft.to/lastmile_qr_scan"}, "type": "electric_scooter", "lat": 38.8814395, "is_disabled": 0, "lon": -76.991613, "is_reserved": 0}, {"name": "77632ebb9839f44d3aaee3e8a5e2cf77", "fusion_lat": 0.0, "fusion_lon": 0.0, "bike_id": "77632ebb9839f44d3aaee3e8a5e2cf77", "rental_uris": {"ios": "https://dc.lft.to/lastmile_qr_scan", "android": "https://dc.lft.to/lastmile_qr_scan"}, "type": "electric_bike", "lat": 38.863360166666666, "is_disabled": 0, "lon": -76.98719416666667, "is_reserved": 0}, {"name": "54699ca6b0b91c468271afc044fc7ff7", "fusion_lat": 0.0, "fusion_lon": 0.0, "bike_id": "54699ca6b0b91c468271afc044fc7ff7", "rental_uris": {"ios": "https://dc.lft.to/lastmile_qr_scan", "android": "https://dc.lft.to/lastmile_qr_scan"}, "type": "electric_scooter", "lat": 38.887685833333336, "is_disabled": 0, "lon": -77.01548, "is_reserved": 0}, {"name": "d4037d395c720970dca827bf91aeed2d", "fusion_lat": 0.0, "fusion_lon": 0.0, "bike_id": "d4037d395c720970dca827bf91aeed2d", "rental_uris": {"ios": "https://dc.lft.to/lastmile_qr_scan", "android": "https://dc.lft.to/lastmile_qr_scan"}, "type": "electric_scooter", "lat": 38.904491166666666, "is_disabled": 0, "lon": -77.02943183333333, "is_reserved": 0}, {"name": "6a7699e6e8396609093bc8aa13c3db66", "fusion_lat": 0.0, "fusion_lon": 0.0, "bike_id": "6a7699e6e8396609093bc8aa13c3db66", "rental_uris": {"ios": "https://dc.lft.to/lastmile_qr_scan", "android": "https://dc.lft.to/lastmile_qr_scan"}, "type": "electric_scooter", "lat": 38.908507, "is_disabled": 0, "lon": -77.0206555, "is_reserved": 0}, {"name": "74e700f03460a3dee5d7ee005e869cfd", "fusion_lat": 0.0, "fusion_lon": 0.0, "bike_id": "74e700f03460a3dee5d7ee005e869cfd", "rental_uris": {"ios": "https://dc.lft.to/lastmile_qr_scan", "android": "https://dc.lft.to/lastmile_qr_scan"}, "type": "electric_scooter", "lat": 38.879665333333335, "is_disabled": 0, "lon": -76.98743283333333, "is_reserved": 0}, {"name": "a858987efbc6f97587cc08a3de26e7a3", "fusion_lat": 0.0, "fusion_lon": 0.0, "bike_id": "a858987efbc6f97587cc08a3de26e7a3", "rental_uris": {"ios": "https://dc.lft.to/lastmile_qr_scan", "android": "https://dc.lft.to/lastmile_qr_scan"}, "type": "electric_scooter", "lat": 38.89383316666667, "is_disabled": 0, "lon": -77.04789966666667, "is_reserved": 0}, {"name": "82c243b135b04dd090b6424586a0d7f4", "fusion_lat": 0.0, "fusion_lon": 0.0, "bike_id": "82c243b135b04dd090b6424586a0d7f4", "rental_uris": {"ios": "https://dc.lft.to/lastmile_qr_scan", "android": "https://dc.lft.to/lastmile_qr_scan"}, "type": "electric_scooter", "lat": 38.9036095, "is_disabled": 0, "lon": -77.02985, "is_reserved": 0}, {"name": "2e0dc7e6171c79b17be91cd4ec86afc1", "fusion_lat": 0.0, "fusion_lon": 0.0, "bike_id": "2e0dc7e6171c79b17be91cd4ec86afc1", "rental_uris": {"ios": "https://dc.lft.to/lastmile_qr_scan", "android": "https://dc.lft.to/lastmile_qr_scan"}, "type": "electric_bike", "lat": 38.92640633333333, "is_disabled": 0, "lon": -77.02842583333333, "is_reserved": 0}, {"name": "764ffd2bda5324d73bdc420e6ff35c77", "fusion_lat": 0.0, "fusion_lon": 0.0, "bike_id": "764ffd2bda5324d73bdc420e6ff35c77", "rental_uris": {"ios": "https://dc.lft.to/lastmile_qr_scan", "android": "https://dc.lft.to/lastmile_qr_scan"}, "type": "electric_scooter", "lat": 38.88736766666667, "is_disabled": 0, "lon": -77.02210883333333, "is_reserved": 0}, {"name": "57576c462b6f438458d1748567ba7341", "fusion_lat": 0.0, "fusion_lon": 0.0, "bike_id": "57576c462b6f438458d1748567ba7341", "rental_uris": {"ios": "https://dc.lft.to/lastmile_qr_scan", "android": "https://dc.lft.to/lastmile_qr_scan"}, "type": "electric_scooter", "lat": 38.912114, "is_disabled": 0, "lon": -77.02961733333333, "is_reserved": 0}, {"name": "1ade887a2a55a4463446af559693a791", "fusion_lat": 0.0, "fusion_lon": 0.0, "bike_id": "1ade887a2a55a4463446af559693a791", "rental_uris": {"ios": "https://dc.lft.to/lastmile_qr_scan", "android": "https://dc.lft.to/lastmile_qr_scan"},